{"summary":{"id":"d00088","province":"内蒙古自治区","city":"通辽市","district":"库伦旗","count":18,"total_distance_km":151.842,"coordinate_system":"GCJ-02 / Amap","generated_at":"2026-05-07 20:21:16"},"rows":[{"name":"库伦旗额勒顺畜牧兽医服务有限公司","address":"额勒顺镇","phone":"13284871264;15047182169","category":"医疗保健服务;动物医疗场所;兽医站","area":"","lng":121.632111,"lat":42.991423,"amap_id":"B0KACS08GT","order":1,"prev_distance_km":0.0,"cumulative_distance_km":0.0,"amap_marker_url":"https://uri.amap.com/marker?position=121.632111,42.991423&name=%E5%BA%93%E4%BC%A6%E6%97%97%E9%A2%9D%E5%8B%92%E9%A1%BA%E7%95%9C%E7%89%A7%E5%85%BD%E5%8C%BB%E6%9C%8D%E5%8A%A1%E6%9C%89%E9%99%90%E5%85%AC%E5%8F%B8&src=vetmap&coordinate=gaode&callnative=1"},{"name":"时宪宝兽药","address":"六家子镇","phone":"13948953420","category":"医疗保健服务;动物医疗场所;宠物诊所","area":"","lng":121.362046,"lat":42.75556,"amap_id":"B0FFLKLA7L","order":2,"prev_distance_km":34.237,"cumulative_distance_km":34.237,"amap_marker_url":"https://uri.amap.com/marker?position=121.362046,42.755560&name=%E6%97%B6%E5%AE%AA%E5%AE%9D%E5%85%BD%E8%8D%AF&src=vetmap&coordinate=gaode&callnative=1"},{"name":"万康动保","address":"扣河子镇平安学校西北侧140米","phone":"","category":"医疗保健服务;动物医疗场所;动物医疗场所","area":"","lng":121.256133,"lat":42.615861,"amap_id":"B0J09907RT","order":3,"prev_distance_km":17.783,"cumulative_distance_km":52.02,"amap_marker_url":"https://uri.amap.com/marker?position=121.256133,42.615861&name=%E4%B8%87%E5%BA%B7%E5%8A%A8%E4%BF%9D&src=vetmap&coordinate=gaode&callnative=1"},{"name":"李洪磊兽药","address":"294乡道与460县道交叉口西80米","phone":"","category":"购物服务;购物相关场所;购物相关场所|医疗保健服务;动物医疗场所;动物医疗场所","area":"","lng":121.253425,"lat":42.464675,"amap_id":"B0LUN19945","order":4,"prev_distance_km":16.813,"cumulative_distance_km":68.833,"amap_marker_url":"https://uri.amap.com/marker?position=121.253425,42.464675&name=%E6%9D%8E%E6%B4%AA%E7%A3%8A%E5%85%BD%E8%8D%AF&src=vetmap&coordinate=gaode&callnative=1"},{"name":"小蒋兽药店","address":"中国邮政(水泉邮政所)西北侧70米","phone":"","category":"医疗保健服务;动物医疗场所;动物医疗场所","area":"","lng":121.401725,"lat":42.587425,"amap_id":"B0LDFUS4LB","order":5,"prev_distance_km":18.275,"cumulative_distance_km":87.108,"amap_marker_url":"https://uri.amap.com/marker?position=121.401725,42.587425&name=%E5%B0%8F%E8%92%8B%E5%85%BD%E8%8D%AF%E5%BA%97&src=vetmap&coordinate=gaode&callnative=1"},{"name":"鑫旺兽药店","address":"235乡道南侧","phone":"","category":"医疗保健服务;动物医疗场所;动物医疗场所","area":"","lng":121.402055,"lat":42.587404,"amap_id":"B0G121LPAZ","order":6,"prev_distance_km":0.027,"cumulative_distance_km":87.136,"amap_marker_url":"https://uri.amap.com/marker?position=121.402055,42.587404&name=%E9%91%AB%E6%97%BA%E5%85%BD%E8%8D%AF%E5%BA%97&src=vetmap&coordinate=gaode&callnative=1"},{"name":"文江兽药店","address":"白音花镇","phone":"","category":"医疗保健服务;动物医疗场所;动物医疗场所","area":"","lng":121.616298,"lat":42.566542,"amap_id":"B0KRN1QN61","order":7,"prev_distance_km":17.695,"cumulative_distance_km":104.831,"amap_marker_url":"https://uri.amap.com/marker?position=121.616298,42.566542&name=%E6%96%87%E6%B1%9F%E5%85%BD%E8%8D%AF%E5%BA%97&src=vetmap&coordinate=gaode&callnative=1"},{"name":"宝玉兽药店","address":"海尔空气能东南侧","phone":"","category":"医疗保健服务;动物医疗场所;动物医疗场所","area":"","lng":121.619649,"lat":42.570647,"amap_id":"B0LU29QO21","order":8,"prev_distance_km":0.533,"cumulative_distance_km":105.363,"amap_marker_url":"https://uri.amap.com/marker?position=121.619649,42.570647&name=%E5%AE%9D%E7%8E%89%E5%85%BD%E8%8D%AF%E5%BA%97&src=vetmap&coordinate=gaode&callnative=1"},{"name":"包海龙兽药店","address":"中国邮政(哈尔稿邮政所)东侧80米","phone":"","category":"医疗保健服务;动物医疗场所;动物医疗场所","area":"","lng":121.62619,"lat":42.737044,"amap_id":"B0KUD9C9W2","order":9,"prev_distance_km":18.51,"cumulative_distance_km":123.873,"amap_marker_url":"https://uri.amap.com/marker?position=121.626190,42.737044&name=%E5%8C%85%E6%B5%B7%E9%BE%99%E5%85%BD%E8%8D%AF%E5%BA%97&src=vetmap&coordinate=gaode&callnative=1"},{"name":"东凯兽药店","address":"鸿泽酒店西侧","phone":"","category":"医疗保健服务;动物医疗场所;动物医疗场所","area":"","lng":121.627375,"lat":42.737075,"amap_id":"B0L0KCQECJ","order":10,"prev_distance_km":0.097,"cumulative_distance_km":123.97,"amap_marker_url":"https://uri.amap.com/marker?position=121.627375,42.737075&name=%E4%B8%9C%E5%87%AF%E5%85%BD%E8%8D%AF%E5%BA%97&src=vetmap&coordinate=gaode&callnative=1"},{"name":"阿勇嘎兽药店","address":"哈尔稿中心校西南侧180米","phone":"","category":"医疗保健服务;动物医疗场所;动物医疗场所","area":"","lng":121.628716,"lat":42.736613,"amap_id":"B0KRN1FCVK","order":11,"prev_distance_km":0.121,"cumulative_distance_km":124.091,"amap_marker_url":"https://uri.amap.com/marker?position=121.628716,42.736613&name=%E9%98%BF%E5%8B%87%E5%98%8E%E5%85%BD%E8%8D%AF%E5%BA%97&src=vetmap&coordinate=gaode&callnative=1"},{"name":"伊牛动物诊所","address":"王河米面加工厂东南侧50米","phone":"","category":"医疗保健服务;动物医疗场所;宠物诊所","area":"","lng":121.745493,"lat":42.733747,"amap_id":"B0KRY508QI","order":12,"prev_distance_km":9.543,"cumulative_distance_km":133.634,"amap_marker_url":"https://uri.amap.com/marker?position=121.745493,42.733747&name=%E4%BC%8A%E7%89%9B%E5%8A%A8%E7%89%A9%E8%AF%8A%E6%89%80&src=vetmap&coordinate=gaode&callnative=1"},{"name":"群康兽药店","address":"库伦镇南山回民小学南侧群康兽药店","phone":"18648097198","category":"医疗保健服务;动物医疗场所;动物医疗场所","area":"","lng":121.768648,"lat":42.725056,"amap_id":"B0G2NS18DS","order":13,"prev_distance_km":2.124,"cumulative_distance_km":135.758,"amap_marker_url":"https://uri.amap.com/marker?position=121.768648,42.725056&name=%E7%BE%A4%E5%BA%B7%E5%85%BD%E8%8D%AF%E5%BA%97&src=vetmap&coordinate=gaode&callnative=1"},{"name":"佳贝爱宠物医院","address":"中心街2号","phone":"","category":"医疗保健服务;动物医疗场所;宠物诊所","area":"","lng":121.770539,"lat":42.733084,"amap_id":"B0L2H5AT80","order":14,"prev_distance_km":0.906,"cumulative_distance_km":136.664,"amap_marker_url":"https://uri.amap.com/marker?position=121.770539,42.733084&name=%E4%BD%B3%E8%B4%9D%E7%88%B1%E5%AE%A0%E7%89%A9%E5%8C%BB%E9%99%A2&src=vetmap&coordinate=gaode&callnative=1"},{"name":"亮姐兽药店","address":"新城西路与安代大街交叉口南200米","phone":"15204813168","category":"医疗保健服务;动物医疗场所;动物医疗场所","area":"","lng":121.801738,"lat":42.732686,"amap_id":"B0LDRSBMCF","order":15,"prev_distance_km":2.549,"cumulative_distance_km":139.212,"amap_marker_url":"https://uri.amap.com/marker?position=121.801738,42.732686&name=%E4%BA%AE%E5%A7%90%E5%85%BD%E8%8D%AF%E5%BA%97&src=vetmap&coordinate=gaode&callnative=1"},{"name":"志鹏动物诊所","address":"东梁新区新城西路南段中华保险对面附近","phone":"15894840394","category":"医疗保健服务;动物医疗场所;宠物诊所","area":"","lng":121.802604,"lat":42.727401,"amap_id":"B0HUACCH7U","order":16,"prev_distance_km":0.592,"cumulative_distance_km":139.804,"amap_marker_url":"https://uri.amap.com/marker?position=121.802604,42.727401&name=%E5%BF%97%E9%B9%8F%E5%8A%A8%E7%89%A9%E8%AF%8A%E6%89%80&src=vetmap&coordinate=gaode&callnative=1"},{"name":"思涛兽药","address":"爱民药店(二十六店)西南侧90米","phone":"","category":"医疗保健服务;动物医疗场所;兽医站","area":"","lng":121.931485,"lat":42.76518,"amap_id":"B0J266M3DO","order":17,"prev_distance_km":11.332,"cumulative_distance_km":151.136,"amap_marker_url":"https://uri.amap.com/marker?position=121.931485,42.765180&name=%E6%80%9D%E6%B6%9B%E5%85%BD%E8%8D%AF&src=vetmap&coordinate=gaode&callnative=1"},{"name":"小武兽医兽药","address":"东蒙社区退役军人服务管理站东北侧","phone":"","category":"医疗保健服务;动物医疗场所;动物医疗场所","area":"","lng":121.931875,"lat":42.771525,"amap_id":"B0M6XUQPNQ","order":18,"prev_distance_km":0.706,"cumulative_distance_km":151.842,"amap_marker_url":"https://uri.amap.com/marker?position=121.931875,42.771525&name=%E5%B0%8F%E6%AD%A6%E5%85%BD%E5%8C%BB%E5%85%BD%E8%8D%AF&src=vetmap&coordinate=gaode&callnative=1"}]}