{"summary":{"id":"d00053","province":"内蒙古自治区","city":"呼伦贝尔市","district":"莫力达瓦达斡尔族自治旗","count":12,"route_count":1,"max_route_clinics":12,"total_distance_km":177.529,"coordinate_system":"GCJ-02 / Amap","generated_at":"2026-05-08 19:39:20"},"routes":[{"id":"r1","name":"第1段","count":12,"total_distance_km":177.529,"rows":[{"name":"挚爱宠物诊所","address":"慕仁花园3期2号楼9号门市","phone":"13847095456","category":"医疗保健服务;动物医疗场所;宠物诊所","area":"","lng":124.50736,"lat":48.469611,"amap_id":"B0FFKCEDY3","order":1,"prev_distance_km":0.0,"cumulative_distance_km":0.0,"amap_marker_url":"https://uri.amap.com/marker?position=124.507360,48.469611&name=%E6%8C%9A%E7%88%B1%E5%AE%A0%E7%89%A9%E8%AF%8A%E6%89%80&src=vetmap&coordinate=gaode&callnative=1","route_id":"r1","route_name":"第1段"},{"name":"鑫兽药店","address":"敖拉东街与爱晖南路交叉口东南20米","phone":"","category":"医疗保健服务;动物医疗场所;动物医疗场所","area":"","lng":124.514539,"lat":48.47843,"amap_id":"B0L0SGIHU1","order":2,"prev_distance_km":1.114,"cumulative_distance_km":1.114,"amap_marker_url":"https://uri.amap.com/marker?position=124.514539,48.478430&name=%E9%91%AB%E5%85%BD%E8%8D%AF%E5%BA%97&src=vetmap&coordinate=gaode&callnative=1","route_id":"r1","route_name":"第1段"},{"name":"会荣堂动物诊所","address":"一小西门北","phone":"15248774360","category":"医疗保健服务;动物医疗场所;宠物诊所","area":"","lng":124.507602,"lat":48.481575,"amap_id":"B0FFHD20FZ","order":3,"prev_distance_km":0.619,"cumulative_distance_km":1.734,"amap_marker_url":"https://uri.amap.com/marker?position=124.507602,48.481575&name=%E4%BC%9A%E8%8D%A3%E5%A0%82%E5%8A%A8%E7%89%A9%E8%AF%8A%E6%89%80&src=vetmap&coordinate=gaode&callnative=1","route_id":"r1","route_name":"第1段"},{"name":"萌可宠物诊所","address":"莫日登西街44号","phone":"18447010014","category":"医疗保健服务;动物医疗场所;宠物诊所","area":"","lng":124.500684,"lat":48.479644,"amap_id":"B0LRC5FL7A","order":4,"prev_distance_km":0.553,"cumulative_distance_km":2.287,"amap_marker_url":"https://uri.amap.com/marker?position=124.500684,48.479644&name=%E8%90%8C%E5%8F%AF%E5%AE%A0%E7%89%A9%E8%AF%8A%E6%89%80&src=vetmap&coordinate=gaode&callnative=1","route_id":"r1","route_name":"第1段"},{"name":"牧野兽药","address":"新客运站对面门市牧野兽药店","phone":"15149250567;18747022722","category":"医疗保健服务;动物医疗场所;动物医疗场所","area":"","lng":124.462419,"lat":48.481315,"amap_id":"B0FFLDSPA3","order":5,"prev_distance_km":2.827,"cumulative_distance_km":5.114,"amap_marker_url":"https://uri.amap.com/marker?position=124.462419,48.481315&name=%E7%89%A7%E9%87%8E%E5%85%BD%E8%8D%AF&src=vetmap&coordinate=gaode&callnative=1","route_id":"r1","route_name":"第1段"},{"name":"玉海兽药店","address":"X307莫力达瓦达斡尔旗自治旗农村信用合作联社西瓦尔图信用社东北侧约160米","phone":"","category":"医疗保健服务;动物医疗场所;动物医疗场所","area":"","lng":124.28159,"lat":48.668458,"amap_id":"B0G0V4IDKP","order":6,"prev_distance_km":24.699,"cumulative_distance_km":29.812,"amap_marker_url":"https://uri.amap.com/marker?position=124.281590,48.668458&name=%E7%8E%89%E6%B5%B7%E5%85%BD%E8%8D%AF%E5%BA%97&src=vetmap&coordinate=gaode&callnative=1","route_id":"r1","route_name":"第1段"},{"name":"金刚兽药店","address":"中国邮政(塔温敖宝邮政支局)西北侧100米","phone":"","category":"医疗保健服务;动物医疗场所;动物医疗场所","area":"","lng":124.121925,"lat":49.061125,"amap_id":"B0L32543E1","order":7,"prev_distance_km":45.198,"cumulative_distance_km":75.01,"amap_marker_url":"https://uri.amap.com/marker?position=124.121925,49.061125&name=%E9%87%91%E5%88%9A%E5%85%BD%E8%8D%AF%E5%BA%97&src=vetmap&coordinate=gaode&callnative=1","route_id":"r1","route_name":"第1段"},{"name":"吉鑫兽药店","address":"塔温敖宝镇卧罗河村退役军人服务站西南侧230米","phone":"","category":"医疗保健服务;动物医疗场所;动物医疗场所","area":"","lng":124.01839,"lat":49.300633,"amap_id":"B0LRTG9P9L","order":8,"prev_distance_km":27.675,"cumulative_distance_km":102.685,"amap_marker_url":"https://uri.amap.com/marker?position=124.018390,49.300633&name=%E5%90%89%E9%91%AB%E5%85%BD%E8%8D%AF%E5%BA%97&src=vetmap&coordinate=gaode&callnative=1","route_id":"r1","route_name":"第1段"},{"name":"康富兽药店","address":"卧罗河邮政所东侧90米","phone":"","category":"医疗保健服务;动物医疗场所;动物医疗场所","area":"","lng":124.022287,"lat":49.302986,"amap_id":"B0L39HSKH7","order":9,"prev_distance_km":0.385,"cumulative_distance_km":103.07,"amap_marker_url":"https://uri.amap.com/marker?position=124.022287,49.302986&name=%E5%BA%B7%E5%AF%8C%E5%85%BD%E8%8D%AF%E5%BA%97&src=vetmap&coordinate=gaode&callnative=1","route_id":"r1","route_name":"第1段"},{"name":"达康兽药店","address":"莫旗甘河农场鑫诚信农资西南侧150米","phone":"","category":"医疗保健服务;动物医疗场所;动物医疗场所","area":"","lng":124.637534,"lat":49.376834,"amap_id":"B0KRKD8GR6","order":10,"prev_distance_km":45.325,"cumulative_distance_km":148.395,"amap_marker_url":"https://uri.amap.com/marker?position=124.637534,49.376834&name=%E8%BE%BE%E5%BA%B7%E5%85%BD%E8%8D%AF%E5%BA%97&src=vetmap&coordinate=gaode&callnative=1","route_id":"r1","route_name":"第1段"},{"name":"佳胜兽药店","address":"甘河农场中央街与长兴路交叉口西南260米","phone":"","category":"医疗保健服务;动物医疗场所;动物医疗场所","area":"","lng":124.63995,"lat":49.377746,"amap_id":"B0J2L9YMSQ","order":11,"prev_distance_km":0.202,"cumulative_distance_km":148.597,"amap_marker_url":"https://uri.amap.com/marker?position=124.639950,49.377746&name=%E4%BD%B3%E8%83%9C%E5%85%BD%E8%8D%AF%E5%BA%97&src=vetmap&coordinate=gaode&callnative=1","route_id":"r1","route_name":"第1段"},{"name":"鑫旺兽药店","address":"111国道与拉红段交叉口西北160米","phone":"","category":"医疗保健服务;动物医疗场所;动物医疗场所","area":"","lng":124.982675,"lat":49.512075,"amap_id":"B0MBKXR711","order":12,"prev_distance_km":28.932,"cumulative_distance_km":177.529,"amap_marker_url":"https://uri.amap.com/marker?position=124.982675,49.512075&name=%E9%91%AB%E6%97%BA%E5%85%BD%E8%8D%AF%E5%BA%97&src=vetmap&coordinate=gaode&callnative=1","route_id":"r1","route_name":"第1段"}]}],"rows":[{"name":"挚爱宠物诊所","address":"慕仁花园3期2号楼9号门市","phone":"13847095456","category":"医疗保健服务;动物医疗场所;宠物诊所","area":"","lng":124.50736,"lat":48.469611,"amap_id":"B0FFKCEDY3","order":1,"prev_distance_km":0.0,"cumulative_distance_km":0.0,"amap_marker_url":"https://uri.amap.com/marker?position=124.507360,48.469611&name=%E6%8C%9A%E7%88%B1%E5%AE%A0%E7%89%A9%E8%AF%8A%E6%89%80&src=vetmap&coordinate=gaode&callnative=1","route_id":"r1","route_name":"第1段","global_order":1},{"name":"鑫兽药店","address":"敖拉东街与爱晖南路交叉口东南20米","phone":"","category":"医疗保健服务;动物医疗场所;动物医疗场所","area":"","lng":124.514539,"lat":48.47843,"amap_id":"B0L0SGIHU1","order":2,"prev_distance_km":1.114,"cumulative_distance_km":1.114,"amap_marker_url":"https://uri.amap.com/marker?position=124.514539,48.478430&name=%E9%91%AB%E5%85%BD%E8%8D%AF%E5%BA%97&src=vetmap&coordinate=gaode&callnative=1","route_id":"r1","route_name":"第1段","global_order":2},{"name":"会荣堂动物诊所","address":"一小西门北","phone":"15248774360","category":"医疗保健服务;动物医疗场所;宠物诊所","area":"","lng":124.507602,"lat":48.481575,"amap_id":"B0FFHD20FZ","order":3,"prev_distance_km":0.619,"cumulative_distance_km":1.734,"amap_marker_url":"https://uri.amap.com/marker?position=124.507602,48.481575&name=%E4%BC%9A%E8%8D%A3%E5%A0%82%E5%8A%A8%E7%89%A9%E8%AF%8A%E6%89%80&src=vetmap&coordinate=gaode&callnative=1","route_id":"r1","route_name":"第1段","global_order":3},{"name":"萌可宠物诊所","address":"莫日登西街44号","phone":"18447010014","category":"医疗保健服务;动物医疗场所;宠物诊所","area":"","lng":124.500684,"lat":48.479644,"amap_id":"B0LRC5FL7A","order":4,"prev_distance_km":0.553,"cumulative_distance_km":2.287,"amap_marker_url":"https://uri.amap.com/marker?position=124.500684,48.479644&name=%E8%90%8C%E5%8F%AF%E5%AE%A0%E7%89%A9%E8%AF%8A%E6%89%80&src=vetmap&coordinate=gaode&callnative=1","route_id":"r1","route_name":"第1段","global_order":4},{"name":"牧野兽药","address":"新客运站对面门市牧野兽药店","phone":"15149250567;18747022722","category":"医疗保健服务;动物医疗场所;动物医疗场所","area":"","lng":124.462419,"lat":48.481315,"amap_id":"B0FFLDSPA3","order":5,"prev_distance_km":2.827,"cumulative_distance_km":5.114,"amap_marker_url":"https://uri.amap.com/marker?position=124.462419,48.481315&name=%E7%89%A7%E9%87%8E%E5%85%BD%E8%8D%AF&src=vetmap&coordinate=gaode&callnative=1","route_id":"r1","route_name":"第1段","global_order":5},{"name":"玉海兽药店","address":"X307莫力达瓦达斡尔旗自治旗农村信用合作联社西瓦尔图信用社东北侧约160米","phone":"","category":"医疗保健服务;动物医疗场所;动物医疗场所","area":"","lng":124.28159,"lat":48.668458,"amap_id":"B0G0V4IDKP","order":6,"prev_distance_km":24.699,"cumulative_distance_km":29.812,"amap_marker_url":"https://uri.amap.com/marker?position=124.281590,48.668458&name=%E7%8E%89%E6%B5%B7%E5%85%BD%E8%8D%AF%E5%BA%97&src=vetmap&coordinate=gaode&callnative=1","route_id":"r1","route_name":"第1段","global_order":6},{"name":"金刚兽药店","address":"中国邮政(塔温敖宝邮政支局)西北侧100米","phone":"","category":"医疗保健服务;动物医疗场所;动物医疗场所","area":"","lng":124.121925,"lat":49.061125,"amap_id":"B0L32543E1","order":7,"prev_distance_km":45.198,"cumulative_distance_km":75.01,"amap_marker_url":"https://uri.amap.com/marker?position=124.121925,49.061125&name=%E9%87%91%E5%88%9A%E5%85%BD%E8%8D%AF%E5%BA%97&src=vetmap&coordinate=gaode&callnative=1","route_id":"r1","route_name":"第1段","global_order":7},{"name":"吉鑫兽药店","address":"塔温敖宝镇卧罗河村退役军人服务站西南侧230米","phone":"","category":"医疗保健服务;动物医疗场所;动物医疗场所","area":"","lng":124.01839,"lat":49.300633,"amap_id":"B0LRTG9P9L","order":8,"prev_distance_km":27.675,"cumulative_distance_km":102.685,"amap_marker_url":"https://uri.amap.com/marker?position=124.018390,49.300633&name=%E5%90%89%E9%91%AB%E5%85%BD%E8%8D%AF%E5%BA%97&src=vetmap&coordinate=gaode&callnative=1","route_id":"r1","route_name":"第1段","global_order":8},{"name":"康富兽药店","address":"卧罗河邮政所东侧90米","phone":"","category":"医疗保健服务;动物医疗场所;动物医疗场所","area":"","lng":124.022287,"lat":49.302986,"amap_id":"B0L39HSKH7","order":9,"prev_distance_km":0.385,"cumulative_distance_km":103.07,"amap_marker_url":"https://uri.amap.com/marker?position=124.022287,49.302986&name=%E5%BA%B7%E5%AF%8C%E5%85%BD%E8%8D%AF%E5%BA%97&src=vetmap&coordinate=gaode&callnative=1","route_id":"r1","route_name":"第1段","global_order":9},{"name":"达康兽药店","address":"莫旗甘河农场鑫诚信农资西南侧150米","phone":"","category":"医疗保健服务;动物医疗场所;动物医疗场所","area":"","lng":124.637534,"lat":49.376834,"amap_id":"B0KRKD8GR6","order":10,"prev_distance_km":45.325,"cumulative_distance_km":148.395,"amap_marker_url":"https://uri.amap.com/marker?position=124.637534,49.376834&name=%E8%BE%BE%E5%BA%B7%E5%85%BD%E8%8D%AF%E5%BA%97&src=vetmap&coordinate=gaode&callnative=1","route_id":"r1","route_name":"第1段","global_order":10},{"name":"佳胜兽药店","address":"甘河农场中央街与长兴路交叉口西南260米","phone":"","category":"医疗保健服务;动物医疗场所;动物医疗场所","area":"","lng":124.63995,"lat":49.377746,"amap_id":"B0J2L9YMSQ","order":11,"prev_distance_km":0.202,"cumulative_distance_km":148.597,"amap_marker_url":"https://uri.amap.com/marker?position=124.639950,49.377746&name=%E4%BD%B3%E8%83%9C%E5%85%BD%E8%8D%AF%E5%BA%97&src=vetmap&coordinate=gaode&callnative=1","route_id":"r1","route_name":"第1段","global_order":11},{"name":"鑫旺兽药店","address":"111国道与拉红段交叉口西北160米","phone":"","category":"医疗保健服务;动物医疗场所;动物医疗场所","area":"","lng":124.982675,"lat":49.512075,"amap_id":"B0MBKXR711","order":12,"prev_distance_km":28.932,"cumulative_distance_km":177.529,"amap_marker_url":"https://uri.amap.com/marker?position=124.982675,49.512075&name=%E9%91%AB%E6%97%BA%E5%85%BD%E8%8D%AF%E5%BA%97&src=vetmap&coordinate=gaode&callnative=1","route_id":"r1","route_name":"第1段","global_order":12}]}