{"summary":{"id":"d00009","province":"上海市","city":"上海市","district":"浦东新区","count":167,"total_distance_km":296.663,"coordinate_system":"GCJ-02 / Amap","generated_at":"2026-05-07 20:21:04"},"rows":[{"name":"潇瑞宁宠物医院","address":"桐晚路100号","phone":"18918001020","category":"医疗保健服务;动物医疗场所;宠物诊所","area":"三林","lng":121.46843,"lat":31.148602,"amap_id":"B0KD05X1T3","order":1,"prev_distance_km":0.0,"cumulative_distance_km":0.0,"amap_marker_url":"https://uri.amap.com/marker?position=121.468430,31.148602&name=%E6%BD%87%E7%91%9E%E5%AE%81%E5%AE%A0%E7%89%A9%E5%8C%BB%E9%99%A2&src=vetmap&coordinate=gaode&callnative=1"},{"name":"佩瑞宠物医院","address":"前滩公园巷N2栋112单元、210单元","phone":"18964555165","category":"医疗保健服务;动物医疗场所;宠物诊所","area":"三林","lng":121.473322,"lat":31.153712,"amap_id":"B0L0BUVBQV","order":2,"prev_distance_km":0.735,"cumulative_distance_km":0.735,"amap_marker_url":"https://uri.amap.com/marker?position=121.473322,31.153712&name=%E4%BD%A9%E7%91%9E%E5%AE%A0%E7%89%A9%E5%8C%BB%E9%99%A2&src=vetmap&coordinate=gaode&callnative=1"},{"name":"康成宠物医院(三林店)","address":"杨南路341号(灵岩南路地铁站3号口步行280米)","phone":"15317522702","category":"医疗保健服务;动物医疗场所;宠物诊所","area":"上南","lng":121.493303,"lat":31.149834,"amap_id":"B0HKPSABR2","order":3,"prev_distance_km":1.95,"cumulative_distance_km":2.684,"amap_marker_url":"https://uri.amap.com/marker?position=121.493303,31.149834&name=%E5%BA%B7%E6%88%90%E5%AE%A0%E7%89%A9%E5%8C%BB%E9%99%A2%28%E4%B8%89%E6%9E%97%E5%BA%97%29&src=vetmap&coordinate=gaode&callnative=1"},{"name":"宠爱国际动物医院(杨思店)","address":"上南路3414-3418号1层(与恒大路交叉口)","phone":"021-80206599","category":"医疗保健服务;动物医疗场所;宠物诊所","area":"三林","lng":121.498888,"lat":31.157699,"amap_id":"B0H3254ZSK","order":4,"prev_distance_km":1.023,"cumulative_distance_km":3.708,"amap_marker_url":"https://uri.amap.com/marker?position=121.498888,31.157699&name=%E5%AE%A0%E7%88%B1%E5%9B%BD%E9%99%85%E5%8A%A8%E7%89%A9%E5%8C%BB%E9%99%A2%28%E6%9D%A8%E6%80%9D%E5%BA%97%29&src=vetmap&coordinate=gaode&callnative=1"},{"name":"蓝溪动物医院","address":"上南路3105号","phone":"18016236951","category":"医疗保健服务;动物医疗场所;宠物诊所","area":"上南地区","lng":121.498533,"lat":31.160303,"amap_id":"B0FFJZX09N","order":5,"prev_distance_km":0.292,"cumulative_distance_km":3.999,"amap_marker_url":"https://uri.amap.com/marker?position=121.498533,31.160303&name=%E8%93%9D%E6%BA%AA%E5%8A%A8%E7%89%A9%E5%8C%BB%E9%99%A2&src=vetmap&coordinate=gaode&callnative=1"},{"name":"宠它宠物.伊珊娜洗护.寄养","address":"三林海阳路876号宠它宠物伊珊娜洗护寄养","phone":"18201889277","category":"医疗保健服务;动物医疗场所;动物医疗场所","area":"上南","lng":121.503622,"lat":31.157796,"amap_id":"B0LK9CBGBX","order":6,"prev_distance_km":0.559,"cumulative_distance_km":4.558,"amap_marker_url":"https://uri.amap.com/marker?position=121.503622,31.157796&name=%E5%AE%A0%E5%AE%83%E5%AE%A0%E7%89%A9.%E4%BC%8A%E7%8F%8A%E5%A8%9C%E6%B4%97%E6%8A%A4.%E5%AF%84%E5%85%BB&src=vetmap&coordinate=gaode&callnative=1"},{"name":"天吉宠物诊所(上南路店)","address":"三林镇上南路路3826号(上南路地铁站1号口步行350米)","phone":"021-68314686;13916550659;15648487684","category":"医疗保健服务;动物医疗场所;宠物诊所","area":"上南地区","lng":121.50511,"lat":31.150737,"amap_id":"B0FFGY324X","order":7,"prev_distance_km":0.798,"cumulative_distance_km":5.355,"amap_marker_url":"https://uri.amap.com/marker?position=121.505110,31.150737&name=%E5%A4%A9%E5%90%89%E5%AE%A0%E7%89%A9%E8%AF%8A%E6%89%80%28%E4%B8%8A%E5%8D%97%E8%B7%AF%E5%BA%97%29&src=vetmap&coordinate=gaode&callnative=1"},{"name":"航厚宠物诊所(三林店)","address":"三林路878号1号楼二层202-210室","phone":"18221338711","category":"医疗保健服务;动物医疗场所;宠物诊所","area":"上南","lng":121.508998,"lat":31.142085,"amap_id":"B0H1U90WGT","order":8,"prev_distance_km":1.031,"cumulative_distance_km":6.386,"amap_marker_url":"https://uri.amap.com/marker?position=121.508998,31.142085&name=%E8%88%AA%E5%8E%9A%E5%AE%A0%E7%89%A9%E8%AF%8A%E6%89%80%28%E4%B8%89%E6%9E%97%E5%BA%97%29&src=vetmap&coordinate=gaode&callnative=1"},{"name":"安诺宠物医院(三林分院)","address":"灵岩南路1412号","phone":"15902100228","category":"医疗保健服务;动物医疗场所;宠物诊所","area":"上南地区","lng":121.50201,"lat":31.137057,"amap_id":"B0LAN11B36","order":9,"prev_distance_km":0.869,"cumulative_distance_km":7.255,"amap_marker_url":"https://uri.amap.com/marker?position=121.502010,31.137057&name=%E5%AE%89%E8%AF%BA%E5%AE%A0%E7%89%A9%E5%8C%BB%E9%99%A2%28%E4%B8%89%E6%9E%97%E5%88%86%E9%99%A2%29&src=vetmap&coordinate=gaode&callnative=1"},{"name":"爱宠之家(永泰路店)","address":"三林镇永泰路90号","phone":"13120915061;15365534498","category":"医疗保健服务;动物医疗场所;动物医疗场所","area":"上南地区","lng":121.503461,"lat":31.134735,"amap_id":"B0FFH8JXS4","order":10,"prev_distance_km":0.293,"cumulative_distance_km":7.548,"amap_marker_url":"https://uri.amap.com/marker?position=121.503461,31.134735&name=%E7%88%B1%E5%AE%A0%E4%B9%8B%E5%AE%B6%28%E6%B0%B8%E6%B3%B0%E8%B7%AF%E5%BA%97%29&src=vetmap&coordinate=gaode&callnative=1"},{"name":"三林镇动物防疫站","address":"三鲁公路6590号","phone":"","category":"医疗保健服务;动物医疗场所;动物医疗场所","area":"三林","lng":121.50492,"lat":31.132195,"amap_id":"B0FFJ2ERXN","order":11,"prev_distance_km":0.315,"cumulative_distance_km":7.863,"amap_marker_url":"https://uri.amap.com/marker?position=121.504920,31.132195&name=%E4%B8%89%E6%9E%97%E9%95%87%E5%8A%A8%E7%89%A9%E9%98%B2%E7%96%AB%E7%AB%99&src=vetmap&coordinate=gaode&callnative=1"},{"name":"东林宠物医院","address":"三彩路32号34","phone":"021-50809619","category":"医疗保健服务;动物医疗场所;宠物诊所","area":"三林","lng":121.497315,"lat":31.126802,"amap_id":"B0FFGG5UDY","order":12,"prev_distance_km":0.94,"cumulative_distance_km":8.803,"amap_marker_url":"https://uri.amap.com/marker?position=121.497315,31.126802&name=%E4%B8%9C%E6%9E%97%E5%AE%A0%E7%89%A9%E5%8C%BB%E9%99%A2&src=vetmap&coordinate=gaode&callnative=1"},{"name":"瑞鹏宠物医院狂犬免疫·骨科·宠保定点(三林路分院)","address":"三林路1631号(三林东地铁站2号口步行320米)","phone":"021-68392365","category":"医疗保健服务;动物医疗场所;宠物诊所","area":"三林","lng":121.52564,"lat":31.147507,"amap_id":"B0FFJI4M4T","order":13,"prev_distance_km":3.545,"cumulative_distance_km":12.348,"amap_marker_url":"https://uri.amap.com/marker?position=121.525640,31.147507&name=%E7%91%9E%E9%B9%8F%E5%AE%A0%E7%89%A9%E5%8C%BB%E9%99%A2%E7%8B%82%E7%8A%AC%E5%85%8D%E7%96%AB%C2%B7%E9%AA%A8%E7%A7%91%C2%B7%E5%AE%A0%E4%BF%9D%E5%AE%9A%E7%82%B9%28%E4%B8%89%E6%9E%97%E8%B7%AF%E5%88%86%E9%99%A2%29&src=vetmap&coordinate=gaode&callnative=1"},{"name":"仁济宠物医院","address":"三林镇御桥路109号","phone":"13472813195","category":"医疗保健服务;动物医疗场所;宠物诊所","area":"三林","lng":121.533322,"lat":31.149665,"amap_id":"B0FFK0I201","order":14,"prev_distance_km":0.769,"cumulative_distance_km":13.117,"amap_marker_url":"https://uri.amap.com/marker?position=121.533322,31.149665&name=%E4%BB%81%E6%B5%8E%E5%AE%A0%E7%89%A9%E5%8C%BB%E9%99%A2&src=vetmap&coordinate=gaode&callnative=1"},{"name":"AOA宠物美容·美容洗护","address":"大道站路与浦三路交叉口东40米","phone":"","category":"医疗保健服务;动物医疗场所;宠物诊所","area":"三林","lng":121.534743,"lat":31.158866,"amap_id":"B0L0TOBV3I","order":15,"prev_distance_km":1.032,"cumulative_distance_km":14.149,"amap_marker_url":"https://uri.amap.com/marker?position=121.534743,31.158866&name=AOA%E5%AE%A0%E7%89%A9%E7%BE%8E%E5%AE%B9%C2%B7%E7%BE%8E%E5%AE%B9%E6%B4%97%E6%8A%A4&src=vetmap&coordinate=gaode&callnative=1"},{"name":"典石宠物医院·骨科·外科·综合内科(三林分院)","address":"东书房路418,422号1-2层","phone":"19101789829","category":"医疗保健服务;动物医疗场所;宠物诊所","area":"三林","lng":121.535633,"lat":31.164035,"amap_id":"B0H1UHXVG4","order":16,"prev_distance_km":0.581,"cumulative_distance_km":14.73,"amap_marker_url":"https://uri.amap.com/marker?position=121.535633,31.164035&name=%E5%85%B8%E7%9F%B3%E5%AE%A0%E7%89%A9%E5%8C%BB%E9%99%A2%C2%B7%E9%AA%A8%E7%A7%91%C2%B7%E5%A4%96%E7%A7%91%C2%B7%E7%BB%BC%E5%90%88%E5%86%85%E7%A7%91%28%E4%B8%89%E6%9E%97%E5%88%86%E9%99%A2%29&src=vetmap&coordinate=gaode&callnative=1"},{"name":"卡斯柏宠物医院·骨科·高压氧舱治疗中心(成山路店)","address":"成山路与华春路交叉口东60米","phone":"","category":"医疗保健服务;动物医疗场所;宠物诊所","area":"六里","lng":121.529023,"lat":31.176811,"amap_id":"B0LBDASJL0","order":17,"prev_distance_km":1.554,"cumulative_distance_km":16.284,"amap_marker_url":"https://uri.amap.com/marker?position=121.529023,31.176811&name=%E5%8D%A1%E6%96%AF%E6%9F%8F%E5%AE%A0%E7%89%A9%E5%8C%BB%E9%99%A2%C2%B7%E9%AA%A8%E7%A7%91%C2%B7%E9%AB%98%E5%8E%8B%E6%B0%A7%E8%88%B1%E6%B2%BB%E7%96%97%E4%B8%AD%E5%BF%83%28%E6%88%90%E5%B1%B1%E8%B7%AF%E5%BA%97%29&src=vetmap&coordinate=gaode&callnative=1"},{"name":"程心橙意动物医院·猫病专科(成山路店)","address":"成山路1672号(华鹏路地铁站1号口步行100米)","phone":"17717299856","category":"医疗保健服务;动物医疗场所;宠物诊所","area":"六里","lng":121.529017,"lat":31.176816,"amap_id":"B0KABM90ZU","order":18,"prev_distance_km":0.001,"cumulative_distance_km":16.285,"amap_marker_url":"https://uri.amap.com/marker?position=121.529017,31.176816&name=%E7%A8%8B%E5%BF%83%E6%A9%99%E6%84%8F%E5%8A%A8%E7%89%A9%E5%8C%BB%E9%99%A2%C2%B7%E7%8C%AB%E7%97%85%E4%B8%93%E7%A7%91%28%E6%88%90%E5%B1%B1%E8%B7%AF%E5%BA%97%29&src=vetmap&coordinate=gaode&callnative=1"},{"name":"瑞派杭杭宠物医院(北艾路店)","address":"北艾路1738号1层","phone":"021-68889001;15301725001","category":"医疗保健服务;动物医疗场所;宠物诊所","area":"六里","lng":121.522856,"lat":31.179989,"amap_id":"B0JDCHV902","order":19,"prev_distance_km":0.684,"cumulative_distance_km":16.969,"amap_marker_url":"https://uri.amap.com/marker?position=121.522856,31.179989&name=%E7%91%9E%E6%B4%BE%E6%9D%AD%E6%9D%AD%E5%AE%A0%E7%89%A9%E5%8C%BB%E9%99%A2%28%E5%8C%97%E8%89%BE%E8%B7%AF%E5%BA%97%29&src=vetmap&coordinate=gaode&callnative=1"},{"name":"上海皆爱宠物诊所","address":"北艾路1801号(近杨高南路)","phone":"19946120682","category":"医疗保健服务;动物医疗场所;宠物诊所","area":"南码头","lng":121.52113,"lat":31.179284,"amap_id":"B0LD2AMB5Q","order":20,"prev_distance_km":0.182,"cumulative_distance_km":17.151,"amap_marker_url":"https://uri.amap.com/marker?position=121.521130,31.179284&name=%E4%B8%8A%E6%B5%B7%E7%9A%86%E7%88%B1%E5%AE%A0%E7%89%A9%E8%AF%8A%E6%89%80&src=vetmap&coordinate=gaode&callnative=1"},{"name":"艾吉宠物医院(昌里东路分院)","address":"昌里东路841-843号","phone":"021-50338127;17721420289;4001680588","category":"医疗保健服务;动物医疗场所;宠物诊所","area":"昌里","lng":121.519071,"lat":31.181456,"amap_id":"B0FFLIIRY2","order":21,"prev_distance_km":0.311,"cumulative_distance_km":17.462,"amap_marker_url":"https://uri.amap.com/marker?position=121.519071,31.181456&name=%E8%89%BE%E5%90%89%E5%AE%A0%E7%89%A9%E5%8C%BB%E9%99%A2%28%E6%98%8C%E9%87%8C%E4%B8%9C%E8%B7%AF%E5%88%86%E9%99%A2%29&src=vetmap&coordinate=gaode&callnative=1"},{"name":"广际宠物美容(齐河路店)","address":"齐河路713-715号","phone":"13636443032","category":"医疗保健服务;动物医疗场所;动物医疗场所","area":"昌里","lng":121.512592,"lat":31.182053,"amap_id":"B00154DGCU","order":22,"prev_distance_km":0.62,"cumulative_distance_km":18.082,"amap_marker_url":"https://uri.amap.com/marker?position=121.512592,31.182053&name=%E5%B9%BF%E9%99%85%E5%AE%A0%E7%89%A9%E7%BE%8E%E5%AE%B9%28%E9%BD%90%E6%B2%B3%E8%B7%AF%E5%BA%97%29&src=vetmap&coordinate=gaode&callnative=1"},{"name":"广济宠物医院(齐河路店)","address":"齐河路713-715号","phone":"021-50776545","category":"医疗保健服务;动物医疗场所;宠物诊所","area":"昌里","lng":121.512396,"lat":31.18199,"amap_id":"B0FFF5EZ3U","order":23,"prev_distance_km":0.02,"cumulative_distance_km":18.101,"amap_marker_url":"https://uri.amap.com/marker?position=121.512396,31.181990&name=%E5%B9%BF%E6%B5%8E%E5%AE%A0%E7%89%A9%E5%8C%BB%E9%99%A2%28%E9%BD%90%E6%B2%B3%E8%B7%AF%E5%BA%97%29&src=vetmap&coordinate=gaode&callnative=1"},{"name":"上海仁普宠物诊所","address":"东明路660弄1-19号住友昌盛新苑","phone":"021-68880787","category":"医疗保健服务;动物医疗场所;宠物诊所","area":"昌里","lng":121.509593,"lat":31.178124,"amap_id":"B0IU7BF2HY","order":24,"prev_distance_km":0.506,"cumulative_distance_km":18.607,"amap_marker_url":"https://uri.amap.com/marker?position=121.509593,31.178124&name=%E4%B8%8A%E6%B5%B7%E4%BB%81%E6%99%AE%E5%AE%A0%E7%89%A9%E8%AF%8A%E6%89%80&src=vetmap&coordinate=gaode&callnative=1"},{"name":"旺佳宠物诊疗中心","address":"成山路365号","phone":"15901604559","category":"医疗保健服务;动物医疗场所;宠物诊所","area":"昌里","lng":121.503215,"lat":31.172249,"amap_id":"B00155IAG9","order":25,"prev_distance_km":0.892,"cumulative_distance_km":19.499,"amap_marker_url":"https://uri.amap.com/marker?position=121.503215,31.172249&name=%E6%97%BA%E4%BD%B3%E5%AE%A0%E7%89%A9%E8%AF%8A%E7%96%97%E4%B8%AD%E5%BF%83&src=vetmap&coordinate=gaode&callnative=1"},{"name":"瑞辰华诺·云谷24H宠物医院·骨科·内窥镜·综合全科","address":"云台路529弄11号102室","phone":"021-61625195;17321355933","category":"医疗保健服务;动物医疗场所;宠物诊所","area":"上南","lng":121.506882,"lat":31.168635,"amap_id":"B0LG7MMGQD","order":26,"prev_distance_km":0.532,"cumulative_distance_km":20.031,"amap_marker_url":"https://uri.amap.com/marker?position=121.506882,31.168635&name=%E7%91%9E%E8%BE%B0%E5%8D%8E%E8%AF%BA%C2%B7%E4%BA%91%E8%B0%B724H%E5%AE%A0%E7%89%A9%E5%8C%BB%E9%99%A2%C2%B7%E9%AA%A8%E7%A7%91%C2%B7%E5%86%85%E7%AA%A5%E9%95%9C%C2%B7%E7%BB%BC%E5%90%88%E5%85%A8%E7%A7%91&src=vetmap&coordinate=gaode&callnative=1"},{"name":"宠愈堂宠物医院","address":"东明路1798号(高青路地铁站1号口步行230米)","phone":"18901637361","category":"医疗保健服务;动物医疗场所;宠物诊所","area":"上南","lng":121.513829,"lat":31.161668,"amap_id":"B0K1U5EFHE","order":27,"prev_distance_km":1.018,"cumulative_distance_km":21.049,"amap_marker_url":"https://uri.amap.com/marker?position=121.513829,31.161668&name=%E5%AE%A0%E6%84%88%E5%A0%82%E5%AE%A0%E7%89%A9%E5%8C%BB%E9%99%A2&src=vetmap&coordinate=gaode&callnative=1"},{"name":"恒爱宠医","address":"下南路1073-1081号","phone":"021-50786959","category":"医疗保健服务;动物医疗场所;宠物诊所","area":"六里","lng":121.535305,"lat":31.184312,"amap_id":"B0JDCY0PN1","order":28,"prev_distance_km":3.243,"cumulative_distance_km":24.292,"amap_marker_url":"https://uri.amap.com/marker?position=121.535305,31.184312&name=%E6%81%92%E7%88%B1%E5%AE%A0%E5%8C%BB&src=vetmap&coordinate=gaode&callnative=1"},{"name":"上海良晨宠物医院(高科西路总店)","address":"高科西路1851号-1857号一层","phone":"021-58995909","category":"医疗保健服务;动物医疗场所;宠物诊所","area":"六里","lng":121.530725,"lat":31.1879,"amap_id":"B0HDMHUE2T","order":29,"prev_distance_km":0.591,"cumulative_distance_km":24.883,"amap_marker_url":"https://uri.amap.com/marker?position=121.530725,31.187900&name=%E4%B8%8A%E6%B5%B7%E8%89%AF%E6%99%A8%E5%AE%A0%E7%89%A9%E5%8C%BB%E9%99%A2%28%E9%AB%98%E7%A7%91%E8%A5%BF%E8%B7%AF%E6%80%BB%E5%BA%97%29&src=vetmap&coordinate=gaode&callnative=1"},{"name":"医诚宠物诊所","address":"东绣路1172-1174号","phone":"021-50580767","category":"医疗保健服务;动物医疗场所;宠物诊所","area":"塘桥","lng":121.534737,"lat":31.199446,"amap_id":"B0FFHCS3L7","order":30,"prev_distance_km":1.339,"cumulative_distance_km":26.222,"amap_marker_url":"https://uri.amap.com/marker?position=121.534737,31.199446&name=%E5%8C%BB%E8%AF%9A%E5%AE%A0%E7%89%A9%E8%AF%8A%E6%89%80&src=vetmap&coordinate=gaode&callnative=1"},{"name":"宠憨憨宠物医院·中兽医·猫科·异宠专科","address":"东绣路877号1层879号881号1-2层","phone":"18017375004","category":"医疗保健服务;动物医疗场所;宠物诊所","area":"塘桥","lng":121.535756,"lat":31.203636,"amap_id":"B0G0KSSV44","order":31,"prev_distance_km":0.476,"cumulative_distance_km":26.698,"amap_marker_url":"https://uri.amap.com/marker?position=121.535756,31.203636&name=%E5%AE%A0%E6%86%A8%E6%86%A8%E5%AE%A0%E7%89%A9%E5%8C%BB%E9%99%A2%C2%B7%E4%B8%AD%E5%85%BD%E5%8C%BB%C2%B7%E7%8C%AB%E7%A7%91%C2%B7%E5%BC%82%E5%AE%A0%E4%B8%93%E7%A7%91&src=vetmap&coordinate=gaode&callnative=1"},{"name":"吉宠医生·英睦宠物医院","address":"锦绣路1849号1-2层","phone":"13968701561","category":"医疗保健服务;动物医疗场所;宠物诊所","area":"","lng":121.539774,"lat":31.205927,"amap_id":"B0FFJ8WOW1","order":32,"prev_distance_km":0.459,"cumulative_distance_km":27.157,"amap_marker_url":"https://uri.amap.com/marker?position=121.539774,31.205927&name=%E5%90%89%E5%AE%A0%E5%8C%BB%E7%94%9F%C2%B7%E8%8B%B1%E7%9D%A6%E5%AE%A0%E7%89%A9%E5%8C%BB%E9%99%A2&src=vetmap&coordinate=gaode&callnative=1"},{"name":"小怪兽动物医院·骨科专科·急重症·24h转诊中心","address":"锦安东路311-315号","phone":"13621783663","category":"医疗保健服务;动物医疗场所;动物医疗场所","area":"","lng":121.5446,"lat":31.201156,"amap_id":"B0JK1HIHGP","order":33,"prev_distance_km":0.702,"cumulative_distance_km":27.859,"amap_marker_url":"https://uri.amap.com/marker?position=121.544600,31.201156&name=%E5%B0%8F%E6%80%AA%E5%85%BD%E5%8A%A8%E7%89%A9%E5%8C%BB%E9%99%A2%C2%B7%E9%AA%A8%E7%A7%91%E4%B8%93%E7%A7%91%C2%B7%E6%80%A5%E9%87%8D%E7%97%87%C2%B724h%E8%BD%AC%E8%AF%8A%E4%B8%AD%E5%BF%83&src=vetmap&coordinate=gaode&callnative=1"},{"name":"宠爱国际24小时动物医院(世纪公园店)","address":"梅花路989号1-2层","phone":"021-80206569","category":"医疗保健服务;动物医疗场所;宠物诊所","area":"","lng":121.558919,"lat":31.210455,"amap_id":"B0FFLO9RBN","order":34,"prev_distance_km":1.71,"cumulative_distance_km":29.569,"amap_marker_url":"https://uri.amap.com/marker?position=121.558919,31.210455&name=%E5%AE%A0%E7%88%B1%E5%9B%BD%E9%99%8524%E5%B0%8F%E6%97%B6%E5%8A%A8%E7%89%A9%E5%8C%BB%E9%99%A2%28%E4%B8%96%E7%BA%AA%E5%85%AC%E5%9B%AD%E5%BA%97%29&src=vetmap&coordinate=gaode&callnative=1"},{"name":"皮皮熊宠物医院","address":"樱花路839号(与石楠路交叉口西北约30米)","phone":"17521286668;18901988688","category":"医疗保健服务;动物医疗场所;宠物诊所","area":"","lng":121.561321,"lat":31.208099,"amap_id":"B0FFJXSYVL","order":35,"prev_distance_km":0.348,"cumulative_distance_km":29.916,"amap_marker_url":"https://uri.amap.com/marker?position=121.561321,31.208099&name=%E7%9A%AE%E7%9A%AE%E7%86%8A%E5%AE%A0%E7%89%A9%E5%8C%BB%E9%99%A2&src=vetmap&coordinate=gaode&callnative=1"},{"name":"瑞鹏宠物医院宠保定点·狂犬免疫点·内科专科(联洋店)","address":"柳杉路99弄1-27号广洋新景苑","phone":"021-68387993","category":"医疗保健服务;动物医疗场所;宠物诊所","area":"","lng":121.566903,"lat":31.224222,"amap_id":"B0FFG7VN8Z","order":36,"prev_distance_km":1.87,"cumulative_distance_km":31.786,"amap_marker_url":"https://uri.amap.com/marker?position=121.566903,31.224222&name=%E7%91%9E%E9%B9%8F%E5%AE%A0%E7%89%A9%E5%8C%BB%E9%99%A2%E5%AE%A0%E4%BF%9D%E5%AE%9A%E7%82%B9%C2%B7%E7%8B%82%E7%8A%AC%E5%85%8D%E7%96%AB%E7%82%B9%C2%B7%E5%86%85%E7%A7%91%E4%B8%93%E7%A7%91%28%E8%81%94%E6%B4%8B%E5%BA%97%29&src=vetmap&coordinate=gaode&callnative=1"},{"name":"珮珮宠物诊疗中心","address":"紫槐路151-155号","phone":"17701846798","category":"医疗保健服务;动物医疗场所;宠物诊所","area":"洋泾","lng":121.561868,"lat":31.227182,"amap_id":"B0JBCRJ7WI","order":37,"prev_distance_km":0.581,"cumulative_distance_km":32.367,"amap_marker_url":"https://uri.amap.com/marker?position=121.561868,31.227182&name=%E7%8F%AE%E7%8F%AE%E5%AE%A0%E7%89%A9%E8%AF%8A%E7%96%97%E4%B8%AD%E5%BF%83&src=vetmap&coordinate=gaode&callnative=1"},{"name":"安安宠物医院·骨科·牙科·内窥镜(点点分院)","address":"长柳路与迎春路交叉833号","phone":"021-50338583","category":"医疗保健服务;动物医疗场所;宠物诊所","area":"洋泾","lng":121.554574,"lat":31.224153,"amap_id":"B0K0JH3RX0","order":38,"prev_distance_km":0.771,"cumulative_distance_km":33.138,"amap_marker_url":"https://uri.amap.com/marker?position=121.554574,31.224153&name=%E5%AE%89%E5%AE%89%E5%AE%A0%E7%89%A9%E5%8C%BB%E9%99%A2%C2%B7%E9%AA%A8%E7%A7%91%C2%B7%E7%89%99%E7%A7%91%C2%B7%E5%86%85%E7%AA%A5%E9%95%9C%28%E7%82%B9%E7%82%B9%E5%88%86%E9%99%A2%29&src=vetmap&coordinate=gaode&callnative=1"},{"name":"芭比堂机灵鬼宠物转诊中心医院·眼科·肿瘤科·心脏科","address":"张杨路1918号(近苗圃路)","phone":"021-58210890","category":"医疗保健服务;动物医疗场所;宠物诊所","area":"洋泾","lng":121.549856,"lat":31.237663,"amap_id":"B0FFHDUN3W","order":39,"prev_distance_km":1.568,"cumulative_distance_km":34.706,"amap_marker_url":"https://uri.amap.com/marker?position=121.549856,31.237663&name=%E8%8A%AD%E6%AF%94%E5%A0%82%E6%9C%BA%E7%81%B5%E9%AC%BC%E5%AE%A0%E7%89%A9%E8%BD%AC%E8%AF%8A%E4%B8%AD%E5%BF%83%E5%8C%BB%E9%99%A2%C2%B7%E7%9C%BC%E7%A7%91%C2%B7%E8%82%BF%E7%98%A4%E7%A7%91%C2%B7%E5%BF%83%E8%84%8F%E7%A7%91&src=vetmap&coordinate=gaode&callnative=1"},{"name":"汉斯雪瑞宠物医院·骨科·内窥镜·心脏专科","address":"苗圃路174-176号","phone":"13381677172","category":"医疗保健服务;动物医疗场所;宠物诊所","area":"洋泾","lng":121.547047,"lat":31.242995,"amap_id":"B0JAM7F54C","order":40,"prev_distance_km":0.65,"cumulative_distance_km":35.356,"amap_marker_url":"https://uri.amap.com/marker?position=121.547047,31.242995&name=%E6%B1%89%E6%96%AF%E9%9B%AA%E7%91%9E%E5%AE%A0%E7%89%A9%E5%8C%BB%E9%99%A2%C2%B7%E9%AA%A8%E7%A7%91%C2%B7%E5%86%85%E7%AA%A5%E9%95%9C%C2%B7%E5%BF%83%E8%84%8F%E4%B8%93%E7%A7%91&src=vetmap&coordinate=gaode&callnative=1"},{"name":"瑞鹏宠物医院·内科·中兽医·骨科(苗圃店)","address":"浦东大道1778号1-2层","phone":"021-50929117","category":"医疗保健服务;动物医疗场所;宠物诊所","area":"洋泾","lng":121.545599,"lat":31.245661,"amap_id":"B0FFHZ3R9L","order":41,"prev_distance_km":0.327,"cumulative_distance_km":35.683,"amap_marker_url":"https://uri.amap.com/marker?position=121.545599,31.245661&name=%E7%91%9E%E9%B9%8F%E5%AE%A0%E7%89%A9%E5%8C%BB%E9%99%A2%C2%B7%E5%86%85%E7%A7%91%C2%B7%E4%B8%AD%E5%85%BD%E5%8C%BB%C2%B7%E9%AA%A8%E7%A7%91%28%E8%8B%97%E5%9C%83%E5%BA%97%29&src=vetmap&coordinate=gaode&callnative=1"},{"name":"旺超宠物店(崮山店)","address":"名门世家公寓东北门西北50米","phone":"13381667583","category":"医疗保健服务;动物医疗场所;动物医疗场所","area":"洋泾","lng":121.552836,"lat":31.245916,"amap_id":"B00155MW4H","order":42,"prev_distance_km":0.689,"cumulative_distance_km":36.372,"amap_marker_url":"https://uri.amap.com/marker?position=121.552836,31.245916&name=%E6%97%BA%E8%B6%85%E5%AE%A0%E7%89%A9%E5%BA%97%28%E5%B4%AE%E5%B1%B1%E5%BA%97%29&src=vetmap&coordinate=gaode&callnative=1"},{"name":"考拉宠物医院(总院)","address":"崮山路500号明悦大厦西北侧一层108A(馨乐庭酒店旁)","phone":"17502153183","category":"医疗保健服务;动物医疗场所;宠物诊所","area":"洋泾","lng":121.556271,"lat":31.243068,"amap_id":"B0LUMB3051","order":43,"prev_distance_km":0.455,"cumulative_distance_km":36.826,"amap_marker_url":"https://uri.amap.com/marker?position=121.556271,31.243068&name=%E8%80%83%E6%8B%89%E5%AE%A0%E7%89%A9%E5%8C%BB%E9%99%A2%28%E6%80%BB%E9%99%A2%29&src=vetmap&coordinate=gaode&callnative=1"},{"name":"河畔异宠专科宠物医院","address":"张杨路2306号","phone":"021-50895157","category":"医疗保健服务;动物医疗场所;宠物诊所","area":"洋泾","lng":121.557152,"lat":31.240962,"amap_id":"B0JUFDMHOX","order":44,"prev_distance_km":0.249,"cumulative_distance_km":37.075,"amap_marker_url":"https://uri.amap.com/marker?position=121.557152,31.240962&name=%E6%B2%B3%E7%95%94%E5%BC%82%E5%AE%A0%E4%B8%93%E7%A7%91%E5%AE%A0%E7%89%A9%E5%8C%BB%E9%99%A2&src=vetmap&coordinate=gaode&callnative=1"},{"name":"朵拉维特动物医院(浦东新区店)","address":"张杨路1576号(民生路地铁站3号口步行120米)","phone":"15317700725","category":"医疗保健服务;动物医疗场所;宠物诊所","area":"洋泾","lng":121.54217,"lat":31.235029,"amap_id":"B0L2290ERD","order":45,"prev_distance_km":1.57,"cumulative_distance_km":38.645,"amap_marker_url":"https://uri.amap.com/marker?position=121.542170,31.235029&name=%E6%9C%B5%E6%8B%89%E7%BB%B4%E7%89%B9%E5%8A%A8%E7%89%A9%E5%8C%BB%E9%99%A2%28%E6%B5%A6%E4%B8%9C%E6%96%B0%E5%8C%BA%E5%BA%97%29&src=vetmap&coordinate=gaode&callnative=1"},{"name":"美卡尔动物医院·CT急重症·心脏·骨科","address":"桃林路465号(源深体育中心地铁站1号口步行420米)","phone":"13709914528;19921062138","category":"医疗保健服务;动物医疗场所;宠物诊所","area":"洋泾","lng":121.537421,"lat":31.235787,"amap_id":"B0I1BC1Y7U","order":46,"prev_distance_km":0.459,"cumulative_distance_km":39.104,"amap_marker_url":"https://uri.amap.com/marker?position=121.537421,31.235787&name=%E7%BE%8E%E5%8D%A1%E5%B0%94%E5%8A%A8%E7%89%A9%E5%8C%BB%E9%99%A2%C2%B7CT%E6%80%A5%E9%87%8D%E7%97%87%C2%B7%E5%BF%83%E8%84%8F%C2%B7%E9%AA%A8%E7%A7%91&src=vetmap&coordinate=gaode&callnative=1"},{"name":"乐彼宠物(良丰店)","address":"东方路8号良丰大厦(浦东大道地铁站1号口步行280米)","phone":"","category":"购物服务;专卖店;宠物用品店|医疗保健服务;动物医疗场所;动物医疗场所","area":"陆家嘴","lng":121.518975,"lat":31.243075,"amap_id":"B0LKDPM8RC","order":47,"prev_distance_km":1.932,"cumulative_distance_km":41.036,"amap_marker_url":"https://uri.amap.com/marker?position=121.518975,31.243075&name=%E4%B9%90%E5%BD%BC%E5%AE%A0%E7%89%A9%28%E8%89%AF%E4%B8%B0%E5%BA%97%29&src=vetmap&coordinate=gaode&callnative=1"},{"name":"上海市浦东新区陆家嘴街道动物防疫工作站","address":"浦东南路575弄25号内(陆家嘴街道三航小区内)101室","phone":"021-58875674","category":"医疗保健服务;动物医疗场所;动物医疗场所","area":"陆家嘴","lng":121.512718,"lat":31.236354,"amap_id":"B0FFJMT30R","order":48,"prev_distance_km":0.955,"cumulative_distance_km":41.991,"amap_marker_url":"https://uri.amap.com/marker?position=121.512718,31.236354&name=%E4%B8%8A%E6%B5%B7%E5%B8%82%E6%B5%A6%E4%B8%9C%E6%96%B0%E5%8C%BA%E9%99%86%E5%AE%B6%E5%98%B4%E8%A1%97%E9%81%93%E5%8A%A8%E7%89%A9%E9%98%B2%E7%96%AB%E5%B7%A5%E4%BD%9C%E7%AB%99&src=vetmap&coordinate=gaode&callnative=1"},{"name":"御宠医宠物医院(上海总院)","address":"浦城路680号2号202室","phone":"15026497898","category":"医疗保健服务;动物医疗场所;宠物诊所","area":"陆家嘴","lng":121.514643,"lat":31.223892,"amap_id":"B0G35RWMI2","order":49,"prev_distance_km":1.398,"cumulative_distance_km":43.389,"amap_marker_url":"https://uri.amap.com/marker?position=121.514643,31.223892&name=%E5%BE%A1%E5%AE%A0%E5%8C%BB%E5%AE%A0%E7%89%A9%E5%8C%BB%E9%99%A2%28%E4%B8%8A%E6%B5%B7%E6%80%BB%E9%99%A2%29&src=vetmap&coordinate=gaode&callnative=1"},{"name":"瑞鹏宠物医院爱猫•心脏•外科(陆家嘴店)","address":"浦电路29弄21号","phone":"021-68620233","category":"医疗保健服务;动物医疗场所;宠物诊所","area":"塘桥","lng":121.514802,"lat":31.21705,"amap_id":"B0FFK2G50B","order":50,"prev_distance_km":0.761,"cumulative_distance_km":44.15,"amap_marker_url":"https://uri.amap.com/marker?position=121.514802,31.217050&name=%E7%91%9E%E9%B9%8F%E5%AE%A0%E7%89%A9%E5%8C%BB%E9%99%A2%E7%88%B1%E7%8C%AB%E2%80%A2%E5%BF%83%E8%84%8F%E2%80%A2%E5%A4%96%E7%A7%91%28%E9%99%86%E5%AE%B6%E5%98%B4%E5%BA%97%29&src=vetmap&coordinate=gaode&callnative=1"},{"name":"上海爱侣宠物医院(山泉花苑南区店)","address":"峨山路475号","phone":"021-58811278","category":"医疗保健服务;动物医疗场所;宠物诊所","area":"塘桥","lng":121.525552,"lat":31.214851,"amap_id":"B0JRLU984M","order":51,"prev_distance_km":1.051,"cumulative_distance_km":45.201,"amap_marker_url":"https://uri.amap.com/marker?position=121.525552,31.214851&name=%E4%B8%8A%E6%B5%B7%E7%88%B1%E4%BE%A3%E5%AE%A0%E7%89%A9%E5%8C%BB%E9%99%A2%28%E5%B1%B1%E6%B3%89%E8%8A%B1%E8%8B%91%E5%8D%97%E5%8C%BA%E5%BA%97%29&src=vetmap&coordinate=gaode&callnative=1"},{"name":"瑞鹏宠物医院(东方路店)","address":"东方路1623号(与浦建路交口东南角)","phone":"021-50968801","category":"医疗保健服务;动物医疗场所;宠物诊所","area":"临沂","lng":121.526101,"lat":31.207495,"amap_id":"B0FFIJNC2H","order":52,"prev_distance_km":0.82,"cumulative_distance_km":46.021,"amap_marker_url":"https://uri.amap.com/marker?position=121.526101,31.207495&name=%E7%91%9E%E9%B9%8F%E5%AE%A0%E7%89%A9%E5%8C%BB%E9%99%A2%28%E4%B8%9C%E6%96%B9%E8%B7%AF%E5%BA%97%29&src=vetmap&coordinate=gaode&callnative=1"},{"name":"宠亲宠物诊所(核磁共振诊断中心)","address":"浦明路1999号融智天地9号楼","phone":"17717916201","category":"医疗保健服务;动物医疗场所;宠物诊所","area":"陆家嘴","lng":121.512636,"lat":31.204132,"amap_id":"B0IK0HLML4","order":53,"prev_distance_km":1.334,"cumulative_distance_km":47.355,"amap_marker_url":"https://uri.amap.com/marker?position=121.512636,31.204132&name=%E5%AE%A0%E4%BA%B2%E5%AE%A0%E7%89%A9%E8%AF%8A%E6%89%80%28%E6%A0%B8%E7%A3%81%E5%85%B1%E6%8C%AF%E8%AF%8A%E6%96%AD%E4%B8%AD%E5%BF%83%29&src=vetmap&coordinate=gaode&callnative=1"},{"name":"南码头路街道动物防疫工作站","address":"东三里桥路338号","phone":"021-58810505","category":"医疗保健服务;动物医疗场所;动物医疗场所","area":"临沂","lng":121.514871,"lat":31.198713,"amap_id":"B0GRJ7OIN9","order":54,"prev_distance_km":0.639,"cumulative_distance_km":47.994,"amap_marker_url":"https://uri.amap.com/marker?position=121.514871,31.198713&name=%E5%8D%97%E7%A0%81%E5%A4%B4%E8%B7%AF%E8%A1%97%E9%81%93%E5%8A%A8%E7%89%A9%E9%98%B2%E7%96%AB%E5%B7%A5%E4%BD%9C%E7%AB%99&src=vetmap&coordinate=gaode&callnative=1"},{"name":"梵华宠物医院(世博店)","address":"世博村路231号汇博中心103-2、103-3室","phone":"","category":"医疗保健服务;动物医疗场所;宠物诊所","area":"南码头","lng":121.507088,"lat":31.196157,"amap_id":"B0I2BSYRNP","order":55,"prev_distance_km":0.793,"cumulative_distance_km":48.787,"amap_marker_url":"https://uri.amap.com/marker?position=121.507088,31.196157&name=%E6%A2%B5%E5%8D%8E%E5%AE%A0%E7%89%A9%E5%8C%BB%E9%99%A2%28%E4%B8%96%E5%8D%9A%E5%BA%97%29&src=vetmap&coordinate=gaode&callnative=1"},{"name":"爱彼特宠物医院(文化馨苑店)","address":"莲园路50号-52号(中国移动旁边)","phone":"13127730506;13564571871","category":"医疗保健服务;动物医疗场所;宠物诊所","area":"北蔡","lng":121.546129,"lat":31.184674,"amap_id":"B0JDJ7Q5N7","order":56,"prev_distance_km":3.927,"cumulative_distance_km":52.714,"amap_marker_url":"https://uri.amap.com/marker?position=121.546129,31.184674&name=%E7%88%B1%E5%BD%BC%E7%89%B9%E5%AE%A0%E7%89%A9%E5%8C%BB%E9%99%A2%28%E6%96%87%E5%8C%96%E9%A6%A8%E8%8B%91%E5%BA%97%29&src=vetmap&coordinate=gaode&callnative=1"},{"name":"康诚宠物医院(北蔡店)","address":"博华路120-126号","phone":"021-58361258","category":"医疗保健服务;动物医疗场所;宠物诊所","area":"北蔡","lng":121.547378,"lat":31.183485,"amap_id":"B0FFI79VJH","order":57,"prev_distance_km":0.178,"cumulative_distance_km":52.892,"amap_marker_url":"https://uri.amap.com/marker?position=121.547378,31.183485&name=%E5%BA%B7%E8%AF%9A%E5%AE%A0%E7%89%A9%E5%8C%BB%E9%99%A2%28%E5%8C%97%E8%94%A1%E5%BA%97%29&src=vetmap&coordinate=gaode&callnative=1"},{"name":"尚禾动物医院","address":"北蔡海上国际花园1期(成山路北)","phone":"021-50906513;13918346980;18964635908","category":"医疗保健服务;动物医疗场所;宠物诊所","area":"北蔡","lng":121.544233,"lat":31.180047,"amap_id":"B0HRY1J33I","order":58,"prev_distance_km":0.485,"cumulative_distance_km":53.377,"amap_marker_url":"https://uri.amap.com/marker?position=121.544233,31.180047&name=%E5%B0%9A%E7%A6%BE%E5%8A%A8%E7%89%A9%E5%8C%BB%E9%99%A2&src=vetmap&coordinate=gaode&callnative=1"},{"name":"瑞鹏宠物医院·宠保定点·心脏科·内科(御桥分院)","address":"御桥路1994号1层B室商铺(建平实验中学对面)","phone":"021-50775596","category":"医疗保健服务;动物医疗场所;宠物诊所","area":"北蔡","lng":121.573684,"lat":31.158541,"amap_id":"B0FFH9P9UY","order":59,"prev_distance_km":3.684,"cumulative_distance_km":57.061,"amap_marker_url":"https://uri.amap.com/marker?position=121.573684,31.158541&name=%E7%91%9E%E9%B9%8F%E5%AE%A0%E7%89%A9%E5%8C%BB%E9%99%A2%C2%B7%E5%AE%A0%E4%BF%9D%E5%AE%9A%E7%82%B9%C2%B7%E5%BF%83%E8%84%8F%E7%A7%91%C2%B7%E5%86%85%E7%A7%91%28%E5%BE%A1%E6%A1%A5%E5%88%86%E9%99%A2%29&src=vetmap&coordinate=gaode&callnative=1"},{"name":"良晨宠物医院·牙科·中兽医·眼科·综合医院(御叶路店)","address":"御叶路8587号1至2层","phone":"021-68072101","category":"医疗保健服务;动物医疗场所;宠物诊所","area":"康桥","lng":121.577247,"lat":31.155793,"amap_id":"B0JUZZ2CFA","order":60,"prev_distance_km":0.456,"cumulative_distance_km":57.517,"amap_marker_url":"https://uri.amap.com/marker?position=121.577247,31.155793&name=%E8%89%AF%E6%99%A8%E5%AE%A0%E7%89%A9%E5%8C%BB%E9%99%A2%C2%B7%E7%89%99%E7%A7%91%C2%B7%E4%B8%AD%E5%85%BD%E5%8C%BB%C2%B7%E7%9C%BC%E7%A7%91%C2%B7%E7%BB%BC%E5%90%88%E5%8C%BB%E9%99%A2%28%E5%BE%A1%E5%8F%B6%E8%B7%AF%E5%BA%97%29&src=vetmap&coordinate=gaode&callnative=1"},{"name":"安安国文宠医·宠保定点·狂犬免疫点·眼科骨科专科(康桥店)","address":"康桥路1506号国文宠物医院","phone":"19921272658","category":"医疗保健服务;动物医疗场所;宠物诊所","area":"康桥","lng":121.578095,"lat":31.149964,"amap_id":"B0LUAZO11S","order":61,"prev_distance_km":0.653,"cumulative_distance_km":58.17,"amap_marker_url":"https://uri.amap.com/marker?position=121.578095,31.149964&name=%E5%AE%89%E5%AE%89%E5%9B%BD%E6%96%87%E5%AE%A0%E5%8C%BB%C2%B7%E5%AE%A0%E4%BF%9D%E5%AE%9A%E7%82%B9%C2%B7%E7%8B%82%E7%8A%AC%E5%85%8D%E7%96%AB%E7%82%B9%C2%B7%E7%9C%BC%E7%A7%91%E9%AA%A8%E7%A7%91%E4%B8%93%E7%A7%91%28%E5%BA%B7%E6%A1%A5%E5%BA%97%29&src=vetmap&coordinate=gaode&callnative=1"},{"name":"联萌动物医疗","address":"沪南路2587号1-2层","phone":"18964374096","category":"医疗保健服务;动物医疗场所;宠物诊所","area":"康桥","lng":121.567312,"lat":31.148122,"amap_id":"B0G3A1HPUA","order":62,"prev_distance_km":1.046,"cumulative_distance_km":59.217,"amap_marker_url":"https://uri.amap.com/marker?position=121.567312,31.148122&name=%E8%81%94%E8%90%8C%E5%8A%A8%E7%89%A9%E5%8C%BB%E7%96%97&src=vetmap&coordinate=gaode&callnative=1"},{"name":"瑞派千虹典石宠物医院·疑难内科·心脏专科·疑难骨科","address":"康沈路341号","phone":"19352145030","category":"医疗保健服务;动物医疗场所;宠物诊所","area":"康桥","lng":121.570915,"lat":31.140626,"amap_id":"B0K2ZD5UC7","order":63,"prev_distance_km":0.901,"cumulative_distance_km":60.118,"amap_marker_url":"https://uri.amap.com/marker?position=121.570915,31.140626&name=%E7%91%9E%E6%B4%BE%E5%8D%83%E8%99%B9%E5%85%B8%E7%9F%B3%E5%AE%A0%E7%89%A9%E5%8C%BB%E9%99%A2%C2%B7%E7%96%91%E9%9A%BE%E5%86%85%E7%A7%91%C2%B7%E5%BF%83%E8%84%8F%E4%B8%93%E7%A7%91%C2%B7%E7%96%91%E9%9A%BE%E9%AA%A8%E7%A7%91&src=vetmap&coordinate=gaode&callnative=1"},{"name":"康成宠物医院","address":"秀沿路801号(康桥地铁站1号口步行230米)","phone":"021-20925120;13761930623","category":"医疗保健服务;动物医疗场所;宠物诊所","area":"康桥","lng":121.569117,"lat":31.134809,"amap_id":"B001572CH3","order":64,"prev_distance_km":0.669,"cumulative_distance_km":60.787,"amap_marker_url":"https://uri.amap.com/marker?position=121.569117,31.134809&name=%E5%BA%B7%E6%88%90%E5%AE%A0%E7%89%A9%E5%8C%BB%E9%99%A2&src=vetmap&coordinate=gaode&callnative=1"},{"name":"宠爱国际动物医院(康桥店)","address":"秀沿路1170号2幢1层1室-1号","phone":"021-80206597","category":"医疗保健服务;动物医疗场所;宠物诊所","area":"康桥","lng":121.582829,"lat":31.135294,"amap_id":"B0HKVH4OEG","order":65,"prev_distance_km":1.306,"cumulative_distance_km":62.093,"amap_marker_url":"https://uri.amap.com/marker?position=121.582829,31.135294&name=%E5%AE%A0%E7%88%B1%E5%9B%BD%E9%99%85%E5%8A%A8%E7%89%A9%E5%8C%BB%E9%99%A2%28%E5%BA%B7%E6%A1%A5%E5%BA%97%29&src=vetmap&coordinate=gaode&callnative=1"},{"name":"萌派宠物中医特色医院·犬猫兔专科","address":"关岳西路117弄18-20号","phone":"021-58111932","category":"医疗保健服务;动物医疗场所;宠物诊所","area":"周浦镇","lng":121.577788,"lat":31.118479,"amap_id":"B0FFI23XQQ","order":66,"prev_distance_km":1.93,"cumulative_distance_km":64.024,"amap_marker_url":"https://uri.amap.com/marker?position=121.577788,31.118479&name=%E8%90%8C%E6%B4%BE%E5%AE%A0%E7%89%A9%E4%B8%AD%E5%8C%BB%E7%89%B9%E8%89%B2%E5%8C%BB%E9%99%A2%C2%B7%E7%8A%AC%E7%8C%AB%E5%85%94%E4%B8%93%E7%A7%91&src=vetmap&coordinate=gaode&callnative=1"},{"name":"乾心宠物","address":"中大街91号2F(乾心宠物)","phone":"13127626448","category":"医疗保健服务;动物医疗场所;宠物诊所","area":"康桥","lng":121.57845,"lat":31.117051,"amap_id":"B0L1YCF83Y","order":67,"prev_distance_km":0.171,"cumulative_distance_km":64.194,"amap_marker_url":"https://uri.amap.com/marker?position=121.578450,31.117051&name=%E4%B9%BE%E5%BF%83%E5%AE%A0%E7%89%A9&src=vetmap&coordinate=gaode&callnative=1"},{"name":"小尾巴宠物诊所","address":"周浦镇中大东街50号","phone":"021-68160867","category":"医疗保健服务;动物医疗场所;宠物诊所","area":"康桥","lng":121.580637,"lat":31.117557,"amap_id":"B0FFIOQLZS","order":68,"prev_distance_km":0.216,"cumulative_distance_km":64.41,"amap_marker_url":"https://uri.amap.com/marker?position=121.580637,31.117557&name=%E5%B0%8F%E5%B0%BE%E5%B7%B4%E5%AE%A0%E7%89%A9%E8%AF%8A%E6%89%80&src=vetmap&coordinate=gaode&callnative=1"},{"name":"瑞派达康宠物医院·猫专科·眼科·骨科","address":"年家浜路60号1-2层","phone":"021-58120221;17317729060","category":"医疗保健服务;动物医疗场所;宠物诊所","area":"周浦镇","lng":121.585301,"lat":31.114497,"amap_id":"B0FFHN0I8I","order":69,"prev_distance_km":0.559,"cumulative_distance_km":64.969,"amap_marker_url":"https://uri.amap.com/marker?position=121.585301,31.114497&name=%E7%91%9E%E6%B4%BE%E8%BE%BE%E5%BA%B7%E5%AE%A0%E7%89%A9%E5%8C%BB%E9%99%A2%C2%B7%E7%8C%AB%E4%B8%93%E7%A7%91%C2%B7%E7%9C%BC%E7%A7%91%C2%B7%E9%AA%A8%E7%A7%91&src=vetmap&coordinate=gaode&callnative=1"},{"name":"小王子宠物医院","address":"周浦镇周东路169号101室","phone":"19117329001","category":"医疗保健服务;动物医疗场所;宠物诊所","area":"周浦镇","lng":121.587913,"lat":31.111796,"amap_id":"B0JKXKP3VA","order":70,"prev_distance_km":0.39,"cumulative_distance_km":65.359,"amap_marker_url":"https://uri.amap.com/marker?position=121.587913,31.111796&name=%E5%B0%8F%E7%8E%8B%E5%AD%90%E5%AE%A0%E7%89%A9%E5%8C%BB%E9%99%A2&src=vetmap&coordinate=gaode&callnative=1"},{"name":"瑞安宠物医院","address":"佰田·大富苑西南门旁","phone":"021-68188860","category":"医疗保健服务;动物医疗场所;宠物诊所","area":"周浦镇","lng":121.580641,"lat":31.109199,"amap_id":"B0H07C58Q0","order":71,"prev_distance_km":0.75,"cumulative_distance_km":66.11,"amap_marker_url":"https://uri.amap.com/marker?position=121.580641,31.109199&name=%E7%91%9E%E5%AE%89%E5%AE%A0%E7%89%A9%E5%8C%BB%E9%99%A2&src=vetmap&coordinate=gaode&callnative=1"},{"name":"彼心宠物医院","address":"康沈路2046号","phone":"18116220465","category":"医疗保健服务;动物医疗场所;宠物诊所","area":"周浦镇","lng":121.580782,"lat":31.106601,"amap_id":"B0L3L6PCWD","order":72,"prev_distance_km":0.289,"cumulative_distance_km":66.399,"amap_marker_url":"https://uri.amap.com/marker?position=121.580782,31.106601&name=%E5%BD%BC%E5%BF%83%E5%AE%A0%E7%89%A9%E5%8C%BB%E9%99%A2&src=vetmap&coordinate=gaode&callnative=1"},{"name":"申康宠物医疗中心(周浦店)","address":"康沈路2562号东丰林居沿街商铺(近沈梅路)","phone":"021-68182218","category":"医疗保健服务;动物医疗场所;宠物诊所","area":"周浦镇","lng":121.581478,"lat":31.0974,"amap_id":"B0FFJ1SRBE","order":73,"prev_distance_km":1.025,"cumulative_distance_km":67.424,"amap_marker_url":"https://uri.amap.com/marker?position=121.581478,31.097400&name=%E7%94%B3%E5%BA%B7%E5%AE%A0%E7%89%A9%E5%8C%BB%E7%96%97%E4%B8%AD%E5%BF%83%28%E5%91%A8%E6%B5%A6%E5%BA%97%29&src=vetmap&coordinate=gaode&callnative=1"},{"name":"瑞鹏宠物医院(康沈路分院)","address":"康沈路与瑞意路交叉口北120米","phone":"","category":"医疗保健服务;动物医疗场所;宠物诊所","area":"周浦镇","lng":121.581525,"lat":31.097375,"amap_id":"B0LAK6CZAG","order":74,"prev_distance_km":0.005,"cumulative_distance_km":67.429,"amap_marker_url":"https://uri.amap.com/marker?position=121.581525,31.097375&name=%E7%91%9E%E9%B9%8F%E5%AE%A0%E7%89%A9%E5%8C%BB%E9%99%A2%28%E5%BA%B7%E6%B2%88%E8%B7%AF%E5%88%86%E9%99%A2%29&src=vetmap&coordinate=gaode&callnative=1"},{"name":"瑞鹏宠物医院猫友好·心脏科·骨科(沈梅东路店)","address":"沈梅东路300弄252号1-2层","phone":"021-50883115","category":"医疗保健服务;动物医疗场所;宠物诊所","area":"","lng":121.591974,"lat":31.09296,"amap_id":"B0HUXUKT6V","order":75,"prev_distance_km":1.109,"cumulative_distance_km":68.539,"amap_marker_url":"https://uri.amap.com/marker?position=121.591974,31.092960&name=%E7%91%9E%E9%B9%8F%E5%AE%A0%E7%89%A9%E5%8C%BB%E9%99%A2%E7%8C%AB%E5%8F%8B%E5%A5%BD%C2%B7%E5%BF%83%E8%84%8F%E7%A7%91%C2%B7%E9%AA%A8%E7%A7%91%28%E6%B2%88%E6%A2%85%E4%B8%9C%E8%B7%AF%E5%BA%97%29&src=vetmap&coordinate=gaode&callnative=1"},{"name":"猫友好医院","address":"鹤雷路与鹤恒路金航城","phone":"","category":"医疗保健服务;动物医疗场所;宠物诊所","area":"","lng":121.598875,"lat":31.077738,"amap_id":"B0K2NB01QN","order":76,"prev_distance_km":1.816,"cumulative_distance_km":70.354,"amap_marker_url":"https://uri.amap.com/marker?position=121.598875,31.077738&name=%E7%8C%AB%E5%8F%8B%E5%A5%BD%E5%8C%BB%E9%99%A2&src=vetmap&coordinate=gaode&callnative=1"},{"name":"领航宠物医院(金航城店)","address":"鹤恒路482弄金航城车库入口左侧","phone":"021-60755505;15000625186","category":"医疗保健服务;动物医疗场所;宠物诊所","area":"","lng":121.598841,"lat":31.077714,"amap_id":"B0J6D7BROA","order":77,"prev_distance_km":0.004,"cumulative_distance_km":70.359,"amap_marker_url":"https://uri.amap.com/marker?position=121.598841,31.077714&name=%E9%A2%86%E8%88%AA%E5%AE%A0%E7%89%A9%E5%8C%BB%E9%99%A2%28%E9%87%91%E8%88%AA%E5%9F%8E%E5%BA%97%29&src=vetmap&coordinate=gaode&callnative=1"},{"name":"乐橙宠物","address":"沪南公路与钱岸路交叉口东南120米","phone":"","category":"医疗保健服务;动物医疗场所;宠物诊所","area":"","lng":121.586369,"lat":31.074756,"amap_id":"B0L6TD60ZJ","order":78,"prev_distance_km":1.232,"cumulative_distance_km":71.591,"amap_marker_url":"https://uri.amap.com/marker?position=121.586369,31.074756&name=%E4%B9%90%E6%A9%99%E5%AE%A0%E7%89%A9&src=vetmap&coordinate=gaode&callnative=1"},{"name":"艾丽克宠物诊所","address":"沪南路5268号103、105室","phone":"021-58095018;15221838846","category":"医疗保健服务;动物医疗场所;宠物诊所","area":"航头","lng":121.591029,"lat":31.046202,"amap_id":"B0H33MU8UX","order":79,"prev_distance_km":3.206,"cumulative_distance_km":74.797,"amap_marker_url":"https://uri.amap.com/marker?position=121.591029,31.046202&name=%E8%89%BE%E4%B8%BD%E5%85%8B%E5%AE%A0%E7%89%A9%E8%AF%8A%E6%89%80&src=vetmap&coordinate=gaode&callnative=1"},{"name":"瑞鹏河洛全科宠物医院·骨科专科·内窥镜(航头分院)","address":"航头镇航头路1221弄1号1-2层","phone":"021-68221153","category":"医疗保健服务;动物医疗场所;宠物诊所","area":"航头","lng":121.591511,"lat":31.032015,"amap_id":"B0FFI953EZ","order":80,"prev_distance_km":1.578,"cumulative_distance_km":76.375,"amap_marker_url":"https://uri.amap.com/marker?position=121.591511,31.032015&name=%E7%91%9E%E9%B9%8F%E6%B2%B3%E6%B4%9B%E5%85%A8%E7%A7%91%E5%AE%A0%E7%89%A9%E5%8C%BB%E9%99%A2%C2%B7%E9%AA%A8%E7%A7%91%E4%B8%93%E7%A7%91%C2%B7%E5%86%85%E7%AA%A5%E9%95%9C%28%E8%88%AA%E5%A4%B4%E5%88%86%E9%99%A2%29&src=vetmap&coordinate=gaode&callnative=1"},{"name":"河洛宠物医院·斐洛索斐·心内科·皮肤科(新场古镇店)","address":"新场镇新环西路816号1-3层","phone":"021-58096100","category":"医疗保健服务;动物医疗场所;宠物诊所","area":"","lng":121.639433,"lat":31.02595,"amap_id":"B0I1PGKUFQ","order":81,"prev_distance_km":4.616,"cumulative_distance_km":80.991,"amap_marker_url":"https://uri.amap.com/marker?position=121.639433,31.025950&name=%E6%B2%B3%E6%B4%9B%E5%AE%A0%E7%89%A9%E5%8C%BB%E9%99%A2%C2%B7%E6%96%90%E6%B4%9B%E7%B4%A2%E6%96%90%C2%B7%E5%BF%83%E5%86%85%E7%A7%91%C2%B7%E7%9A%AE%E8%82%A4%E7%A7%91%28%E6%96%B0%E5%9C%BA%E5%8F%A4%E9%95%87%E5%BA%97%29&src=vetmap&coordinate=gaode&callnative=1"},{"name":"宠它医生宠物药房","address":"新场镇沪南路7299号","phone":"17621086867","category":"医疗保健服务;动物医疗场所;宠物诊所","area":"","lng":121.642925,"lat":31.028008,"amap_id":"B0J2RSE1TR","order":82,"prev_distance_km":0.404,"cumulative_distance_km":81.395,"amap_marker_url":"https://uri.amap.com/marker?position=121.642925,31.028008&name=%E5%AE%A0%E5%AE%83%E5%8C%BB%E7%94%9F%E5%AE%A0%E7%89%A9%E8%8D%AF%E6%88%BF&src=vetmap&coordinate=gaode&callnative=1"},{"name":"浦东新区犬类免疫新场镇接种点","address":"新场镇奉新路二0一弄9号九号电动车行对面","phone":"13916645021","category":"医疗保健服务;动物医疗场所;动物医疗场所","area":"","lng":121.644218,"lat":31.019785,"amap_id":"B0L35AE6Q3","order":83,"prev_distance_km":0.923,"cumulative_distance_km":82.317,"amap_marker_url":"https://uri.amap.com/marker?position=121.644218,31.019785&name=%E6%B5%A6%E4%B8%9C%E6%96%B0%E5%8C%BA%E7%8A%AC%E7%B1%BB%E5%85%8D%E7%96%AB%E6%96%B0%E5%9C%BA%E9%95%87%E6%8E%A5%E7%A7%8D%E7%82%B9&src=vetmap&coordinate=gaode&callnative=1"},{"name":"瑞派森家宠物医院(猫友好医院)","address":"城南路82号","phone":"15316731913","category":"医疗保健服务;动物医疗场所;宠物诊所","area":"惠南","lng":121.744496,"lat":31.039795,"amap_id":"B0FFMGF0AP","order":84,"prev_distance_km":9.81,"cumulative_distance_km":92.128,"amap_marker_url":"https://uri.amap.com/marker?position=121.744496,31.039795&name=%E7%91%9E%E6%B4%BE%E6%A3%AE%E5%AE%B6%E5%AE%A0%E7%89%A9%E5%8C%BB%E9%99%A2%28%E7%8C%AB%E5%8F%8B%E5%A5%BD%E5%8C%BB%E9%99%A2%29&src=vetmap&coordinate=gaode&callnative=1"},{"name":"瑞派哚哚宠物医院(惠南听潮路店)","address":"惠南镇听潮路170、172、174、176号全幢","phone":"021-68066272","category":"医疗保健服务;动物医疗场所;宠物诊所","area":"惠南","lng":121.74237,"lat":31.047623,"amap_id":"B0H1URYO4J","order":85,"prev_distance_km":0.894,"cumulative_distance_km":93.022,"amap_marker_url":"https://uri.amap.com/marker?position=121.742370,31.047623&name=%E7%91%9E%E6%B4%BE%E5%93%9A%E5%93%9A%E5%AE%A0%E7%89%A9%E5%8C%BB%E9%99%A2%28%E6%83%A0%E5%8D%97%E5%90%AC%E6%BD%AE%E8%B7%AF%E5%BA%97%29&src=vetmap&coordinate=gaode&callnative=1"},{"name":"我爱我宠宠物医院","address":"城西路389号(联华快客旁)","phone":"021-68020166","category":"医疗保健服务;动物医疗场所;宠物诊所","area":"惠南","lng":121.748835,"lat":31.052119,"amap_id":"B0FFHKQJW9","order":86,"prev_distance_km":0.793,"cumulative_distance_km":93.815,"amap_marker_url":"https://uri.amap.com/marker?position=121.748835,31.052119&name=%E6%88%91%E7%88%B1%E6%88%91%E5%AE%A0%E5%AE%A0%E7%89%A9%E5%8C%BB%E9%99%A2&src=vetmap&coordinate=gaode&callnative=1"},{"name":"佩琪宠物医院·急重症·心脏·24小时(惠南总院)","address":"拱极路与惠南梅花路交叉口西120米","phone":"18964260488","category":"医疗保健服务;动物医疗场所;宠物诊所","area":"惠南","lng":121.759188,"lat":31.054025,"amap_id":"B0JUZG9W17","order":87,"prev_distance_km":1.009,"cumulative_distance_km":94.824,"amap_marker_url":"https://uri.amap.com/marker?position=121.759188,31.054025&name=%E4%BD%A9%E7%90%AA%E5%AE%A0%E7%89%A9%E5%8C%BB%E9%99%A2%C2%B7%E6%80%A5%E9%87%8D%E7%97%87%C2%B7%E5%BF%83%E8%84%8F%C2%B724%E5%B0%8F%E6%97%B6%28%E6%83%A0%E5%8D%97%E6%80%BB%E9%99%A2%29&src=vetmap&coordinate=gaode&callnative=1"},{"name":"荟宠宠物医院","address":"南祝路与梅花支路交叉口西北60米","phone":"021-58179808","category":"医疗保健服务;动物医疗场所;宠物诊所","area":"惠南","lng":121.762543,"lat":31.050739,"amap_id":"B0JUR1IOHD","order":88,"prev_distance_km":0.485,"cumulative_distance_km":95.309,"amap_marker_url":"https://uri.amap.com/marker?position=121.762543,31.050739&name=%E8%8D%9F%E5%AE%A0%E5%AE%A0%E7%89%A9%E5%8C%BB%E9%99%A2&src=vetmap&coordinate=gaode&callnative=1"},{"name":"优佳宠物","address":"华源路与惠南二小路交叉口东40米","phone":"13761521967","category":"医疗保健服务;动物医疗场所;动物医疗场所","area":"惠南","lng":121.767268,"lat":31.048075,"amap_id":"B0LUUDQ7SC","order":89,"prev_distance_km":0.539,"cumulative_distance_km":95.848,"amap_marker_url":"https://uri.amap.com/marker?position=121.767268,31.048075&name=%E4%BC%98%E4%BD%B3%E5%AE%A0%E7%89%A9&src=vetmap&coordinate=gaode&callnative=1"},{"name":"撸撸宠物医院","address":"惠南镇靖海路487号1-3层489号2-3层","phone":"13764861313","category":"医疗保健服务;动物医疗场所;宠物诊所","area":"惠南","lng":121.768575,"lat":31.054147,"amap_id":"B0H12S9NFH","order":90,"prev_distance_km":0.687,"cumulative_distance_km":96.534,"amap_marker_url":"https://uri.amap.com/marker?position=121.768575,31.054147&name=%E6%92%B8%E6%92%B8%E5%AE%A0%E7%89%A9%E5%8C%BB%E9%99%A2&src=vetmap&coordinate=gaode&callnative=1"},{"name":"汪星喵宠物医院","address":"卫星东路3号","phone":"19921092379","category":"医疗保健服务;动物医疗场所;宠物诊所","area":"惠南","lng":121.762763,"lat":31.043211,"amap_id":"B0H24HO3S1","order":91,"prev_distance_km":1.336,"cumulative_distance_km":97.871,"amap_marker_url":"https://uri.amap.com/marker?position=121.762763,31.043211&name=%E6%B1%AA%E6%98%9F%E5%96%B5%E5%AE%A0%E7%89%A9%E5%8C%BB%E9%99%A2&src=vetmap&coordinate=gaode&callnative=1"},{"name":"上海雄派宠物生活会馆(卫星东路店)","address":"卫星东路7号","phone":"13817082208","category":"医疗保健服务;动物医疗场所;动物医疗场所","area":"惠南","lng":121.762579,"lat":31.043233,"amap_id":"B00156F4A9","order":92,"prev_distance_km":0.018,"cumulative_distance_km":97.888,"amap_marker_url":"https://uri.amap.com/marker?position=121.762579,31.043233&name=%E4%B8%8A%E6%B5%B7%E9%9B%84%E6%B4%BE%E5%AE%A0%E7%89%A9%E7%94%9F%E6%B4%BB%E4%BC%9A%E9%A6%86%28%E5%8D%AB%E6%98%9F%E4%B8%9C%E8%B7%AF%E5%BA%97%29&src=vetmap&coordinate=gaode&callnative=1"},{"name":"毛毛熊宠物医院·心肾内科·内窥镜·急重症(惠南店)","address":"惠南镇城南路593号至595号(沪南公路北)","phone":"15316987576","category":"医疗保健服务;动物医疗场所;宠物诊所","area":"惠南","lng":121.760144,"lat":31.041697,"amap_id":"B0HAUDS9IV","order":93,"prev_distance_km":0.288,"cumulative_distance_km":98.176,"amap_marker_url":"https://uri.amap.com/marker?position=121.760144,31.041697&name=%E6%AF%9B%E6%AF%9B%E7%86%8A%E5%AE%A0%E7%89%A9%E5%8C%BB%E9%99%A2%C2%B7%E5%BF%83%E8%82%BE%E5%86%85%E7%A7%91%C2%B7%E5%86%85%E7%AA%A5%E9%95%9C%C2%B7%E6%80%A5%E9%87%8D%E7%97%87%28%E6%83%A0%E5%8D%97%E5%BA%97%29&src=vetmap&coordinate=gaode&callnative=1"},{"name":"上海乐康全科诊所","address":"沪南公路487号","phone":"13123732985","category":"医疗保健服务;动物医疗场所;宠物诊所","area":"惠南","lng":121.757299,"lat":31.041445,"amap_id":"B0LG1UP8FR","order":94,"prev_distance_km":0.272,"cumulative_distance_km":98.449,"amap_marker_url":"https://uri.amap.com/marker?position=121.757299,31.041445&name=%E4%B8%8A%E6%B5%B7%E4%B9%90%E5%BA%B7%E5%85%A8%E7%A7%91%E8%AF%8A%E6%89%80&src=vetmap&coordinate=gaode&callnative=1"},{"name":"宠教授宠物医院","address":"南门大街68号","phone":"021-58055075;19301225396","category":"医疗保健服务;动物医疗场所;宠物诊所","area":"惠南","lng":121.755551,"lat":31.044016,"amap_id":"B0J32R4SS0","order":95,"prev_distance_km":0.331,"cumulative_distance_km":98.78,"amap_marker_url":"https://uri.amap.com/marker?position=121.755551,31.044016&name=%E5%AE%A0%E6%95%99%E6%8E%88%E5%AE%A0%E7%89%A9%E5%8C%BB%E9%99%A2&src=vetmap&coordinate=gaode&callnative=1"},{"name":"浦东新区动物疫病预防控制中心","address":"农场路16号","phone":"","category":"医疗保健服务;动物医疗场所;动物医疗场所","area":"惠南","lng":121.754401,"lat":31.036311,"amap_id":"B0FFGCEGUQ","order":96,"prev_distance_km":0.864,"cumulative_distance_km":99.643,"amap_marker_url":"https://uri.amap.com/marker?position=121.754401,31.036311&name=%E6%B5%A6%E4%B8%9C%E6%96%B0%E5%8C%BA%E5%8A%A8%E7%89%A9%E7%96%AB%E7%97%85%E9%A2%84%E9%98%B2%E6%8E%A7%E5%88%B6%E4%B8%AD%E5%BF%83&src=vetmap&coordinate=gaode&callnative=1"},{"name":"三秀宠物医院","address":"惠南镇拱北路48号一层","phone":"021-58000358","category":"医疗保健服务;动物医疗场所;宠物诊所","area":"惠南","lng":121.784586,"lat":31.056706,"amap_id":"B0FFK5TTXK","order":97,"prev_distance_km":3.662,"cumulative_distance_km":103.306,"amap_marker_url":"https://uri.amap.com/marker?position=121.784586,31.056706&name=%E4%B8%89%E7%A7%80%E5%AE%A0%E7%89%A9%E5%8C%BB%E9%99%A2&src=vetmap&coordinate=gaode&callnative=1"},{"name":"刘伟宠物服务中心","address":"永安路与永乐26路交叉口北140米","phone":"","category":"医疗保健服务;动物医疗场所;宠物诊所","area":"","lng":121.740792,"lat":31.075972,"amap_id":"B0K6FRMY42","order":98,"prev_distance_km":4.689,"cumulative_distance_km":107.995,"amap_marker_url":"https://uri.amap.com/marker?position=121.740792,31.075972&name=%E5%88%98%E4%BC%9F%E5%AE%A0%E7%89%A9%E6%9C%8D%E5%8A%A1%E4%B8%AD%E5%BF%83&src=vetmap&coordinate=gaode&callnative=1"},{"name":"可心宠物医院夜诊骨科综合全科","address":"祝桥镇百熙路368弄35号1-2层","phone":"15216806800","category":"医疗保健服务;动物医疗场所;宠物诊所","area":"","lng":121.762233,"lat":31.112891,"amap_id":"B0IGCHC49T","order":99,"prev_distance_km":4.585,"cumulative_distance_km":112.58,"amap_marker_url":"https://uri.amap.com/marker?position=121.762233,31.112891&name=%E5%8F%AF%E5%BF%83%E5%AE%A0%E7%89%A9%E5%8C%BB%E9%99%A2%E5%A4%9C%E8%AF%8A%E9%AA%A8%E7%A7%91%E7%BB%BC%E5%90%88%E5%85%A8%E7%A7%91&src=vetmap&coordinate=gaode&callnative=1"},{"name":"宠一生宠物医院(夜诊·内窥镜)","address":"祝桥镇祝潘公路319号","phone":"13248016688","category":"医疗保健服务;动物医疗场所;宠物诊所","area":"","lng":121.75778,"lat":31.124826,"amap_id":"B0JKOCMRJP","order":100,"prev_distance_km":1.393,"cumulative_distance_km":113.973,"amap_marker_url":"https://uri.amap.com/marker?position=121.757780,31.124826&name=%E5%AE%A0%E4%B8%80%E7%94%9F%E5%AE%A0%E7%89%A9%E5%8C%BB%E9%99%A2%28%E5%A4%9C%E8%AF%8A%C2%B7%E5%86%85%E7%AA%A5%E9%95%9C%29&src=vetmap&coordinate=gaode&callnative=1"},{"name":"乐文宠物诊疗中心","address":"祝桥镇晚霞路712-714号","phone":"15901778878","category":"医疗保健服务;动物医疗场所;宠物诊所","area":"","lng":121.753959,"lat":31.178512,"amap_id":"B0GDT5083H","order":101,"prev_distance_km":5.981,"cumulative_distance_km":119.954,"amap_marker_url":"https://uri.amap.com/marker?position=121.753959,31.178512&name=%E4%B9%90%E6%96%87%E5%AE%A0%E7%89%A9%E8%AF%8A%E7%96%97%E4%B8%AD%E5%BF%83&src=vetmap&coordinate=gaode&callnative=1"},{"name":"浦东新区动物疫病预防控制中心","address":"川沙新镇川环南路295号","phone":"021-58983520","category":"医疗保健服务;动物医疗场所;动物医疗场所","area":"川沙","lng":121.708209,"lat":31.188665,"amap_id":"B001557NAG","order":102,"prev_distance_km":4.496,"cumulative_distance_km":124.45,"amap_marker_url":"https://uri.amap.com/marker?position=121.708209,31.188665&name=%E6%B5%A6%E4%B8%9C%E6%96%B0%E5%8C%BA%E5%8A%A8%E7%89%A9%E7%96%AB%E7%97%85%E9%A2%84%E9%98%B2%E6%8E%A7%E5%88%B6%E4%B8%AD%E5%BF%83&src=vetmap&coordinate=gaode&callnative=1"},{"name":"瑞鹏宠物医院·宠保定点·骨科(川沙分院)","address":"绣川路538号1-2层、540号1-2层","phone":"021-58993808","category":"医疗保健服务;动物医疗场所;宠物诊所","area":"川沙","lng":121.698982,"lat":31.182237,"amap_id":"B0HRMHIKCJ","order":103,"prev_distance_km":1.132,"cumulative_distance_km":125.582,"amap_marker_url":"https://uri.amap.com/marker?position=121.698982,31.182237&name=%E7%91%9E%E9%B9%8F%E5%AE%A0%E7%89%A9%E5%8C%BB%E9%99%A2%C2%B7%E5%AE%A0%E4%BF%9D%E5%AE%9A%E7%82%B9%C2%B7%E9%AA%A8%E7%A7%91%28%E5%B7%9D%E6%B2%99%E5%88%86%E9%99%A2%29&src=vetmap&coordinate=gaode&callnative=1"},{"name":"上海喜乐缘宠物医院(川沙总院)","address":"妙境路656号1至3层楼","phone":"021-58982400;15921536110","category":"医疗保健服务;动物医疗场所;宠物诊所","area":"川沙","lng":121.691559,"lat":31.18784,"amap_id":"B0FFHPCT3O","order":104,"prev_distance_km":0.942,"cumulative_distance_km":126.523,"amap_marker_url":"https://uri.amap.com/marker?position=121.691559,31.187840&name=%E4%B8%8A%E6%B5%B7%E5%96%9C%E4%B9%90%E7%BC%98%E5%AE%A0%E7%89%A9%E5%8C%BB%E9%99%A2%28%E5%B7%9D%E6%B2%99%E6%80%BB%E9%99%A2%29&src=vetmap&coordinate=gaode&callnative=1"},{"name":"友壹家宠物医院·24小时·内窥镜·急重症中心","address":"华夏二路639号","phone":"18621588952","category":"医疗保健服务;动物医疗场所;宠物诊所","area":"川沙","lng":121.686114,"lat":31.187207,"amap_id":"B0IK9C3DZS","order":105,"prev_distance_km":0.523,"cumulative_distance_km":127.046,"amap_marker_url":"https://uri.amap.com/marker?position=121.686114,31.187207&name=%E5%8F%8B%E5%A3%B9%E5%AE%B6%E5%AE%A0%E7%89%A9%E5%8C%BB%E9%99%A2%C2%B724%E5%B0%8F%E6%97%B6%C2%B7%E5%86%85%E7%AA%A5%E9%95%9C%C2%B7%E6%80%A5%E9%87%8D%E7%97%87%E4%B8%AD%E5%BF%83&src=vetmap&coordinate=gaode&callnative=1"},{"name":"贝宠乐宠物医院","address":"川沙镇华夏二路430-432号1-2层","phone":"18116490601","category":"医疗保健服务;动物医疗场所;宠物诊所","area":"川沙","lng":121.685071,"lat":31.190253,"amap_id":"B0IR2S4BM0","order":106,"prev_distance_km":0.353,"cumulative_distance_km":127.399,"amap_marker_url":"https://uri.amap.com/marker?position=121.685071,31.190253&name=%E8%B4%9D%E5%AE%A0%E4%B9%90%E5%AE%A0%E7%89%A9%E5%8C%BB%E9%99%A2&src=vetmap&coordinate=gaode&callnative=1"},{"name":"鑫鑫宠物医院24h·保险定点·综合全科转诊中心","address":"华夏二路76号(华夏东路地铁站1号口步行310米)","phone":"13162485185","category":"医疗保健服务;动物医疗场所;宠物诊所","area":"川沙","lng":121.683458,"lat":31.196883,"amap_id":"B0FFJUW874","order":107,"prev_distance_km":0.753,"cumulative_distance_km":128.152,"amap_marker_url":"https://uri.amap.com/marker?position=121.683458,31.196883&name=%E9%91%AB%E9%91%AB%E5%AE%A0%E7%89%A9%E5%8C%BB%E9%99%A224h%C2%B7%E4%BF%9D%E9%99%A9%E5%AE%9A%E7%82%B9%C2%B7%E7%BB%BC%E5%90%88%E5%85%A8%E7%A7%91%E8%BD%AC%E8%AF%8A%E4%B8%AD%E5%BF%83&src=vetmap&coordinate=gaode&callnative=1"},{"name":"瑞辰华诺·妙宠医24H宠物医院内窥镜","address":"妙境路2224号一层夹层","phone":"021-58815878;13311993830","category":"医疗保健服务;动物医疗场所;宠物诊所","area":"川沙","lng":121.688518,"lat":31.198875,"amap_id":"B0H6ZCT7Y3","order":108,"prev_distance_km":0.53,"cumulative_distance_km":128.682,"amap_marker_url":"https://uri.amap.com/marker?position=121.688518,31.198875&name=%E7%91%9E%E8%BE%B0%E5%8D%8E%E8%AF%BA%C2%B7%E5%A6%99%E5%AE%A0%E5%8C%BB24H%E5%AE%A0%E7%89%A9%E5%8C%BB%E9%99%A2%E5%86%85%E7%AA%A5%E9%95%9C&src=vetmap&coordinate=gaode&callnative=1"},{"name":"瑞辰华诺·妙宠医24H宠物医院内窥镜","address":"妙境路与华夏东路交叉口南40米","phone":"","category":"医疗保健服务;动物医疗场所;宠物诊所","area":"川沙","lng":121.688518,"lat":31.198875,"amap_id":"B0LG2DE4O7","order":109,"prev_distance_km":0.0,"cumulative_distance_km":128.682,"amap_marker_url":"https://uri.amap.com/marker?position=121.688518,31.198875&name=%E7%91%9E%E8%BE%B0%E5%8D%8E%E8%AF%BA%C2%B7%E5%A6%99%E5%AE%A0%E5%8C%BB24H%E5%AE%A0%E7%89%A9%E5%8C%BB%E9%99%A2%E5%86%85%E7%AA%A5%E9%95%9C&src=vetmap&coordinate=gaode&callnative=1"},{"name":"瑞琪动物诊所","address":"荣川路152号(近德川路近德川路-华夏东路)","phone":"021-50395797;18702100799","category":"医疗保健服务;动物医疗场所;宠物诊所","area":"","lng":121.670068,"lat":31.192826,"amap_id":"B0FFFD3527","order":110,"prev_distance_km":1.879,"cumulative_distance_km":130.561,"amap_marker_url":"https://uri.amap.com/marker?position=121.670068,31.192826&name=%E7%91%9E%E7%90%AA%E5%8A%A8%E7%89%A9%E8%AF%8A%E6%89%80&src=vetmap&coordinate=gaode&callnative=1"},{"name":"瑞鹏宠物医院内窥镜·骨科·急重症中心(唐镇分院)","address":"唐镇路284号1-3层","phone":"021-58587809","category":"医疗保健服务;动物医疗场所;宠物诊所","area":"","lng":121.653197,"lat":31.208838,"amap_id":"B0LUA5H866","order":111,"prev_distance_km":2.397,"cumulative_distance_km":132.958,"amap_marker_url":"https://uri.amap.com/marker?position=121.653197,31.208838&name=%E7%91%9E%E9%B9%8F%E5%AE%A0%E7%89%A9%E5%8C%BB%E9%99%A2%E5%86%85%E7%AA%A5%E9%95%9C%C2%B7%E9%AA%A8%E7%A7%91%C2%B7%E6%80%A5%E9%87%8D%E7%97%87%E4%B8%AD%E5%BF%83%28%E5%94%90%E9%95%87%E5%88%86%E9%99%A2%29&src=vetmap&coordinate=gaode&callnative=1"},{"name":"瑞辰华诺·元和利宠动物医院(肿瘤专科·骨科·内窥镜转诊中心)","address":"春源路102号","phone":"021-50680798;18017458528","category":"医疗保健服务;动物医疗场所;宠物诊所","area":"","lng":121.649392,"lat":31.211239,"amap_id":"B0FFJ24TIT","order":112,"prev_distance_km":0.45,"cumulative_distance_km":133.408,"amap_marker_url":"https://uri.amap.com/marker?position=121.649392,31.211239&name=%E7%91%9E%E8%BE%B0%E5%8D%8E%E8%AF%BA%C2%B7%E5%85%83%E5%92%8C%E5%88%A9%E5%AE%A0%E5%8A%A8%E7%89%A9%E5%8C%BB%E9%99%A2%28%E8%82%BF%E7%98%A4%E4%B8%93%E7%A7%91%C2%B7%E9%AA%A8%E7%A7%91%C2%B7%E5%86%85%E7%AA%A5%E9%95%9C%E8%BD%AC%E8%AF%8A%E4%B8%AD%E5%BF%83%29&src=vetmap&coordinate=gaode&callnative=1"},{"name":"吉宠医生·宠利宠物医院","address":"唐安路张江名流豪庭3栋","phone":"","category":"医疗保健服务;动物医疗场所;宠物诊所","area":"","lng":121.647194,"lat":31.214468,"amap_id":"B0KBOAHL01","order":113,"prev_distance_km":0.415,"cumulative_distance_km":133.823,"amap_marker_url":"https://uri.amap.com/marker?position=121.647194,31.214468&name=%E5%90%89%E5%AE%A0%E5%8C%BB%E7%94%9F%C2%B7%E5%AE%A0%E5%88%A9%E5%AE%A0%E7%89%A9%E5%8C%BB%E9%99%A2&src=vetmap&coordinate=gaode&callnative=1"},{"name":"宠郦24小时宠物医院·骨科·急重症·犬猫专科","address":"唐镇唐公馆春泉路58弄60号","phone":"15800752067","category":"医疗保健服务;动物医疗场所;宠物诊所","area":"","lng":121.647194,"lat":31.214468,"amap_id":"B0H2GHTHY5","order":114,"prev_distance_km":0.0,"cumulative_distance_km":133.823,"amap_marker_url":"https://uri.amap.com/marker?position=121.647194,31.214468&name=%E5%AE%A0%E9%83%A624%E5%B0%8F%E6%97%B6%E5%AE%A0%E7%89%A9%E5%8C%BB%E9%99%A2%C2%B7%E9%AA%A8%E7%A7%91%C2%B7%E6%80%A5%E9%87%8D%E7%97%87%C2%B7%E7%8A%AC%E7%8C%AB%E4%B8%93%E7%A7%91&src=vetmap&coordinate=gaode&callnative=1"},{"name":"宠益家24H宠物医院·心脏科·牙科·微创内窥镜","address":"广兰路1110号","phone":"17317966110","category":"医疗保健服务;动物医疗场所;宠物诊所","area":"张江","lng":121.620821,"lat":31.204761,"amap_id":"B0LU99DQ26","order":115,"prev_distance_km":2.731,"cumulative_distance_km":136.554,"amap_marker_url":"https://uri.amap.com/marker?position=121.620821,31.204761&name=%E5%AE%A0%E7%9B%8A%E5%AE%B624H%E5%AE%A0%E7%89%A9%E5%8C%BB%E9%99%A2%C2%B7%E5%BF%83%E8%84%8F%E7%A7%91%C2%B7%E7%89%99%E7%A7%91%C2%B7%E5%BE%AE%E5%88%9B%E5%86%85%E7%AA%A5%E9%95%9C&src=vetmap&coordinate=gaode&callnative=1"},{"name":"星莱宠物","address":"申源苑西南2门旁","phone":"13482000361;18918600361","category":"医疗保健服务;动物医疗场所;动物医疗场所","area":"张江","lng":121.618326,"lat":31.202649,"amap_id":"B0K2HPLGHH","order":116,"prev_distance_km":0.334,"cumulative_distance_km":136.888,"amap_marker_url":"https://uri.amap.com/marker?position=121.618326,31.202649&name=%E6%98%9F%E8%8E%B1%E5%AE%A0%E7%89%A9&src=vetmap&coordinate=gaode&callnative=1"},{"name":"芦荻动物医院(张江商业广场店)","address":"建中路242弄176号张江商业广场F1层","phone":"15001824397","category":"医疗保健服务;动物医疗场所;宠物诊所","area":"张江","lng":121.612461,"lat":31.202714,"amap_id":"B0J0G1CXQ3","order":117,"prev_distance_km":0.558,"cumulative_distance_km":137.445,"amap_marker_url":"https://uri.amap.com/marker?position=121.612461,31.202714&name=%E8%8A%A6%E8%8D%BB%E5%8A%A8%E7%89%A9%E5%8C%BB%E9%99%A2%28%E5%BC%A0%E6%B1%9F%E5%95%86%E4%B8%9A%E5%B9%BF%E5%9C%BA%E5%BA%97%29&src=vetmap&coordinate=gaode&callnative=1"},{"name":"爱妮康浦东动物医疗中心","address":"百业路167弄7号","phone":"021-68391220;15301689677","category":"医疗保健服务;动物医疗场所;宠物诊所","area":"张江","lng":121.609309,"lat":31.179565,"amap_id":"B0KGPS55M8","order":118,"prev_distance_km":2.591,"cumulative_distance_km":140.037,"amap_marker_url":"https://uri.amap.com/marker?position=121.609309,31.179565&name=%E7%88%B1%E5%A6%AE%E5%BA%B7%E6%B5%A6%E4%B8%9C%E5%8A%A8%E7%89%A9%E5%8C%BB%E7%96%97%E4%B8%AD%E5%BF%83&src=vetmap&coordinate=gaode&callnative=1"},{"name":"唛祺宠物医院","address":"科农路99弄1幢1层239.247号","phone":"","category":"医疗保健服务;动物医疗场所;宠物诊所","area":"","lng":121.624254,"lat":31.167571,"amap_id":"B0J1SHVCGY","order":119,"prev_distance_km":1.949,"cumulative_distance_km":141.986,"amap_marker_url":"https://uri.amap.com/marker?position=121.624254,31.167571&name=%E5%94%9B%E7%A5%BA%E5%AE%A0%E7%89%A9%E5%8C%BB%E9%99%A2&src=vetmap&coordinate=gaode&callnative=1"},{"name":"爱吉宠宠物医院","address":"浦东新区孙环路306号","phone":"","category":"医疗保健服务;动物医疗场所;宠物诊所","area":"张江","lng":121.637853,"lat":31.183168,"amap_id":"B0LAA9IWYH","order":120,"prev_distance_km":2.164,"cumulative_distance_km":144.15,"amap_marker_url":"https://uri.amap.com/marker?position=121.637853,31.183168&name=%E7%88%B1%E5%90%89%E5%AE%A0%E5%AE%A0%E7%89%A9%E5%8C%BB%E9%99%A2&src=vetmap&coordinate=gaode&callnative=1"},{"name":"芦荻动物医院(孙桥分院)","address":"孙环路306号","phone":"17502150028","category":"医疗保健服务;动物医疗场所;宠物诊所","area":"张江","lng":121.637831,"lat":31.183203,"amap_id":"B0GDSUQT2O","order":121,"prev_distance_km":0.004,"cumulative_distance_km":144.154,"amap_marker_url":"https://uri.amap.com/marker?position=121.637831,31.183203&name=%E8%8A%A6%E8%8D%BB%E5%8A%A8%E7%89%A9%E5%8C%BB%E9%99%A2%28%E5%AD%99%E6%A1%A5%E5%88%86%E9%99%A2%29&src=vetmap&coordinate=gaode&callnative=1"},{"name":"瑞鹏宠物医院(浦仁唐镇分院)","address":"唐镇云雅路555弄1号206-A","phone":"021-52809003","category":"医疗保健服务;动物医疗场所;宠物诊所","area":"","lng":121.673804,"lat":31.242044,"amap_id":"B0I22ABKWJ","order":122,"prev_distance_km":7.383,"cumulative_distance_km":151.538,"amap_marker_url":"https://uri.amap.com/marker?position=121.673804,31.242044&name=%E7%91%9E%E9%B9%8F%E5%AE%A0%E7%89%A9%E5%8C%BB%E9%99%A2%28%E6%B5%A6%E4%BB%81%E5%94%90%E9%95%87%E5%88%86%E9%99%A2%29&src=vetmap&coordinate=gaode&callnative=1"},{"name":"徕卡斯宠物医院(唐镇店)","address":"唐镇川沙路2365-2367号","phone":"021-68772066;13816656948","category":"医疗保健服务;动物医疗场所;宠物诊所","area":"","lng":121.685939,"lat":31.23832,"amap_id":"B0FFKF2JGL","order":123,"prev_distance_km":1.226,"cumulative_distance_km":152.763,"amap_marker_url":"https://uri.amap.com/marker?position=121.685939,31.238320&name=%E5%BE%95%E5%8D%A1%E6%96%AF%E5%AE%A0%E7%89%A9%E5%8C%BB%E9%99%A2%28%E5%94%90%E9%95%87%E5%BA%97%29&src=vetmap&coordinate=gaode&callnative=1"},{"name":"顽物宠物医疗中心(曹路总院)","address":"龚华路225-227号","phone":"021-50786258","category":"医疗保健服务;动物医疗场所;宠物诊所","area":"曹路","lng":121.685273,"lat":31.264307,"amap_id":"B0FFL1DTQ7","order":124,"prev_distance_km":2.89,"cumulative_distance_km":155.654,"amap_marker_url":"https://uri.amap.com/marker?position=121.685273,31.264307&name=%E9%A1%BD%E7%89%A9%E5%AE%A0%E7%89%A9%E5%8C%BB%E7%96%97%E4%B8%AD%E5%BF%83%28%E6%9B%B9%E8%B7%AF%E6%80%BB%E9%99%A2%29&src=vetmap&coordinate=gaode&callnative=1"},{"name":"多尔蒂宠物药房","address":"银峰路285弄49号1层","phone":"","category":"医疗保健服务;动物医疗场所;动物医疗场所","area":"曹路","lng":121.683143,"lat":31.264678,"amap_id":"B0M6FL132N","order":125,"prev_distance_km":0.207,"cumulative_distance_km":155.86,"amap_marker_url":"https://uri.amap.com/marker?position=121.683143,31.264678&name=%E5%A4%9A%E5%B0%94%E8%92%82%E5%AE%A0%E7%89%A9%E8%8D%AF%E6%88%BF&src=vetmap&coordinate=gaode&callnative=1"},{"name":"蓝晶宠物诊所(上川店)","address":"上川路2289号3层","phone":"021-50826993","category":"医疗保健服务;动物医疗场所;宠物诊所","area":"曹路","lng":121.678315,"lat":31.283505,"amap_id":"B0FFGZXPWJ","order":126,"prev_distance_km":2.143,"cumulative_distance_km":158.004,"amap_marker_url":"https://uri.amap.com/marker?position=121.678315,31.283505&name=%E8%93%9D%E6%99%B6%E5%AE%A0%E7%89%A9%E8%AF%8A%E6%89%80%28%E4%B8%8A%E5%B7%9D%E5%BA%97%29&src=vetmap&coordinate=gaode&callnative=1"},{"name":"万家康宠动物医院·急重症(曹路店)","address":"民春路与民雨路交叉口北100米","phone":"13917007645","category":"医疗保健服务;动物医疗场所;宠物诊所","area":"曹路","lng":121.663317,"lat":31.275198,"amap_id":"B0FFKDMCLP","order":127,"prev_distance_km":1.698,"cumulative_distance_km":159.702,"amap_marker_url":"https://uri.amap.com/marker?position=121.663317,31.275198&name=%E4%B8%87%E5%AE%B6%E5%BA%B7%E5%AE%A0%E5%8A%A8%E7%89%A9%E5%8C%BB%E9%99%A2%C2%B7%E6%80%A5%E9%87%8D%E7%97%87%28%E6%9B%B9%E8%B7%AF%E5%BA%97%29&src=vetmap&coordinate=gaode&callnative=1"},{"name":"鑫鑫宠物医院24h金桥店·保险定点","address":"金桥镇金皖路199号1幢A栋105-106室","phone":"18021026644","category":"医疗保健服务;动物医疗场所;宠物诊所","area":"金桥","lng":121.617604,"lat":31.256961,"amap_id":"B0LKJS11ZA","order":128,"prev_distance_km":4.795,"cumulative_distance_km":164.497,"amap_marker_url":"https://uri.amap.com/marker?position=121.617604,31.256961&name=%E9%91%AB%E9%91%AB%E5%AE%A0%E7%89%A9%E5%8C%BB%E9%99%A224h%E9%87%91%E6%A1%A5%E5%BA%97%C2%B7%E4%BF%9D%E9%99%A9%E5%AE%9A%E7%82%B9&src=vetmap&coordinate=gaode&callnative=1"},{"name":"思威(北京)国际动物医院有限公司上海浦东分公司","address":"金沪路105-107","phone":"","category":"医疗保健服务;动物医疗场所;宠物诊所","area":"金桥","lng":121.610448,"lat":31.25726,"amap_id":"B0L0XMKHBA","order":129,"prev_distance_km":0.681,"cumulative_distance_km":165.178,"amap_marker_url":"https://uri.amap.com/marker?position=121.610448,31.257260&name=%E6%80%9D%E5%A8%81%28%E5%8C%97%E4%BA%AC%29%E5%9B%BD%E9%99%85%E5%8A%A8%E7%89%A9%E5%8C%BB%E9%99%A2%E6%9C%89%E9%99%90%E5%85%AC%E5%8F%B8%E4%B8%8A%E6%B5%B7%E6%B5%A6%E4%B8%9C%E5%88%86%E5%85%AC%E5%8F%B8&src=vetmap&coordinate=gaode&callnative=1"},{"name":"艾吉宠物医院(浦东店)","address":"金高路2366号114室","phone":"021-50560269;4001680588","category":"医疗保健服务;动物医疗场所;宠物诊所","area":"金桥","lng":121.605421,"lat":31.259253,"amap_id":"B0FFF026T3","order":130,"prev_distance_km":0.527,"cumulative_distance_km":165.705,"amap_marker_url":"https://uri.amap.com/marker?position=121.605421,31.259253&name=%E8%89%BE%E5%90%89%E5%AE%A0%E7%89%A9%E5%8C%BB%E9%99%A2%28%E6%B5%A6%E4%B8%9C%E5%BA%97%29&src=vetmap&coordinate=gaode&callnative=1"},{"name":"思宇宠物医院","address":"东陆路1549号","phone":"021-50580983;021-68713271;13916328913","category":"医疗保健服务;动物医疗场所;宠物诊所","area":"金桥","lng":121.602917,"lat":31.267192,"amap_id":"B0FFFVK7ZQ","order":131,"prev_distance_km":0.914,"cumulative_distance_km":166.619,"amap_marker_url":"https://uri.amap.com/marker?position=121.602917,31.267192&name=%E6%80%9D%E5%AE%87%E5%AE%A0%E7%89%A9%E5%8C%BB%E9%99%A2&src=vetmap&coordinate=gaode&callnative=1"},{"name":"上海卡斯柏宠物医院·CT核磁影像·心脏彩超·内窥镜(金高路)","address":"金高路1598号","phone":"021-50320986","category":"医疗保健服务;动物医疗场所;宠物诊所","area":"金桥","lng":121.609596,"lat":31.273042,"amap_id":"B0FFG11UHO","order":132,"prev_distance_km":0.909,"cumulative_distance_km":167.528,"amap_marker_url":"https://uri.amap.com/marker?position=121.609596,31.273042&name=%E4%B8%8A%E6%B5%B7%E5%8D%A1%E6%96%AF%E6%9F%8F%E5%AE%A0%E7%89%A9%E5%8C%BB%E9%99%A2%C2%B7CT%E6%A0%B8%E7%A3%81%E5%BD%B1%E5%83%8F%C2%B7%E5%BF%83%E8%84%8F%E5%BD%A9%E8%B6%85%C2%B7%E5%86%85%E7%AA%A5%E9%95%9C%28%E9%87%91%E9%AB%98%E8%B7%AF%29&src=vetmap&coordinate=gaode&callnative=1"},{"name":"上海卡斯柏宠物诊所","address":"金桥镇佳林路62号","phone":"13918020325","category":"医疗保健服务;动物医疗场所;宠物诊所","area":"金桥","lng":121.609621,"lat":31.273049,"amap_id":"B0J1ZK7YMR","order":133,"prev_distance_km":0.003,"cumulative_distance_km":167.53,"amap_marker_url":"https://uri.amap.com/marker?position=121.609621,31.273049&name=%E4%B8%8A%E6%B5%B7%E5%8D%A1%E6%96%AF%E6%9F%8F%E5%AE%A0%E7%89%A9%E8%AF%8A%E6%89%80&src=vetmap&coordinate=gaode&callnative=1"},{"name":"Casper Pet Hospital","address":"金高路与佳桥路交叉口南60米","phone":"","category":"医疗保健服务;动物医疗场所;宠物诊所","area":"金桥","lng":121.609674,"lat":31.273078,"amap_id":"B0L116JYZW","order":134,"prev_distance_km":0.006,"cumulative_distance_km":167.536,"amap_marker_url":"https://uri.amap.com/marker?position=121.609674,31.273078&name=Casper%20Pet%20Hospital&src=vetmap&coordinate=gaode&callnative=1"},{"name":"宠忆宠物殡葬宠物火化服务中心","address":"金高路1296弄46号","phone":"17316569290","category":"医疗保健服务;动物医疗场所;动物医疗场所","area":"金桥","lng":121.609761,"lat":31.278096,"amap_id":"B0L62DCSFJ","order":135,"prev_distance_km":0.558,"cumulative_distance_km":168.094,"amap_marker_url":"https://uri.amap.com/marker?position=121.609761,31.278096&name=%E5%AE%A0%E5%BF%86%E5%AE%A0%E7%89%A9%E6%AE%A1%E8%91%AC%E5%AE%A0%E7%89%A9%E7%81%AB%E5%8C%96%E6%9C%8D%E5%8A%A1%E4%B8%AD%E5%BF%83&src=vetmap&coordinate=gaode&callnative=1"},{"name":"圣馨宠物医院·24H急重症(巨峰路分院)","address":"巨峰路744号近杨高北路地铁站","phone":"021-58580667;17721144508","category":"医疗保健服务;动物医疗场所;宠物诊所","area":"金桥","lng":121.602161,"lat":31.27978,"amap_id":"B0G0U5NC8Z","order":136,"prev_distance_km":0.746,"cumulative_distance_km":168.84,"amap_marker_url":"https://uri.amap.com/marker?position=121.602161,31.279780&name=%E5%9C%A3%E9%A6%A8%E5%AE%A0%E7%89%A9%E5%8C%BB%E9%99%A2%C2%B724H%E6%80%A5%E9%87%8D%E7%97%87%28%E5%B7%A8%E5%B3%B0%E8%B7%AF%E5%88%86%E9%99%A2%29&src=vetmap&coordinate=gaode&callnative=1"},{"name":"瑞派丘尔宠物诊疗中心·急危重症·骨科·狂犬免疫点","address":"双桥路1216号103室瑞派丘尔宠物医院(川师傅水煮鱼隔壁)","phone":"021-68881912","category":"医疗保健服务;动物医疗场所;宠物诊所","area":"","lng":121.613316,"lat":31.284373,"amap_id":"B0H1HSU09W","order":137,"prev_distance_km":1.177,"cumulative_distance_km":170.017,"amap_marker_url":"https://uri.amap.com/marker?position=121.613316,31.284373&name=%E7%91%9E%E6%B4%BE%E4%B8%98%E5%B0%94%E5%AE%A0%E7%89%A9%E8%AF%8A%E7%96%97%E4%B8%AD%E5%BF%83%C2%B7%E6%80%A5%E5%8D%B1%E9%87%8D%E7%97%87%C2%B7%E9%AA%A8%E7%A7%91%C2%B7%E7%8B%82%E7%8A%AC%E5%85%8D%E7%96%AB%E7%82%B9&src=vetmap&coordinate=gaode&callnative=1"},{"name":"宠爱国际动物医院(高行店)","address":"金高路487弄3号209室210室491号1层A室","phone":"021-38277828","category":"医疗保健服务;动物医疗场所;宠物诊所","area":"","lng":121.610703,"lat":31.290785,"amap_id":"B0HKVH4OEH","order":138,"prev_distance_km":0.755,"cumulative_distance_km":170.772,"amap_marker_url":"https://uri.amap.com/marker?position=121.610703,31.290785&name=%E5%AE%A0%E7%88%B1%E5%9B%BD%E9%99%85%E5%8A%A8%E7%89%A9%E5%8C%BB%E9%99%A2%28%E9%AB%98%E8%A1%8C%E5%BA%97%29&src=vetmap&coordinate=gaode&callnative=1"},{"name":"米嘉宠物诊所","address":"新行路439号","phone":"021-68453533","category":"医疗保健服务;动物医疗场所;宠物诊所","area":"","lng":121.612538,"lat":31.294722,"amap_id":"B0G32UG4WW","order":139,"prev_distance_km":0.471,"cumulative_distance_km":171.243,"amap_marker_url":"https://uri.amap.com/marker?position=121.612538,31.294722&name=%E7%B1%B3%E5%98%89%E5%AE%A0%E7%89%A9%E8%AF%8A%E6%89%80&src=vetmap&coordinate=gaode&callnative=1"},{"name":"瑞鹏宠物医院·免疫点·爱猫医院(兰谷分院)","address":"兰谷路2739号","phone":"021-68622386","category":"医疗保健服务;动物医疗场所;宠物诊所","area":"","lng":121.59261,"lat":31.29365,"amap_id":"B0FFJPSA8M","order":140,"prev_distance_km":1.897,"cumulative_distance_km":173.14,"amap_marker_url":"https://uri.amap.com/marker?position=121.592610,31.293650&name=%E7%91%9E%E9%B9%8F%E5%AE%A0%E7%89%A9%E5%8C%BB%E9%99%A2%C2%B7%E5%85%8D%E7%96%AB%E7%82%B9%C2%B7%E7%88%B1%E7%8C%AB%E5%8C%BB%E9%99%A2%28%E5%85%B0%E8%B0%B7%E5%88%86%E9%99%A2%29&src=vetmap&coordinate=gaode&callnative=1"},{"name":"安安宠医·免疫点·爱猫医院(金桥店)","address":"张杨北路1147号(巨峰路地铁站)","phone":"021-50255169","category":"医疗保健服务;动物医疗场所;宠物诊所","area":"金桥","lng":121.587775,"lat":31.280294,"amap_id":"B0FFG6HLFL","order":141,"prev_distance_km":1.555,"cumulative_distance_km":174.695,"amap_marker_url":"https://uri.amap.com/marker?position=121.587775,31.280294&name=%E5%AE%89%E5%AE%89%E5%AE%A0%E5%8C%BB%C2%B7%E5%85%8D%E7%96%AB%E7%82%B9%C2%B7%E7%88%B1%E7%8C%AB%E5%8C%BB%E9%99%A2%28%E9%87%91%E6%A1%A5%E5%BA%97%29&src=vetmap&coordinate=gaode&callnative=1"},{"name":"宠爱国际24小时动物医院(金桥店)","address":"台儿庄路267号","phone":"021-80206600","category":"医疗保健服务;动物医疗场所;宠物诊所","area":"金桥","lng":121.592223,"lat":31.260246,"amap_id":"B0FFMB2C3E","order":142,"prev_distance_km":2.269,"cumulative_distance_km":176.964,"amap_marker_url":"https://uri.amap.com/marker?position=121.592223,31.260246&name=%E5%AE%A0%E7%88%B1%E5%9B%BD%E9%99%8524%E5%B0%8F%E6%97%B6%E5%8A%A8%E7%89%A9%E5%8C%BB%E9%99%A2%28%E9%87%91%E6%A1%A5%E5%BA%97%29&src=vetmap&coordinate=gaode&callnative=1"},{"name":"菲拉金乔宠物医院","address":"平度路258号","phone":"15317373326","category":"医疗保健服务;动物医疗场所;宠物诊所","area":"金桥","lng":121.591913,"lat":31.255585,"amap_id":"B0FFKDJE09","order":143,"prev_distance_km":0.519,"cumulative_distance_km":177.483,"amap_marker_url":"https://uri.amap.com/marker?position=121.591913,31.255585&name=%E8%8F%B2%E6%8B%89%E9%87%91%E4%B9%94%E5%AE%A0%E7%89%A9%E5%8C%BB%E9%99%A2&src=vetmap&coordinate=gaode&callnative=1"},{"name":"乐乐宠物馆","address":"金台路51号","phone":"021-50700106","category":"医疗保健服务;动物医疗场所;动物医疗场所","area":"金桥","lng":121.584381,"lat":31.249097,"amap_id":"B0FFH15UWA","order":144,"prev_distance_km":1.016,"cumulative_distance_km":178.5,"amap_marker_url":"https://uri.amap.com/marker?position=121.584381,31.249097&name=%E4%B9%90%E4%B9%90%E5%AE%A0%E7%89%A9%E9%A6%86&src=vetmap&coordinate=gaode&callnative=1"},{"name":"守诺宠物医院","address":"枣庄路991号","phone":"13061823958","category":"医疗保健服务;动物医疗场所;宠物诊所","area":"金桥","lng":121.584592,"lat":31.247723,"amap_id":"B0K0RSLX25","order":145,"prev_distance_km":0.154,"cumulative_distance_km":178.654,"amap_marker_url":"https://uri.amap.com/marker?position=121.584592,31.247723&name=%E5%AE%88%E8%AF%BA%E5%AE%A0%E7%89%A9%E5%8C%BB%E9%99%A2&src=vetmap&coordinate=gaode&callnative=1"},{"name":"顽皮家族宠物医院CT·骨科微创外科·心脏特色治疗(碧云店)","address":"红枫路376号1-3层","phone":"021-58997276","category":"医疗保健服务;动物医疗场所;宠物诊所","area":"金桥","lng":121.592922,"lat":31.241209,"amap_id":"B0IKBN8VQH","order":146,"prev_distance_km":1.073,"cumulative_distance_km":179.727,"amap_marker_url":"https://uri.amap.com/marker?position=121.592922,31.241209&name=%E9%A1%BD%E7%9A%AE%E5%AE%B6%E6%97%8F%E5%AE%A0%E7%89%A9%E5%8C%BB%E9%99%A2CT%C2%B7%E9%AA%A8%E7%A7%91%E5%BE%AE%E5%88%9B%E5%A4%96%E7%A7%91%C2%B7%E5%BF%83%E8%84%8F%E7%89%B9%E8%89%B2%E6%B2%BB%E7%96%97%28%E7%A2%A7%E4%BA%91%E5%BA%97%29&src=vetmap&coordinate=gaode&callnative=1"},{"name":"勤勤24H宠物诊疗中心医院.夜诊.ICU急重症","address":"红枫路470号(明月路)","phone":"19121846502","category":"医疗保健服务;动物医疗场所;宠物诊所","area":"金桥","lng":121.59442,"lat":31.239485,"amap_id":"B0H6A5MENX","order":147,"prev_distance_km":0.239,"cumulative_distance_km":179.966,"amap_marker_url":"https://uri.amap.com/marker?position=121.594420,31.239485&name=%E5%8B%A4%E5%8B%A424H%E5%AE%A0%E7%89%A9%E8%AF%8A%E7%96%97%E4%B8%AD%E5%BF%83%E5%8C%BB%E9%99%A2.%E5%A4%9C%E8%AF%8A.ICU%E6%80%A5%E9%87%8D%E7%97%87&src=vetmap&coordinate=gaode&callnative=1"},{"name":"哆趣宠物医院·眼科·内镜·CT急重症(中心店)","address":"张杨路3201号(云山路地铁站4号口步行120米)","phone":"021-50347621;18918180996","category":"医疗保健服务;动物医疗场所;宠物诊所","area":"金桥","lng":121.573519,"lat":31.251373,"amap_id":"B00155HJPW","order":148,"prev_distance_km":2.387,"cumulative_distance_km":182.352,"amap_marker_url":"https://uri.amap.com/marker?position=121.573519,31.251373&name=%E5%93%86%E8%B6%A3%E5%AE%A0%E7%89%A9%E5%8C%BB%E9%99%A2%C2%B7%E7%9C%BC%E7%A7%91%C2%B7%E5%86%85%E9%95%9C%C2%B7CT%E6%80%A5%E9%87%8D%E7%97%87%28%E4%B8%AD%E5%BF%83%E5%BA%97%29&src=vetmap&coordinate=gaode&callnative=1"},{"name":"瑞鹏宠物医院心内科··骨科·宠保定点(张杨店)","address":"张杨路3131号1层","phone":"021-50818810;021-50818830","category":"医疗保健服务;动物医疗场所;宠物诊所","area":"金桥","lng":121.572355,"lat":31.250647,"amap_id":"B0FFJCANS1","order":149,"prev_distance_km":0.137,"cumulative_distance_km":182.489,"amap_marker_url":"https://uri.amap.com/marker?position=121.572355,31.250647&name=%E7%91%9E%E9%B9%8F%E5%AE%A0%E7%89%A9%E5%8C%BB%E9%99%A2%E5%BF%83%E5%86%85%E7%A7%91%C2%B7%C2%B7%E9%AA%A8%E7%A7%91%C2%B7%E5%AE%A0%E4%BF%9D%E5%AE%9A%E7%82%B9%28%E5%BC%A0%E6%9D%A8%E5%BA%97%29&src=vetmap&coordinate=gaode&callnative=1"},{"name":"布丁宠物诊所(云山路店)","address":"云山路560号御足养生馆隔壁","phone":"18221770709","category":"医疗保健服务;动物医疗场所;宠物诊所","area":"金杨地区","lng":121.56639,"lat":31.257729,"amap_id":"B0FFIYOTSI","order":150,"prev_distance_km":0.97,"cumulative_distance_km":183.46,"amap_marker_url":"https://uri.amap.com/marker?position=121.566390,31.257729&name=%E5%B8%83%E4%B8%81%E5%AE%A0%E7%89%A9%E8%AF%8A%E6%89%80%28%E4%BA%91%E5%B1%B1%E8%B7%AF%E5%BA%97%29&src=vetmap&coordinate=gaode&callnative=1"},{"name":"灵兽药店","address":"浦东大道地道与龙居路交叉口西南80米","phone":"","category":"医疗保健服务;动物医疗场所;动物医疗场所","area":"金杨地区","lng":121.557575,"lat":31.256125,"amap_id":"B0M6TR5YRA","order":151,"prev_distance_km":0.857,"cumulative_distance_km":184.316,"amap_marker_url":"https://uri.amap.com/marker?position=121.557575,31.256125&name=%E7%81%B5%E5%85%BD%E8%8D%AF%E5%BA%97&src=vetmap&coordinate=gaode&callnative=1"},{"name":"开米动物医院","address":"启帆路441号(洲海路地铁站2号口步行200米)","phone":"13262520262","category":"医疗保健服务;动物医疗场所;宠物诊所","area":"","lng":121.587937,"lat":31.312913,"amap_id":"B0K6BH6CR2","order":152,"prev_distance_km":6.942,"cumulative_distance_km":191.259,"amap_marker_url":"https://uri.amap.com/marker?position=121.587937,31.312913&name=%E5%BC%80%E7%B1%B3%E5%8A%A8%E7%89%A9%E5%8C%BB%E9%99%A2&src=vetmap&coordinate=gaode&callnative=1"},{"name":"康铖宠物医院(高桥店)","address":"富特三村南区西北2门东北60米","phone":"15304435191","category":"医疗保健服务;动物医疗场所;宠物诊所","area":"高桥","lng":121.587821,"lat":31.334671,"amap_id":"B0G1RA2SC4","order":153,"prev_distance_km":2.419,"cumulative_distance_km":193.678,"amap_marker_url":"https://uri.amap.com/marker?position=121.587821,31.334671&name=%E5%BA%B7%E9%93%96%E5%AE%A0%E7%89%A9%E5%8C%BB%E9%99%A2%28%E9%AB%98%E6%A1%A5%E5%BA%97%29&src=vetmap&coordinate=gaode&callnative=1"},{"name":"春阳宠物诊所","address":"春阳路620号","phone":"021-58879188;18616658810","category":"医疗保健服务;动物医疗场所;宠物诊所","area":"高桥","lng":121.581296,"lat":31.339715,"amap_id":"B0FFGIQI24","order":154,"prev_distance_km":0.836,"cumulative_distance_km":194.514,"amap_marker_url":"https://uri.amap.com/marker?position=121.581296,31.339715&name=%E6%98%A5%E9%98%B3%E5%AE%A0%E7%89%A9%E8%AF%8A%E6%89%80&src=vetmap&coordinate=gaode&callnative=1"},{"name":"吉利宠物生活馆(高桥镇店)","address":"高桥学前街9号-11","phone":"021-50407672;13917666151","category":"医疗保健服务;动物医疗场所;动物医疗场所","area":"高桥","lng":121.582189,"lat":31.346519,"amap_id":"B00155GCKD","order":155,"prev_distance_km":0.761,"cumulative_distance_km":195.275,"amap_marker_url":"https://uri.amap.com/marker?position=121.582189,31.346519&name=%E5%90%89%E5%88%A9%E5%AE%A0%E7%89%A9%E7%94%9F%E6%B4%BB%E9%A6%86%28%E9%AB%98%E6%A1%A5%E9%95%87%E5%BA%97%29&src=vetmap&coordinate=gaode&callnative=1"},{"name":"哈狗帮宠物店(花山路店)","address":"高桥镇花山路440号","phone":"13761988809;13817180399","category":"医疗保健服务;动物医疗场所;动物医疗场所","area":"高桥","lng":121.571771,"lat":31.346526,"amap_id":"B0FFK64GO7","order":156,"prev_distance_km":0.989,"cumulative_distance_km":196.265,"amap_marker_url":"https://uri.amap.com/marker?position=121.571771,31.346526&name=%E5%93%88%E7%8B%97%E5%B8%AE%E5%AE%A0%E7%89%A9%E5%BA%97%28%E8%8A%B1%E5%B1%B1%E8%B7%AF%E5%BA%97%29&src=vetmap&coordinate=gaode&callnative=1"},{"name":"凯复宠物诊疗中心","address":"高荷路240号","phone":"15216769508","category":"医疗保健服务;动物医疗场所;宠物诊所","area":"高桥","lng":121.574017,"lat":31.333781,"amap_id":"B0HABPOBS6","order":157,"prev_distance_km":1.433,"cumulative_distance_km":197.698,"amap_marker_url":"https://uri.amap.com/marker?position=121.574017,31.333781&name=%E5%87%AF%E5%A4%8D%E5%AE%A0%E7%89%A9%E8%AF%8A%E7%96%97%E4%B8%AD%E5%BF%83&src=vetmap&coordinate=gaode&callnative=1"},{"name":"睿祺猫舍","address":"合庆镇环庆南路336号绿地海岸城16号楼","phone":"","category":"医疗保健服务;动物医疗场所;动物医疗场所","area":"合庆","lng":121.72847,"lat":31.227996,"amap_id":"B0K647RGGX","order":158,"prev_distance_km":18.81,"cumulative_distance_km":216.507,"amap_marker_url":"https://uri.amap.com/marker?position=121.728470,31.227996&name=%E7%9D%BF%E7%A5%BA%E7%8C%AB%E8%88%8D&src=vetmap&coordinate=gaode&callnative=1"},{"name":"瑞派菲鸿宠物医院·急重症·肿瘤科·狂犬免疫点(沪南路店)","address":"沪南公路3369号(周浦地铁站1号口步行240米)","phone":"19946053792","category":"医疗保健服务;动物医疗场所;宠物诊所","area":"康桥","lng":121.567761,"lat":31.116834,"amap_id":"B0GD7CB07E","order":159,"prev_distance_km":19.661,"cumulative_distance_km":236.169,"amap_marker_url":"https://uri.amap.com/marker?position=121.567761,31.116834&name=%E7%91%9E%E6%B4%BE%E8%8F%B2%E9%B8%BF%E5%AE%A0%E7%89%A9%E5%8C%BB%E9%99%A2%C2%B7%E6%80%A5%E9%87%8D%E7%97%87%C2%B7%E8%82%BF%E7%98%A4%E7%A7%91%C2%B7%E7%8B%82%E7%8A%AC%E5%85%8D%E7%96%AB%E7%82%B9%28%E6%B2%AA%E5%8D%97%E8%B7%AF%E5%BA%97%29&src=vetmap&coordinate=gaode&callnative=1"},{"name":"瑞佳佳宠物医院","address":"周康路72号(周浦地铁站2号口步行400米)","phone":"19302162181","category":"医疗保健服务;动物医疗场所;宠物诊所","area":"周浦镇","lng":121.571425,"lat":31.112875,"amap_id":"B0L1CR5WHU","order":160,"prev_distance_km":0.562,"cumulative_distance_km":236.73,"amap_marker_url":"https://uri.amap.com/marker?position=121.571425,31.112875&name=%E7%91%9E%E4%BD%B3%E4%BD%B3%E5%AE%A0%E7%89%A9%E5%8C%BB%E9%99%A2&src=vetmap&coordinate=gaode&callnative=1"},{"name":"益佳兽药","address":"书院镇新府路70号","phone":"021-58196199;13023247612","category":"医疗保健服务;动物医疗场所;兽医站","area":"中国(上海)自由贸易试验区临港新片区","lng":121.870012,"lat":30.982481,"amap_id":"B0FFG2Z59P","order":161,"prev_distance_km":31.927,"cumulative_distance_km":268.657,"amap_marker_url":"https://uri.amap.com/marker?position=121.870012,30.982481&name=%E7%9B%8A%E4%BD%B3%E5%85%BD%E8%8D%AF&src=vetmap&coordinate=gaode&callnative=1"},{"name":"浦东新区生猪检疫申报点(老港)","address":"","phone":"021-58051306","category":"医疗保健服务;动物医疗场所;动物医疗场所","area":"","lng":121.899349,"lat":31.005817,"amap_id":"B0G3JS3K06","order":162,"prev_distance_km":3.815,"cumulative_distance_km":272.472,"amap_marker_url":"https://uri.amap.com/marker?position=121.899349,31.005817&name=%E6%B5%A6%E4%B8%9C%E6%96%B0%E5%8C%BA%E7%94%9F%E7%8C%AA%E6%A3%80%E7%96%AB%E7%94%B3%E6%8A%A5%E7%82%B9%28%E8%80%81%E6%B8%AF%29&src=vetmap&coordinate=gaode&callnative=1"},{"name":"查理宠物","address":"欧景小镇商业街夏栎路330弄21、22号","phone":"021-58110029;18862685529","category":"医疗保健服务;动物医疗场所;宠物诊所","area":"中国(上海)自由贸易试验区临港新片区","lng":121.916775,"lat":30.914825,"amap_id":"B0H0JSTPU2","order":163,"prev_distance_km":10.253,"cumulative_distance_km":282.726,"amap_marker_url":"https://uri.amap.com/marker?position=121.916775,30.914825&name=%E6%9F%A5%E7%90%86%E5%AE%A0%E7%89%A9&src=vetmap&coordinate=gaode&callnative=1"},{"name":"圣馨宠物医院","address":"康乃馨路148弄1号111室","phone":"021-60406646;18816554508","category":"医疗保健服务;动物医疗场所;宠物诊所","area":"中国(上海)自由贸易试验区临港新片区","lng":121.920435,"lat":30.884395,"amap_id":"B0FFIQ6129","order":164,"prev_distance_km":3.402,"cumulative_distance_km":286.127,"amap_marker_url":"https://uri.amap.com/marker?position=121.920435,30.884395&name=%E5%9C%A3%E9%A6%A8%E5%AE%A0%E7%89%A9%E5%8C%BB%E9%99%A2&src=vetmap&coordinate=gaode&callnative=1"},{"name":"吉尾堂宠物药房生活馆","address":"古棕路250弄13号","phone":"15618965207","category":"医疗保健服务;动物医疗场所;动物医疗场所","area":"中国(上海)自由贸易试验区临港新片区","lng":121.915739,"lat":30.882494,"amap_id":"B0L1HCXYV0","order":165,"prev_distance_km":0.495,"cumulative_distance_km":286.623,"amap_marker_url":"https://uri.amap.com/marker?position=121.915739,30.882494&name=%E5%90%89%E5%B0%BE%E5%A0%82%E5%AE%A0%E7%89%A9%E8%8D%AF%E6%88%BF%E7%94%9F%E6%B4%BB%E9%A6%86&src=vetmap&coordinate=gaode&callnative=1"},{"name":"24小时方城宠物医院骨科专科","address":"泥城镇南芦公路1860号","phone":"021-58285288","category":"医疗保健服务;动物医疗场所;宠物诊所","area":"中国(上海)自由贸易试验区临港新片区","lng":121.828216,"lat":30.900071,"amap_id":"B0G3JP2P2F","order":166,"prev_distance_km":8.577,"cumulative_distance_km":295.2,"amap_marker_url":"https://uri.amap.com/marker?position=121.828216,30.900071&name=24%E5%B0%8F%E6%97%B6%E6%96%B9%E5%9F%8E%E5%AE%A0%E7%89%A9%E5%8C%BB%E9%99%A2%E9%AA%A8%E7%A7%91%E4%B8%93%E7%A7%91&src=vetmap&coordinate=gaode&callnative=1"},{"name":"佩琪宠物医院·急重症·骨科·心超(临港店)","address":"临港新片区南芦公路1758弄2号1010、1011、1022、1023室","phone":"18901766458","category":"医疗保健服务;动物医疗场所;宠物诊所","area":"中国(上海)自由贸易试验区临港新片区","lng":121.817779,"lat":30.909712,"amap_id":"B0FFK01WMG","order":167,"prev_distance_km":1.463,"cumulative_distance_km":296.663,"amap_marker_url":"https://uri.amap.com/marker?position=121.817779,30.909712&name=%E4%BD%A9%E7%90%AA%E5%AE%A0%E7%89%A9%E5%8C%BB%E9%99%A2%C2%B7%E6%80%A5%E9%87%8D%E7%97%87%C2%B7%E9%AA%A8%E7%A7%91%C2%B7%E5%BF%83%E8%B6%85%28%E4%B8%B4%E6%B8%AF%E5%BA%97%29&src=vetmap&coordinate=gaode&callnative=1"}]}