{"summary":{"id":"d00055","province":"内蒙古自治区","city":"呼伦贝尔市","district":"鄂温克族自治旗","count":7,"total_distance_km":56.723,"coordinate_system":"GCJ-02 / Amap","generated_at":"2026-05-07 19:55:45"},"rows":[{"name":"友明兽药店","address":"伊敏河镇牧场委华盛街99号","phone":"15204706095;15247050828","category":"医疗保健服务;动物医疗场所;动物医疗场所","area":"","lng":119.794758,"lat":48.662235,"amap_id":"B0LROAWG59","order":1,"prev_distance_km":0.0,"cumulative_distance_km":0.0,"amap_marker_url":"https://uri.amap.com/marker?position=119.794758,48.662235&name=%E5%8F%8B%E6%98%8E%E5%85%BD%E8%8D%AF%E5%BA%97&src=vetmap&coordinate=gaode&callnative=1"},{"name":"宝亮兽药店","address":"锡尼河东苏木,试验站村004乡道","phone":"13171184060","category":"医疗保健服务;动物医疗场所;动物医疗场所","area":"","lng":119.83268,"lat":48.800095,"amap_id":"B0LKVU5LJG","order":2,"prev_distance_km":15.58,"cumulative_distance_km":15.58,"amap_marker_url":"https://uri.amap.com/marker?position=119.832680,48.800095&name=%E5%AE%9D%E4%BA%AE%E5%85%BD%E8%8D%AF%E5%BA%97&src=vetmap&coordinate=gaode&callnative=1"},{"name":"芸牧兽药店","address":"呼和苏牧街与伊敏路交叉口东120米","phone":"","category":"医疗保健服务;动物医疗场所;动物医疗场所","area":"","lng":119.757316,"lat":49.139894,"amap_id":"B0JBTOD4UA","order":3,"prev_distance_km":38.182,"cumulative_distance_km":53.762,"amap_marker_url":"https://uri.amap.com/marker?position=119.757316,49.139894&name=%E8%8A%B8%E7%89%A7%E5%85%BD%E8%8D%AF%E5%BA%97&src=vetmap&coordinate=gaode&callnative=1"},{"name":"强大兽药店","address":"呼和苏牧街与伊敏路交叉口东100米","phone":"","category":"医疗保健服务;动物医疗场所;动物医疗场所","area":"","lng":119.757055,"lat":49.13995,"amap_id":"B0FFHD0MRH","order":4,"prev_distance_km":0.02,"cumulative_distance_km":53.782,"amap_marker_url":"https://uri.amap.com/marker?position=119.757055,49.139950&name=%E5%BC%BA%E5%A4%A7%E5%85%BD%E8%8D%AF%E5%BA%97&src=vetmap&coordinate=gaode&callnative=1"},{"name":"朝阳兽药店","address":"巴彦托海镇平安楼朝阳兽药店","phone":"","category":"医疗保健服务;动物医疗场所;动物医疗场所","area":"","lng":119.753671,"lat":49.141293,"amap_id":"B01D600F2Z","order":5,"prev_distance_km":0.288,"cumulative_distance_km":54.07,"amap_marker_url":"https://uri.amap.com/marker?position=119.753671,49.141293&name=%E6%9C%9D%E9%98%B3%E5%85%BD%E8%8D%AF%E5%BA%97&src=vetmap&coordinate=gaode&callnative=1"},{"name":"赛伊汗兽药店鄂温克店","address":"辉河路205号","phone":"","category":"医疗保健服务;动物医疗场所;动物医疗场所","area":"","lng":119.750218,"lat":49.140815,"amap_id":"B0KG0CIPU3","order":6,"prev_distance_km":0.257,"cumulative_distance_km":54.327,"amap_marker_url":"https://uri.amap.com/marker?position=119.750218,49.140815&name=%E8%B5%9B%E4%BC%8A%E6%B1%97%E5%85%BD%E8%8D%AF%E5%BA%97%E9%84%82%E6%B8%A9%E5%85%8B%E5%BA%97&src=vetmap&coordinate=gaode&callnative=1"},{"name":"鄂温克族自治旗念宠阁宠物善终火化服务中心","address":"乌日切系阿木吉街与敖宁高勒路交叉口西150米路南","phone":"18047010761","category":"医疗保健服务;动物医疗场所;宠物诊所","area":"","lng":119.718345,"lat":49.146264,"amap_id":"B0K2NR9HPD","order":7,"prev_distance_km":2.396,"cumulative_distance_km":56.723,"amap_marker_url":"https://uri.amap.com/marker?position=119.718345,49.146264&name=%E9%84%82%E6%B8%A9%E5%85%8B%E6%97%8F%E8%87%AA%E6%B2%BB%E6%97%97%E5%BF%B5%E5%AE%A0%E9%98%81%E5%AE%A0%E7%89%A9%E5%96%84%E7%BB%88%E7%81%AB%E5%8C%96%E6%9C%8D%E5%8A%A1%E4%B8%AD%E5%BF%83&src=vetmap&coordinate=gaode&callnative=1"}]}