{"summary":{"id":"d00082","province":"内蒙古自治区","city":"赤峰市","district":"松山区","count":46,"route_count":1,"max_route_clinics":46,"total_distance_km":200.763,"coordinate_system":"GCJ-02 / Amap","generated_at":"2026-05-07 21:26:19"},"routes":[{"id":"r1","name":"第1段","count":46,"total_distance_km":200.763,"rows":[{"name":"陈建伟兽药店","address":"赤朝线","phone":"18647680105","category":"医疗保健服务;动物医疗场所;动物医疗场所","area":"","lng":118.575047,"lat":42.107794,"amap_id":"B0LKOSFLMA","order":1,"prev_distance_km":0.0,"cumulative_distance_km":0.0,"amap_marker_url":"https://uri.amap.com/marker?position=118.575047,42.107794&name=%E9%99%88%E5%BB%BA%E4%BC%9F%E5%85%BD%E8%8D%AF%E5%BA%97&src=vetmap&coordinate=gaode&callnative=1","route_id":"r1","route_name":"第1段"},{"name":"松山区张建军兽医诊所","address":"老府镇老府村六组72号","phone":"13722146658","category":"医疗保健服务;动物医疗场所;兽医站","area":"","lng":118.26123,"lat":42.183825,"amap_id":"B0L1NHWTC8","order":2,"prev_distance_km":27.219,"cumulative_distance_km":27.219,"amap_marker_url":"https://uri.amap.com/marker?position=118.261230,42.183825&name=%E6%9D%BE%E5%B1%B1%E5%8C%BA%E5%BC%A0%E5%BB%BA%E5%86%9B%E5%85%BD%E5%8C%BB%E8%AF%8A%E6%89%80&src=vetmap&coordinate=gaode&callnative=1","route_id":"r1","route_name":"第1段"},{"name":"立国兽医诊所","address":"大庙小学东侧100米","phone":"","category":"医疗保健服务;动物医疗场所;兽医站","area":"","lng":118.299325,"lat":42.390625,"amap_id":"B0M6Y7T62Q","order":3,"prev_distance_km":23.208,"cumulative_distance_km":50.426,"amap_marker_url":"https://uri.amap.com/marker?position=118.299325,42.390625&name=%E7%AB%8B%E5%9B%BD%E5%85%BD%E5%8C%BB%E8%AF%8A%E6%89%80&src=vetmap&coordinate=gaode&callnative=1","route_id":"r1","route_name":"第1段"},{"name":"杨天楠兽医门诊","address":"大庙街","phone":"18748059000","category":"医疗保健服务;动物医疗场所;兽医站","area":"","lng":118.299255,"lat":42.393024,"amap_id":"B0JD55C7MC","order":4,"prev_distance_km":0.267,"cumulative_distance_km":50.693,"amap_marker_url":"https://uri.amap.com/marker?position=118.299255,42.393024&name=%E6%9D%A8%E5%A4%A9%E6%A5%A0%E5%85%BD%E5%8C%BB%E9%97%A8%E8%AF%8A&src=vetmap&coordinate=gaode&callnative=1","route_id":"r1","route_name":"第1段"},{"name":"兽医兽药","address":"经山线与219省道交叉口东南180米","phone":"","category":"医疗保健服务;动物医疗场所;动物医疗场所","area":"","lng":118.299481,"lat":42.394089,"amap_id":"B0KAAXDYPT","order":5,"prev_distance_km":0.12,"cumulative_distance_km":50.813,"amap_marker_url":"https://uri.amap.com/marker?position=118.299481,42.394089&name=%E5%85%BD%E5%8C%BB%E5%85%BD%E8%8D%AF&src=vetmap&coordinate=gaode&callnative=1","route_id":"r1","route_name":"第1段"},{"name":"王珍兽医门诊","address":"经山线与219省道交叉口南180米","phone":"","category":"医疗保健服务;动物医疗场所;兽医站","area":"","lng":118.298578,"lat":42.394165,"amap_id":"B0G2KPSIWS","order":6,"prev_distance_km":0.075,"cumulative_distance_km":50.888,"amap_marker_url":"https://uri.amap.com/marker?position=118.298578,42.394165&name=%E7%8E%8B%E7%8F%8D%E5%85%BD%E5%8C%BB%E9%97%A8%E8%AF%8A&src=vetmap&coordinate=gaode&callnative=1","route_id":"r1","route_name":"第1段"},{"name":"占荣兽医门诊","address":"娘十段","phone":"15147602380","category":"医疗保健服务;动物医疗场所;兽医站","area":"","lng":118.19353,"lat":42.448864,"amap_id":"B0G3LAFQBH","order":7,"prev_distance_km":10.552,"cumulative_distance_km":61.44,"amap_marker_url":"https://uri.amap.com/marker?position=118.193530,42.448864&name=%E5%8D%A0%E8%8D%A3%E5%85%BD%E5%8C%BB%E9%97%A8%E8%AF%8A&src=vetmap&coordinate=gaode&callnative=1","route_id":"r1","route_name":"第1段"},{"name":"赵云龙兽医门诊","address":"娘十段","phone":"","category":"医疗保健服务;动物医疗场所;兽医站","area":"","lng":118.195542,"lat":42.448942,"amap_id":"B0HBRP3DUY","order":8,"prev_distance_km":0.165,"cumulative_distance_km":61.605,"amap_marker_url":"https://uri.amap.com/marker?position=118.195542,42.448942&name=%E8%B5%B5%E4%BA%91%E9%BE%99%E5%85%BD%E5%8C%BB%E9%97%A8%E8%AF%8A&src=vetmap&coordinate=gaode&callnative=1","route_id":"r1","route_name":"第1段"},{"name":"小田兽医综合门诊","address":"206县道","phone":"","category":"医疗保健服务;动物医疗场所;兽医站","area":"","lng":118.407302,"lat":42.563989,"amap_id":"B0LRD77853","order":9,"prev_distance_km":21.563,"cumulative_distance_km":83.168,"amap_marker_url":"https://uri.amap.com/marker?position=118.407302,42.563989&name=%E5%B0%8F%E7%94%B0%E5%85%BD%E5%8C%BB%E7%BB%BC%E5%90%88%E9%97%A8%E8%AF%8A&src=vetmap&coordinate=gaode&callnative=1","route_id":"r1","route_name":"第1段"},{"name":"满术国兽医门诊","address":"岗子乡岗子卫生院斜对面","phone":"15144765365","category":"医疗保健服务;动物医疗场所;兽医站","area":"","lng":118.412971,"lat":42.563485,"amap_id":"B0K16UQOWK","order":10,"prev_distance_km":0.468,"cumulative_distance_km":83.636,"amap_marker_url":"https://uri.amap.com/marker?position=118.412971,42.563485&name=%E6%BB%A1%E6%9C%AF%E5%9B%BD%E5%85%BD%E5%8C%BB%E9%97%A8%E8%AF%8A&src=vetmap&coordinate=gaode&callnative=1","route_id":"r1","route_name":"第1段"},{"name":"立华兽药门店","address":"上官地镇大五十家子村退役军人服务站东南侧150米","phone":"","category":"购物服务;购物相关场所;购物相关场所|医疗保健服务;动物医疗场所;动物医疗场所","area":"","lng":118.565979,"lat":42.548106,"amap_id":"B0K2R46IU1","order":11,"prev_distance_km":12.649,"cumulative_distance_km":96.285,"amap_marker_url":"https://uri.amap.com/marker?position=118.565979,42.548106&name=%E7%AB%8B%E5%8D%8E%E5%85%BD%E8%8D%AF%E9%97%A8%E5%BA%97&src=vetmap&coordinate=gaode&callnative=1","route_id":"r1","route_name":"第1段"},{"name":"牧哲动保兽医门诊","address":"上官地镇山嘴村","phone":"","category":"医疗保健服务;动物医疗场所;兽医站","area":"","lng":118.654392,"lat":42.521549,"amap_id":"B0KDSMUBK5","order":12,"prev_distance_km":7.823,"cumulative_distance_km":104.108,"amap_marker_url":"https://uri.amap.com/marker?position=118.654392,42.521549&name=%E7%89%A7%E5%93%B2%E5%8A%A8%E4%BF%9D%E5%85%BD%E5%8C%BB%E9%97%A8%E8%AF%8A&src=vetmap&coordinate=gaode&callnative=1","route_id":"r1","route_name":"第1段"},{"name":"岳记兽药店","address":"焦张线与206省道交叉口东340米","phone":"","category":"医疗保健服务;动物医疗场所;动物医疗场所","area":"","lng":118.705375,"lat":42.491575,"amap_id":"B0LRC4DGO2","order":13,"prev_distance_km":5.346,"cumulative_distance_km":109.453,"amap_marker_url":"https://uri.amap.com/marker?position=118.705375,42.491575&name=%E5%B2%B3%E8%AE%B0%E5%85%BD%E8%8D%AF%E5%BA%97&src=vetmap&coordinate=gaode&callnative=1","route_id":"r1","route_name":"第1段"},{"name":"兽医门诊农汽配件","address":"关家营新型社区东北门东150米","phone":"","category":"医疗保健服务;动物医疗场所;兽医站","area":"","lng":118.807596,"lat":42.370716,"amap_id":"B0G3LZFY6Z","order":14,"prev_distance_km":15.843,"cumulative_distance_km":125.296,"amap_marker_url":"https://uri.amap.com/marker?position=118.807596,42.370716&name=%E5%85%BD%E5%8C%BB%E9%97%A8%E8%AF%8A%E5%86%9C%E6%B1%BD%E9%85%8D%E4%BB%B6&src=vetmap&coordinate=gaode&callnative=1","route_id":"r1","route_name":"第1段"},{"name":"李峰动物诊所","address":"穆家营子镇大西牛村大药房对面","phone":"13847690786","category":"医疗保健服务;动物医疗场所;宠物诊所","area":"","lng":118.82373,"lat":42.274355,"amap_id":"B0FFG71UKP","order":15,"prev_distance_km":10.797,"cumulative_distance_km":136.093,"amap_marker_url":"https://uri.amap.com/marker?position=118.823730,42.274355&name=%E6%9D%8E%E5%B3%B0%E5%8A%A8%E7%89%A9%E8%AF%8A%E6%89%80&src=vetmap&coordinate=gaode&callnative=1","route_id":"r1","route_name":"第1段"},{"name":"康贝宠物医院(新惠路店)","address":"玉龙街道成龙嘉园小区八号楼2-101商厅","phone":"15248617509","category":"医疗保健服务;动物医疗场所;宠物诊所","area":"","lng":118.874271,"lat":42.2624,"amap_id":"B0LGYD2A7P","order":16,"prev_distance_km":4.366,"cumulative_distance_km":140.459,"amap_marker_url":"https://uri.amap.com/marker?position=118.874271,42.262400&name=%E5%BA%B7%E8%B4%9D%E5%AE%A0%E7%89%A9%E5%8C%BB%E9%99%A2%28%E6%96%B0%E6%83%A0%E8%B7%AF%E5%BA%97%29&src=vetmap&coordinate=gaode&callnative=1","route_id":"r1","route_name":"第1段"},{"name":"瑞派·艺泽连锁乐园动物医院(新城店)","address":"富兴嘉城B区19号楼02012厅","phone":"0476-8225517;15247663433","category":"医疗保健服务;动物医疗场所;宠物诊所","area":"临潢大街","lng":118.886958,"lat":42.242504,"amap_id":"B0L6ZR2TO5","order":17,"prev_distance_km":2.446,"cumulative_distance_km":142.905,"amap_marker_url":"https://uri.amap.com/marker?position=118.886958,42.242504&name=%E7%91%9E%E6%B4%BE%C2%B7%E8%89%BA%E6%B3%BD%E8%BF%9E%E9%94%81%E4%B9%90%E5%9B%AD%E5%8A%A8%E7%89%A9%E5%8C%BB%E9%99%A2%28%E6%96%B0%E5%9F%8E%E5%BA%97%29&src=vetmap&coordinate=gaode&callnative=1","route_id":"r1","route_name":"第1段"},{"name":"欣生动物医院","address":"临潢大街83号","phone":"","category":"医疗保健服务;动物医疗场所;宠物诊所","area":"临潢大街","lng":118.887063,"lat":42.242537,"amap_id":"B0L2B7LPUK","order":18,"prev_distance_km":0.009,"cumulative_distance_km":142.914,"amap_marker_url":"https://uri.amap.com/marker?position=118.887063,42.242537&name=%E6%AC%A3%E7%94%9F%E5%8A%A8%E7%89%A9%E5%8C%BB%E9%99%A2&src=vetmap&coordinate=gaode&callnative=1","route_id":"r1","route_name":"第1段"},{"name":"利宠康动物诊所","address":"富和园八区天义路侧商厅","phone":"18647160460","category":"医疗保健服务;动物医疗场所;宠物诊所","area":"临潢大街","lng":118.896399,"lat":42.244794,"amap_id":"B0JGFUGXGH","order":19,"prev_distance_km":0.808,"cumulative_distance_km":143.723,"amap_marker_url":"https://uri.amap.com/marker?position=118.896399,42.244794&name=%E5%88%A9%E5%AE%A0%E5%BA%B7%E5%8A%A8%E7%89%A9%E8%AF%8A%E6%89%80&src=vetmap&coordinate=gaode&callnative=1","route_id":"r1","route_name":"第1段"},{"name":"淇心·相伴宠物医院","address":"玉龙街道亚兴国际公寓2号3号楼03012商厅","phone":"0476-5955580","category":"医疗保健服务;动物医疗场所;宠物诊所","area":"临潢大街","lng":118.895801,"lat":42.254168,"amap_id":"B0LUNS4BFL","order":20,"prev_distance_km":1.044,"cumulative_distance_km":144.766,"amap_marker_url":"https://uri.amap.com/marker?position=118.895801,42.254168&name=%E6%B7%87%E5%BF%83%C2%B7%E7%9B%B8%E4%BC%B4%E5%AE%A0%E7%89%A9%E5%8C%BB%E9%99%A2&src=vetmap&coordinate=gaode&callnative=1","route_id":"r1","route_name":"第1段"},{"name":"优家宠物","address":"玉龙街道王府花园一期东北门南侧第三个商厅","phone":"18747678731","category":"医疗保健服务;动物医疗场所;动物医疗场所","area":"","lng":118.890695,"lat":42.263348,"amap_id":"B0L1VZB12G","order":21,"prev_distance_km":1.104,"cumulative_distance_km":145.87,"amap_marker_url":"https://uri.amap.com/marker?position=118.890695,42.263348&name=%E4%BC%98%E5%AE%B6%E5%AE%A0%E7%89%A9&src=vetmap&coordinate=gaode&callnative=1","route_id":"r1","route_name":"第1段"},{"name":"元吉动物医院","address":"王府大街宝山路35-1号","phone":"17604762324","category":"医疗保健服务;动物医疗场所;宠物诊所","area":"","lng":118.889007,"lat":42.264991,"amap_id":"B0FFKBCPFO","order":22,"prev_distance_km":0.23,"cumulative_distance_km":146.1,"amap_marker_url":"https://uri.amap.com/marker?position=118.889007,42.264991&name=%E5%85%83%E5%90%89%E5%8A%A8%E7%89%A9%E5%8C%BB%E9%99%A2&src=vetmap&coordinate=gaode&callnative=1","route_id":"r1","route_name":"第1段"},{"name":"乖乐园宠物医院","address":"王府花园二期1号楼2号楼侧厅","phone":"13848989179","category":"医疗保健服务;动物医疗场所;宠物诊所","area":"","lng":118.883299,"lat":42.265655,"amap_id":"B0FFKIVHPC","order":23,"prev_distance_km":0.475,"cumulative_distance_km":146.575,"amap_marker_url":"https://uri.amap.com/marker?position=118.883299,42.265655&name=%E4%B9%96%E4%B9%90%E5%9B%AD%E5%AE%A0%E7%89%A9%E5%8C%BB%E9%99%A2&src=vetmap&coordinate=gaode&callnative=1","route_id":"r1","route_name":"第1段"},{"name":"凯尔宠物诊所","address":"长安小区东北门西北110米","phone":"18647677287","category":"医疗保健服务;动物医疗场所;宠物诊所","area":"","lng":118.884418,"lat":42.270135,"amap_id":"B0G23ZDQZI","order":24,"prev_distance_km":0.507,"cumulative_distance_km":147.082,"amap_marker_url":"https://uri.amap.com/marker?position=118.884418,42.270135&name=%E5%87%AF%E5%B0%94%E5%AE%A0%E7%89%A9%E8%AF%8A%E6%89%80&src=vetmap&coordinate=gaode&callnative=1","route_id":"r1","route_name":"第1段"},{"name":"旺德福宠物","address":"科海明珠一期G41-102","phone":"15547666781;15547676781","category":"医疗保健服务;动物医疗场所;动物医疗场所","area":"","lng":118.887704,"lat":42.286682,"amap_id":"B0L0DAMFJX","order":25,"prev_distance_km":1.86,"cumulative_distance_km":148.941,"amap_marker_url":"https://uri.amap.com/marker?position=118.887704,42.286682&name=%E6%97%BA%E5%BE%B7%E7%A6%8F%E5%AE%A0%E7%89%A9&src=vetmap&coordinate=gaode&callnative=1","route_id":"r1","route_name":"第1段"},{"name":"辛瑞蒂宠物诊所","address":"科海明珠对面物资小区B1105号厅","phone":"18847678031","category":"医疗保健服务;动物医疗场所;宠物诊所","area":"","lng":118.88447,"lat":42.285377,"amap_id":"B0LBTU0CCV","order":26,"prev_distance_km":0.303,"cumulative_distance_km":149.244,"amap_marker_url":"https://uri.amap.com/marker?position=118.884470,42.285377&name=%E8%BE%9B%E7%91%9E%E8%92%82%E5%AE%A0%E7%89%A9%E8%AF%8A%E6%89%80&src=vetmap&coordinate=gaode&callnative=1","route_id":"r1","route_name":"第1段"},{"name":"宠驿动物诊所","address":"物资小区C3-102厅","phone":"15849633384;18304760892","category":"医疗保健服务;动物医疗场所;宠物诊所","area":"","lng":118.882837,"lat":42.286482,"amap_id":"B0HGFD5O6I","order":27,"prev_distance_km":0.182,"cumulative_distance_km":149.427,"amap_marker_url":"https://uri.amap.com/marker?position=118.882837,42.286482&name=%E5%AE%A0%E9%A9%BF%E5%8A%A8%E7%89%A9%E8%AF%8A%E6%89%80&src=vetmap&coordinate=gaode&callnative=1","route_id":"r1","route_name":"第1段"},{"name":"赤峰农牧学校附属动物医院","address":"农研南路8号赤峰农牧学校","phone":"13947612226","category":"医疗保健服务;动物医疗场所;兽医站|医疗保健服务;动物医疗场所;宠物诊所","area":"","lng":118.876727,"lat":42.294962,"amap_id":"B0FFF4AAB1","order":28,"prev_distance_km":1.069,"cumulative_distance_km":150.495,"amap_marker_url":"https://uri.amap.com/marker?position=118.876727,42.294962&name=%E8%B5%A4%E5%B3%B0%E5%86%9C%E7%89%A7%E5%AD%A6%E6%A0%A1%E9%99%84%E5%B1%9E%E5%8A%A8%E7%89%A9%E5%8C%BB%E9%99%A2&src=vetmap&coordinate=gaode&callnative=1","route_id":"r1","route_name":"第1段"},{"name":"伴宁动物医院中心","address":"书香庭院B区商厅1-112","phone":"13555587616;15547665305;18847669207","category":"医疗保健服务;动物医疗场所;宠物诊所","area":"","lng":118.905338,"lat":42.303332,"amap_id":"B0K1T7X994","order":29,"prev_distance_km":2.53,"cumulative_distance_km":153.026,"amap_marker_url":"https://uri.amap.com/marker?position=118.905338,42.303332&name=%E4%BC%B4%E5%AE%81%E5%8A%A8%E7%89%A9%E5%8C%BB%E9%99%A2%E4%B8%AD%E5%BF%83&src=vetmap&coordinate=gaode&callnative=1","route_id":"r1","route_name":"第1段"},{"name":"辛芭蒂宠物诊所(皇家丽景店)","address":"皇家丽景1号楼临街底商","phone":"15047639649","category":"医疗保健服务;动物医疗场所;宠物诊所","area":"","lng":118.923388,"lat":42.303084,"amap_id":"B0FFMH8ARA","order":30,"prev_distance_km":1.485,"cumulative_distance_km":154.51,"amap_marker_url":"https://uri.amap.com/marker?position=118.923388,42.303084&name=%E8%BE%9B%E8%8A%AD%E8%92%82%E5%AE%A0%E7%89%A9%E8%AF%8A%E6%89%80%28%E7%9A%87%E5%AE%B6%E4%B8%BD%E6%99%AF%E5%BA%97%29&src=vetmap&coordinate=gaode&callnative=1","route_id":"r1","route_name":"第1段"},{"name":"双子宠物诊疗中心(万达广场店)","address":"百柳路万达广场东侧5-134","phone":"19104760120","category":"医疗保健服务;动物医疗场所;宠物诊所","area":"","lng":118.917447,"lat":42.295058,"amap_id":"B0KRACDD1N","order":31,"prev_distance_km":1.017,"cumulative_distance_km":155.528,"amap_marker_url":"https://uri.amap.com/marker?position=118.917447,42.295058&name=%E5%8F%8C%E5%AD%90%E5%AE%A0%E7%89%A9%E8%AF%8A%E7%96%97%E4%B8%AD%E5%BF%83%28%E4%B8%87%E8%BE%BE%E5%B9%BF%E5%9C%BA%E5%BA%97%29&src=vetmap&coordinate=gaode&callnative=1","route_id":"r1","route_name":"第1段"},{"name":"辛蒂宠物医院","address":"金御华府A区西北2门旁","phone":"18204886417","category":"医疗保健服务;动物医疗场所;宠物诊所","area":"","lng":118.926377,"lat":42.291015,"amap_id":"B0FFIY84GF","order":32,"prev_distance_km":0.861,"cumulative_distance_km":156.389,"amap_marker_url":"https://uri.amap.com/marker?position=118.926377,42.291015&name=%E8%BE%9B%E8%92%82%E5%AE%A0%E7%89%A9%E5%8C%BB%E9%99%A2&src=vetmap&coordinate=gaode&callnative=1","route_id":"r1","route_name":"第1段"},{"name":"麦兜兜宠物诊所","address":"金御华城西门星奢酒店一部对面","phone":"13847610606","category":"医疗保健服务;动物医疗场所;宠物诊所","area":"迎金路","lng":118.916972,"lat":42.291163,"amap_id":"B0JRJSGK08","order":33,"prev_distance_km":0.774,"cumulative_distance_km":157.163,"amap_marker_url":"https://uri.amap.com/marker?position=118.916972,42.291163&name=%E9%BA%A6%E5%85%9C%E5%85%9C%E5%AE%A0%E7%89%A9%E8%AF%8A%E6%89%80&src=vetmap&coordinate=gaode&callnative=1","route_id":"r1","route_name":"第1段"},{"name":"禧宠宠物用品店","address":"航安金和城","phone":"15004879790","category":"医疗保健服务;动物医疗场所;宠物诊所","area":"","lng":118.912782,"lat":42.28219,"amap_id":"B0JUYRXAPL","order":34,"prev_distance_km":1.056,"cumulative_distance_km":158.218,"amap_marker_url":"https://uri.amap.com/marker?position=118.912782,42.282190&name=%E7%A6%A7%E5%AE%A0%E5%AE%A0%E7%89%A9%E7%94%A8%E5%93%81%E5%BA%97&src=vetmap&coordinate=gaode&callnative=1","route_id":"r1","route_name":"第1段"},{"name":"赤峰禧宠会馆·转诊中心·犬猫专科(航安金和城店)","address":"契丹大街与松州路交叉口西南240米","phone":"","category":"医疗保健服务;动物医疗场所;宠物诊所","area":"","lng":118.912675,"lat":42.282125,"amap_id":"B0K3UDO45E","order":35,"prev_distance_km":0.011,"cumulative_distance_km":158.23,"amap_marker_url":"https://uri.amap.com/marker?position=118.912675,42.282125&name=%E8%B5%A4%E5%B3%B0%E7%A6%A7%E5%AE%A0%E4%BC%9A%E9%A6%86%C2%B7%E8%BD%AC%E8%AF%8A%E4%B8%AD%E5%BF%83%C2%B7%E7%8A%AC%E7%8C%AB%E4%B8%93%E7%A7%91%28%E8%88%AA%E5%AE%89%E9%87%91%E5%92%8C%E5%9F%8E%E5%BA%97%29&src=vetmap&coordinate=gaode&callnative=1","route_id":"r1","route_name":"第1段"},{"name":"诺安宠物诊所","address":"乌丹路与王府大街交叉口东南100米","phone":"","category":"医疗保健服务;动物医疗场所;宠物诊所","area":"","lng":118.897363,"lat":42.270649,"amap_id":"B0JB1MED41","order":36,"prev_distance_km":1.793,"cumulative_distance_km":160.023,"amap_marker_url":"https://uri.amap.com/marker?position=118.897363,42.270649&name=%E8%AF%BA%E5%AE%89%E5%AE%A0%E7%89%A9%E8%AF%8A%E6%89%80&src=vetmap&coordinate=gaode&callnative=1","route_id":"r1","route_name":"第1段"},{"name":"艺泽宠物医院(水榭花都店)","address":"平双公路西水榭花都A区玉龙大街北侧金日怡景8号楼","phone":"0476-8263258","category":"医疗保健服务;动物医疗场所;宠物诊所","area":"","lng":118.907354,"lat":42.269268,"amap_id":"B0G2L7LR9N","order":37,"prev_distance_km":0.836,"cumulative_distance_km":160.859,"amap_marker_url":"https://uri.amap.com/marker?position=118.907354,42.269268&name=%E8%89%BA%E6%B3%BD%E5%AE%A0%E7%89%A9%E5%8C%BB%E9%99%A2%28%E6%B0%B4%E6%A6%AD%E8%8A%B1%E9%83%BD%E5%BA%97%29&src=vetmap&coordinate=gaode&callnative=1","route_id":"r1","route_name":"第1段"},{"name":"瑞派宠物医院(水榭花都店)","address":"腾飞大道辅路与下洼子南街交叉口东南180米","phone":"","category":"医疗保健服务;动物医疗场所;宠物诊所","area":"","lng":118.90738,"lat":42.26913,"amap_id":"B0JG3DYLMZ","order":38,"prev_distance_km":0.015,"cumulative_distance_km":160.875,"amap_marker_url":"https://uri.amap.com/marker?position=118.907380,42.269130&name=%E7%91%9E%E6%B4%BE%E5%AE%A0%E7%89%A9%E5%8C%BB%E9%99%A2%28%E6%B0%B4%E6%A6%AD%E8%8A%B1%E9%83%BD%E5%BA%97%29&src=vetmap&coordinate=gaode&callnative=1","route_id":"r1","route_name":"第1段"},{"name":"于德生兽医门诊","address":"振兴大街130-7号","phone":"0476-8425339","category":"医疗保健服务;动物医疗场所;兽医站","area":"木兰街","lng":118.917927,"lat":42.269037,"amap_id":"B01DC00FKY","order":39,"prev_distance_km":0.868,"cumulative_distance_km":161.742,"amap_marker_url":"https://uri.amap.com/marker?position=118.917927,42.269037&name=%E4%BA%8E%E5%BE%B7%E7%94%9F%E5%85%BD%E5%8C%BB%E9%97%A8%E8%AF%8A&src=vetmap&coordinate=gaode&callnative=1","route_id":"r1","route_name":"第1段"},{"name":"苏慧兽医门诊(振兴大街)","address":"振兴大街西段警察学校楼下","phone":"13354761889","category":"医疗保健服务;动物医疗场所;兽医站","area":"木兰街","lng":118.918846,"lat":42.268997,"amap_id":"B0FFH0NVTA","order":40,"prev_distance_km":0.076,"cumulative_distance_km":161.818,"amap_marker_url":"https://uri.amap.com/marker?position=118.918846,42.268997&name=%E8%8B%8F%E6%85%A7%E5%85%BD%E5%8C%BB%E9%97%A8%E8%AF%8A%28%E6%8C%AF%E5%85%B4%E5%A4%A7%E8%A1%97%29&src=vetmap&coordinate=gaode&callnative=1","route_id":"r1","route_name":"第1段"},{"name":"李帅宠物诊所","address":"临潢大街亲情文大院西52-3李帅宠物诊所","phone":"13204765705","category":"医疗保健服务;动物医疗场所;宠物诊所","area":"","lng":118.932736,"lat":42.271853,"amap_id":"B0L2TU42P3","order":41,"prev_distance_km":1.186,"cumulative_distance_km":163.004,"amap_marker_url":"https://uri.amap.com/marker?position=118.932736,42.271853&name=%E6%9D%8E%E5%B8%85%E5%AE%A0%E7%89%A9%E8%AF%8A%E6%89%80&src=vetmap&coordinate=gaode&callnative=1","route_id":"r1","route_name":"第1段"},{"name":"宠爱天下宠物医院","address":"临河小区东门旁","phone":"13848666015","category":"医疗保健服务;动物医疗场所;宠物诊所","area":"木兰街","lng":118.94493,"lat":42.282461,"amap_id":"B0FFF4LT8A","order":42,"prev_distance_km":1.548,"cumulative_distance_km":164.553,"amap_marker_url":"https://uri.amap.com/marker?position=118.944930,42.282461&name=%E5%AE%A0%E7%88%B1%E5%A4%A9%E4%B8%8B%E5%AE%A0%E7%89%A9%E5%8C%BB%E9%99%A2&src=vetmap&coordinate=gaode&callnative=1","route_id":"r1","route_name":"第1段"},{"name":"陈素云兽医门诊","address":"夏家店乡山水坡","phone":"15334765507","category":"医疗保健服务;动物医疗场所;兽医站","area":"","lng":119.186773,"lat":42.373045,"amap_id":"B0FFFGZL3B","order":43,"prev_distance_km":22.287,"cumulative_distance_km":186.84,"amap_marker_url":"https://uri.amap.com/marker?position=119.186773,42.373045&name=%E9%99%88%E7%B4%A0%E4%BA%91%E5%85%BD%E5%8C%BB%E9%97%A8%E8%AF%8A&src=vetmap&coordinate=gaode&callnative=1","route_id":"r1","route_name":"第1段"},{"name":"牧康兽医门诊","address":"111国道与山鸡线交叉口东北240米","phone":"","category":"医疗保健服务;动物医疗场所;兽医站","area":"","lng":119.187525,"lat":42.373875,"amap_id":"B0LDY6L0B1","order":44,"prev_distance_km":0.111,"cumulative_distance_km":186.951,"amap_marker_url":"https://uri.amap.com/marker?position=119.187525,42.373875&name=%E7%89%A7%E5%BA%B7%E5%85%BD%E5%8C%BB%E9%97%A8%E8%AF%8A&src=vetmap&coordinate=gaode&callnative=1","route_id":"r1","route_name":"第1段"},{"name":"杜全兽医门诊","address":"夏家店乡金娃娃幼儿园附近","phone":"13294761061","category":"医疗保健服务;动物医疗场所;兽医站","area":"","lng":119.188091,"lat":42.374278,"amap_id":"B0FFFGZHU8","order":45,"prev_distance_km":0.065,"cumulative_distance_km":187.016,"amap_marker_url":"https://uri.amap.com/marker?position=119.188091,42.374278&name=%E6%9D%9C%E5%85%A8%E5%85%BD%E5%8C%BB%E9%97%A8%E8%AF%8A&src=vetmap&coordinate=gaode&callnative=1","route_id":"r1","route_name":"第1段"},{"name":"隋鸿宇兽医诊所","address":"小北营子11号","phone":"","category":"医疗保健服务;动物医疗场所;兽医站","area":"","lng":119.337724,"lat":42.429735,"amap_id":"B0K3FCOOU1","order":46,"prev_distance_km":13.747,"cumulative_distance_km":200.763,"amap_marker_url":"https://uri.amap.com/marker?position=119.337724,42.429735&name=%E9%9A%8B%E9%B8%BF%E5%AE%87%E5%85%BD%E5%8C%BB%E8%AF%8A%E6%89%80&src=vetmap&coordinate=gaode&callnative=1","route_id":"r1","route_name":"第1段"}]}],"rows":[{"name":"陈建伟兽药店","address":"赤朝线","phone":"18647680105","category":"医疗保健服务;动物医疗场所;动物医疗场所","area":"","lng":118.575047,"lat":42.107794,"amap_id":"B0LKOSFLMA","order":1,"prev_distance_km":0.0,"cumulative_distance_km":0.0,"amap_marker_url":"https://uri.amap.com/marker?position=118.575047,42.107794&name=%E9%99%88%E5%BB%BA%E4%BC%9F%E5%85%BD%E8%8D%AF%E5%BA%97&src=vetmap&coordinate=gaode&callnative=1","route_id":"r1","route_name":"第1段","global_order":1},{"name":"松山区张建军兽医诊所","address":"老府镇老府村六组72号","phone":"13722146658","category":"医疗保健服务;动物医疗场所;兽医站","area":"","lng":118.26123,"lat":42.183825,"amap_id":"B0L1NHWTC8","order":2,"prev_distance_km":27.219,"cumulative_distance_km":27.219,"amap_marker_url":"https://uri.amap.com/marker?position=118.261230,42.183825&name=%E6%9D%BE%E5%B1%B1%E5%8C%BA%E5%BC%A0%E5%BB%BA%E5%86%9B%E5%85%BD%E5%8C%BB%E8%AF%8A%E6%89%80&src=vetmap&coordinate=gaode&callnative=1","route_id":"r1","route_name":"第1段","global_order":2},{"name":"立国兽医诊所","address":"大庙小学东侧100米","phone":"","category":"医疗保健服务;动物医疗场所;兽医站","area":"","lng":118.299325,"lat":42.390625,"amap_id":"B0M6Y7T62Q","order":3,"prev_distance_km":23.208,"cumulative_distance_km":50.426,"amap_marker_url":"https://uri.amap.com/marker?position=118.299325,42.390625&name=%E7%AB%8B%E5%9B%BD%E5%85%BD%E5%8C%BB%E8%AF%8A%E6%89%80&src=vetmap&coordinate=gaode&callnative=1","route_id":"r1","route_name":"第1段","global_order":3},{"name":"杨天楠兽医门诊","address":"大庙街","phone":"18748059000","category":"医疗保健服务;动物医疗场所;兽医站","area":"","lng":118.299255,"lat":42.393024,"amap_id":"B0JD55C7MC","order":4,"prev_distance_km":0.267,"cumulative_distance_km":50.693,"amap_marker_url":"https://uri.amap.com/marker?position=118.299255,42.393024&name=%E6%9D%A8%E5%A4%A9%E6%A5%A0%E5%85%BD%E5%8C%BB%E9%97%A8%E8%AF%8A&src=vetmap&coordinate=gaode&callnative=1","route_id":"r1","route_name":"第1段","global_order":4},{"name":"兽医兽药","address":"经山线与219省道交叉口东南180米","phone":"","category":"医疗保健服务;动物医疗场所;动物医疗场所","area":"","lng":118.299481,"lat":42.394089,"amap_id":"B0KAAXDYPT","order":5,"prev_distance_km":0.12,"cumulative_distance_km":50.813,"amap_marker_url":"https://uri.amap.com/marker?position=118.299481,42.394089&name=%E5%85%BD%E5%8C%BB%E5%85%BD%E8%8D%AF&src=vetmap&coordinate=gaode&callnative=1","route_id":"r1","route_name":"第1段","global_order":5},{"name":"王珍兽医门诊","address":"经山线与219省道交叉口南180米","phone":"","category":"医疗保健服务;动物医疗场所;兽医站","area":"","lng":118.298578,"lat":42.394165,"amap_id":"B0G2KPSIWS","order":6,"prev_distance_km":0.075,"cumulative_distance_km":50.888,"amap_marker_url":"https://uri.amap.com/marker?position=118.298578,42.394165&name=%E7%8E%8B%E7%8F%8D%E5%85%BD%E5%8C%BB%E9%97%A8%E8%AF%8A&src=vetmap&coordinate=gaode&callnative=1","route_id":"r1","route_name":"第1段","global_order":6},{"name":"占荣兽医门诊","address":"娘十段","phone":"15147602380","category":"医疗保健服务;动物医疗场所;兽医站","area":"","lng":118.19353,"lat":42.448864,"amap_id":"B0G3LAFQBH","order":7,"prev_distance_km":10.552,"cumulative_distance_km":61.44,"amap_marker_url":"https://uri.amap.com/marker?position=118.193530,42.448864&name=%E5%8D%A0%E8%8D%A3%E5%85%BD%E5%8C%BB%E9%97%A8%E8%AF%8A&src=vetmap&coordinate=gaode&callnative=1","route_id":"r1","route_name":"第1段","global_order":7},{"name":"赵云龙兽医门诊","address":"娘十段","phone":"","category":"医疗保健服务;动物医疗场所;兽医站","area":"","lng":118.195542,"lat":42.448942,"amap_id":"B0HBRP3DUY","order":8,"prev_distance_km":0.165,"cumulative_distance_km":61.605,"amap_marker_url":"https://uri.amap.com/marker?position=118.195542,42.448942&name=%E8%B5%B5%E4%BA%91%E9%BE%99%E5%85%BD%E5%8C%BB%E9%97%A8%E8%AF%8A&src=vetmap&coordinate=gaode&callnative=1","route_id":"r1","route_name":"第1段","global_order":8},{"name":"小田兽医综合门诊","address":"206县道","phone":"","category":"医疗保健服务;动物医疗场所;兽医站","area":"","lng":118.407302,"lat":42.563989,"amap_id":"B0LRD77853","order":9,"prev_distance_km":21.563,"cumulative_distance_km":83.168,"amap_marker_url":"https://uri.amap.com/marker?position=118.407302,42.563989&name=%E5%B0%8F%E7%94%B0%E5%85%BD%E5%8C%BB%E7%BB%BC%E5%90%88%E9%97%A8%E8%AF%8A&src=vetmap&coordinate=gaode&callnative=1","route_id":"r1","route_name":"第1段","global_order":9},{"name":"满术国兽医门诊","address":"岗子乡岗子卫生院斜对面","phone":"15144765365","category":"医疗保健服务;动物医疗场所;兽医站","area":"","lng":118.412971,"lat":42.563485,"amap_id":"B0K16UQOWK","order":10,"prev_distance_km":0.468,"cumulative_distance_km":83.636,"amap_marker_url":"https://uri.amap.com/marker?position=118.412971,42.563485&name=%E6%BB%A1%E6%9C%AF%E5%9B%BD%E5%85%BD%E5%8C%BB%E9%97%A8%E8%AF%8A&src=vetmap&coordinate=gaode&callnative=1","route_id":"r1","route_name":"第1段","global_order":10},{"name":"立华兽药门店","address":"上官地镇大五十家子村退役军人服务站东南侧150米","phone":"","category":"购物服务;购物相关场所;购物相关场所|医疗保健服务;动物医疗场所;动物医疗场所","area":"","lng":118.565979,"lat":42.548106,"amap_id":"B0K2R46IU1","order":11,"prev_distance_km":12.649,"cumulative_distance_km":96.285,"amap_marker_url":"https://uri.amap.com/marker?position=118.565979,42.548106&name=%E7%AB%8B%E5%8D%8E%E5%85%BD%E8%8D%AF%E9%97%A8%E5%BA%97&src=vetmap&coordinate=gaode&callnative=1","route_id":"r1","route_name":"第1段","global_order":11},{"name":"牧哲动保兽医门诊","address":"上官地镇山嘴村","phone":"","category":"医疗保健服务;动物医疗场所;兽医站","area":"","lng":118.654392,"lat":42.521549,"amap_id":"B0KDSMUBK5","order":12,"prev_distance_km":7.823,"cumulative_distance_km":104.108,"amap_marker_url":"https://uri.amap.com/marker?position=118.654392,42.521549&name=%E7%89%A7%E5%93%B2%E5%8A%A8%E4%BF%9D%E5%85%BD%E5%8C%BB%E9%97%A8%E8%AF%8A&src=vetmap&coordinate=gaode&callnative=1","route_id":"r1","route_name":"第1段","global_order":12},{"name":"岳记兽药店","address":"焦张线与206省道交叉口东340米","phone":"","category":"医疗保健服务;动物医疗场所;动物医疗场所","area":"","lng":118.705375,"lat":42.491575,"amap_id":"B0LRC4DGO2","order":13,"prev_distance_km":5.346,"cumulative_distance_km":109.453,"amap_marker_url":"https://uri.amap.com/marker?position=118.705375,42.491575&name=%E5%B2%B3%E8%AE%B0%E5%85%BD%E8%8D%AF%E5%BA%97&src=vetmap&coordinate=gaode&callnative=1","route_id":"r1","route_name":"第1段","global_order":13},{"name":"兽医门诊农汽配件","address":"关家营新型社区东北门东150米","phone":"","category":"医疗保健服务;动物医疗场所;兽医站","area":"","lng":118.807596,"lat":42.370716,"amap_id":"B0G3LZFY6Z","order":14,"prev_distance_km":15.843,"cumulative_distance_km":125.296,"amap_marker_url":"https://uri.amap.com/marker?position=118.807596,42.370716&name=%E5%85%BD%E5%8C%BB%E9%97%A8%E8%AF%8A%E5%86%9C%E6%B1%BD%E9%85%8D%E4%BB%B6&src=vetmap&coordinate=gaode&callnative=1","route_id":"r1","route_name":"第1段","global_order":14},{"name":"李峰动物诊所","address":"穆家营子镇大西牛村大药房对面","phone":"13847690786","category":"医疗保健服务;动物医疗场所;宠物诊所","area":"","lng":118.82373,"lat":42.274355,"amap_id":"B0FFG71UKP","order":15,"prev_distance_km":10.797,"cumulative_distance_km":136.093,"amap_marker_url":"https://uri.amap.com/marker?position=118.823730,42.274355&name=%E6%9D%8E%E5%B3%B0%E5%8A%A8%E7%89%A9%E8%AF%8A%E6%89%80&src=vetmap&coordinate=gaode&callnative=1","route_id":"r1","route_name":"第1段","global_order":15},{"name":"康贝宠物医院(新惠路店)","address":"玉龙街道成龙嘉园小区八号楼2-101商厅","phone":"15248617509","category":"医疗保健服务;动物医疗场所;宠物诊所","area":"","lng":118.874271,"lat":42.2624,"amap_id":"B0LGYD2A7P","order":16,"prev_distance_km":4.366,"cumulative_distance_km":140.459,"amap_marker_url":"https://uri.amap.com/marker?position=118.874271,42.262400&name=%E5%BA%B7%E8%B4%9D%E5%AE%A0%E7%89%A9%E5%8C%BB%E9%99%A2%28%E6%96%B0%E6%83%A0%E8%B7%AF%E5%BA%97%29&src=vetmap&coordinate=gaode&callnative=1","route_id":"r1","route_name":"第1段","global_order":16},{"name":"瑞派·艺泽连锁乐园动物医院(新城店)","address":"富兴嘉城B区19号楼02012厅","phone":"0476-8225517;15247663433","category":"医疗保健服务;动物医疗场所;宠物诊所","area":"临潢大街","lng":118.886958,"lat":42.242504,"amap_id":"B0L6ZR2TO5","order":17,"prev_distance_km":2.446,"cumulative_distance_km":142.905,"amap_marker_url":"https://uri.amap.com/marker?position=118.886958,42.242504&name=%E7%91%9E%E6%B4%BE%C2%B7%E8%89%BA%E6%B3%BD%E8%BF%9E%E9%94%81%E4%B9%90%E5%9B%AD%E5%8A%A8%E7%89%A9%E5%8C%BB%E9%99%A2%28%E6%96%B0%E5%9F%8E%E5%BA%97%29&src=vetmap&coordinate=gaode&callnative=1","route_id":"r1","route_name":"第1段","global_order":17},{"name":"欣生动物医院","address":"临潢大街83号","phone":"","category":"医疗保健服务;动物医疗场所;宠物诊所","area":"临潢大街","lng":118.887063,"lat":42.242537,"amap_id":"B0L2B7LPUK","order":18,"prev_distance_km":0.009,"cumulative_distance_km":142.914,"amap_marker_url":"https://uri.amap.com/marker?position=118.887063,42.242537&name=%E6%AC%A3%E7%94%9F%E5%8A%A8%E7%89%A9%E5%8C%BB%E9%99%A2&src=vetmap&coordinate=gaode&callnative=1","route_id":"r1","route_name":"第1段","global_order":18},{"name":"利宠康动物诊所","address":"富和园八区天义路侧商厅","phone":"18647160460","category":"医疗保健服务;动物医疗场所;宠物诊所","area":"临潢大街","lng":118.896399,"lat":42.244794,"amap_id":"B0JGFUGXGH","order":19,"prev_distance_km":0.808,"cumulative_distance_km":143.723,"amap_marker_url":"https://uri.amap.com/marker?position=118.896399,42.244794&name=%E5%88%A9%E5%AE%A0%E5%BA%B7%E5%8A%A8%E7%89%A9%E8%AF%8A%E6%89%80&src=vetmap&coordinate=gaode&callnative=1","route_id":"r1","route_name":"第1段","global_order":19},{"name":"淇心·相伴宠物医院","address":"玉龙街道亚兴国际公寓2号3号楼03012商厅","phone":"0476-5955580","category":"医疗保健服务;动物医疗场所;宠物诊所","area":"临潢大街","lng":118.895801,"lat":42.254168,"amap_id":"B0LUNS4BFL","order":20,"prev_distance_km":1.044,"cumulative_distance_km":144.766,"amap_marker_url":"https://uri.amap.com/marker?position=118.895801,42.254168&name=%E6%B7%87%E5%BF%83%C2%B7%E7%9B%B8%E4%BC%B4%E5%AE%A0%E7%89%A9%E5%8C%BB%E9%99%A2&src=vetmap&coordinate=gaode&callnative=1","route_id":"r1","route_name":"第1段","global_order":20},{"name":"优家宠物","address":"玉龙街道王府花园一期东北门南侧第三个商厅","phone":"18747678731","category":"医疗保健服务;动物医疗场所;动物医疗场所","area":"","lng":118.890695,"lat":42.263348,"amap_id":"B0L1VZB12G","order":21,"prev_distance_km":1.104,"cumulative_distance_km":145.87,"amap_marker_url":"https://uri.amap.com/marker?position=118.890695,42.263348&name=%E4%BC%98%E5%AE%B6%E5%AE%A0%E7%89%A9&src=vetmap&coordinate=gaode&callnative=1","route_id":"r1","route_name":"第1段","global_order":21},{"name":"元吉动物医院","address":"王府大街宝山路35-1号","phone":"17604762324","category":"医疗保健服务;动物医疗场所;宠物诊所","area":"","lng":118.889007,"lat":42.264991,"amap_id":"B0FFKBCPFO","order":22,"prev_distance_km":0.23,"cumulative_distance_km":146.1,"amap_marker_url":"https://uri.amap.com/marker?position=118.889007,42.264991&name=%E5%85%83%E5%90%89%E5%8A%A8%E7%89%A9%E5%8C%BB%E9%99%A2&src=vetmap&coordinate=gaode&callnative=1","route_id":"r1","route_name":"第1段","global_order":22},{"name":"乖乐园宠物医院","address":"王府花园二期1号楼2号楼侧厅","phone":"13848989179","category":"医疗保健服务;动物医疗场所;宠物诊所","area":"","lng":118.883299,"lat":42.265655,"amap_id":"B0FFKIVHPC","order":23,"prev_distance_km":0.475,"cumulative_distance_km":146.575,"amap_marker_url":"https://uri.amap.com/marker?position=118.883299,42.265655&name=%E4%B9%96%E4%B9%90%E5%9B%AD%E5%AE%A0%E7%89%A9%E5%8C%BB%E9%99%A2&src=vetmap&coordinate=gaode&callnative=1","route_id":"r1","route_name":"第1段","global_order":23},{"name":"凯尔宠物诊所","address":"长安小区东北门西北110米","phone":"18647677287","category":"医疗保健服务;动物医疗场所;宠物诊所","area":"","lng":118.884418,"lat":42.270135,"amap_id":"B0G23ZDQZI","order":24,"prev_distance_km":0.507,"cumulative_distance_km":147.082,"amap_marker_url":"https://uri.amap.com/marker?position=118.884418,42.270135&name=%E5%87%AF%E5%B0%94%E5%AE%A0%E7%89%A9%E8%AF%8A%E6%89%80&src=vetmap&coordinate=gaode&callnative=1","route_id":"r1","route_name":"第1段","global_order":24},{"name":"旺德福宠物","address":"科海明珠一期G41-102","phone":"15547666781;15547676781","category":"医疗保健服务;动物医疗场所;动物医疗场所","area":"","lng":118.887704,"lat":42.286682,"amap_id":"B0L0DAMFJX","order":25,"prev_distance_km":1.86,"cumulative_distance_km":148.941,"amap_marker_url":"https://uri.amap.com/marker?position=118.887704,42.286682&name=%E6%97%BA%E5%BE%B7%E7%A6%8F%E5%AE%A0%E7%89%A9&src=vetmap&coordinate=gaode&callnative=1","route_id":"r1","route_name":"第1段","global_order":25},{"name":"辛瑞蒂宠物诊所","address":"科海明珠对面物资小区B1105号厅","phone":"18847678031","category":"医疗保健服务;动物医疗场所;宠物诊所","area":"","lng":118.88447,"lat":42.285377,"amap_id":"B0LBTU0CCV","order":26,"prev_distance_km":0.303,"cumulative_distance_km":149.244,"amap_marker_url":"https://uri.amap.com/marker?position=118.884470,42.285377&name=%E8%BE%9B%E7%91%9E%E8%92%82%E5%AE%A0%E7%89%A9%E8%AF%8A%E6%89%80&src=vetmap&coordinate=gaode&callnative=1","route_id":"r1","route_name":"第1段","global_order":26},{"name":"宠驿动物诊所","address":"物资小区C3-102厅","phone":"15849633384;18304760892","category":"医疗保健服务;动物医疗场所;宠物诊所","area":"","lng":118.882837,"lat":42.286482,"amap_id":"B0HGFD5O6I","order":27,"prev_distance_km":0.182,"cumulative_distance_km":149.427,"amap_marker_url":"https://uri.amap.com/marker?position=118.882837,42.286482&name=%E5%AE%A0%E9%A9%BF%E5%8A%A8%E7%89%A9%E8%AF%8A%E6%89%80&src=vetmap&coordinate=gaode&callnative=1","route_id":"r1","route_name":"第1段","global_order":27},{"name":"赤峰农牧学校附属动物医院","address":"农研南路8号赤峰农牧学校","phone":"13947612226","category":"医疗保健服务;动物医疗场所;兽医站|医疗保健服务;动物医疗场所;宠物诊所","area":"","lng":118.876727,"lat":42.294962,"amap_id":"B0FFF4AAB1","order":28,"prev_distance_km":1.069,"cumulative_distance_km":150.495,"amap_marker_url":"https://uri.amap.com/marker?position=118.876727,42.294962&name=%E8%B5%A4%E5%B3%B0%E5%86%9C%E7%89%A7%E5%AD%A6%E6%A0%A1%E9%99%84%E5%B1%9E%E5%8A%A8%E7%89%A9%E5%8C%BB%E9%99%A2&src=vetmap&coordinate=gaode&callnative=1","route_id":"r1","route_name":"第1段","global_order":28},{"name":"伴宁动物医院中心","address":"书香庭院B区商厅1-112","phone":"13555587616;15547665305;18847669207","category":"医疗保健服务;动物医疗场所;宠物诊所","area":"","lng":118.905338,"lat":42.303332,"amap_id":"B0K1T7X994","order":29,"prev_distance_km":2.53,"cumulative_distance_km":153.026,"amap_marker_url":"https://uri.amap.com/marker?position=118.905338,42.303332&name=%E4%BC%B4%E5%AE%81%E5%8A%A8%E7%89%A9%E5%8C%BB%E9%99%A2%E4%B8%AD%E5%BF%83&src=vetmap&coordinate=gaode&callnative=1","route_id":"r1","route_name":"第1段","global_order":29},{"name":"辛芭蒂宠物诊所(皇家丽景店)","address":"皇家丽景1号楼临街底商","phone":"15047639649","category":"医疗保健服务;动物医疗场所;宠物诊所","area":"","lng":118.923388,"lat":42.303084,"amap_id":"B0FFMH8ARA","order":30,"prev_distance_km":1.485,"cumulative_distance_km":154.51,"amap_marker_url":"https://uri.amap.com/marker?position=118.923388,42.303084&name=%E8%BE%9B%E8%8A%AD%E8%92%82%E5%AE%A0%E7%89%A9%E8%AF%8A%E6%89%80%28%E7%9A%87%E5%AE%B6%E4%B8%BD%E6%99%AF%E5%BA%97%29&src=vetmap&coordinate=gaode&callnative=1","route_id":"r1","route_name":"第1段","global_order":30},{"name":"双子宠物诊疗中心(万达广场店)","address":"百柳路万达广场东侧5-134","phone":"19104760120","category":"医疗保健服务;动物医疗场所;宠物诊所","area":"","lng":118.917447,"lat":42.295058,"amap_id":"B0KRACDD1N","order":31,"prev_distance_km":1.017,"cumulative_distance_km":155.528,"amap_marker_url":"https://uri.amap.com/marker?position=118.917447,42.295058&name=%E5%8F%8C%E5%AD%90%E5%AE%A0%E7%89%A9%E8%AF%8A%E7%96%97%E4%B8%AD%E5%BF%83%28%E4%B8%87%E8%BE%BE%E5%B9%BF%E5%9C%BA%E5%BA%97%29&src=vetmap&coordinate=gaode&callnative=1","route_id":"r1","route_name":"第1段","global_order":31},{"name":"辛蒂宠物医院","address":"金御华府A区西北2门旁","phone":"18204886417","category":"医疗保健服务;动物医疗场所;宠物诊所","area":"","lng":118.926377,"lat":42.291015,"amap_id":"B0FFIY84GF","order":32,"prev_distance_km":0.861,"cumulative_distance_km":156.389,"amap_marker_url":"https://uri.amap.com/marker?position=118.926377,42.291015&name=%E8%BE%9B%E8%92%82%E5%AE%A0%E7%89%A9%E5%8C%BB%E9%99%A2&src=vetmap&coordinate=gaode&callnative=1","route_id":"r1","route_name":"第1段","global_order":32},{"name":"麦兜兜宠物诊所","address":"金御华城西门星奢酒店一部对面","phone":"13847610606","category":"医疗保健服务;动物医疗场所;宠物诊所","area":"迎金路","lng":118.916972,"lat":42.291163,"amap_id":"B0JRJSGK08","order":33,"prev_distance_km":0.774,"cumulative_distance_km":157.163,"amap_marker_url":"https://uri.amap.com/marker?position=118.916972,42.291163&name=%E9%BA%A6%E5%85%9C%E5%85%9C%E5%AE%A0%E7%89%A9%E8%AF%8A%E6%89%80&src=vetmap&coordinate=gaode&callnative=1","route_id":"r1","route_name":"第1段","global_order":33},{"name":"禧宠宠物用品店","address":"航安金和城","phone":"15004879790","category":"医疗保健服务;动物医疗场所;宠物诊所","area":"","lng":118.912782,"lat":42.28219,"amap_id":"B0JUYRXAPL","order":34,"prev_distance_km":1.056,"cumulative_distance_km":158.218,"amap_marker_url":"https://uri.amap.com/marker?position=118.912782,42.282190&name=%E7%A6%A7%E5%AE%A0%E5%AE%A0%E7%89%A9%E7%94%A8%E5%93%81%E5%BA%97&src=vetmap&coordinate=gaode&callnative=1","route_id":"r1","route_name":"第1段","global_order":34},{"name":"赤峰禧宠会馆·转诊中心·犬猫专科(航安金和城店)","address":"契丹大街与松州路交叉口西南240米","phone":"","category":"医疗保健服务;动物医疗场所;宠物诊所","area":"","lng":118.912675,"lat":42.282125,"amap_id":"B0K3UDO45E","order":35,"prev_distance_km":0.011,"cumulative_distance_km":158.23,"amap_marker_url":"https://uri.amap.com/marker?position=118.912675,42.282125&name=%E8%B5%A4%E5%B3%B0%E7%A6%A7%E5%AE%A0%E4%BC%9A%E9%A6%86%C2%B7%E8%BD%AC%E8%AF%8A%E4%B8%AD%E5%BF%83%C2%B7%E7%8A%AC%E7%8C%AB%E4%B8%93%E7%A7%91%28%E8%88%AA%E5%AE%89%E9%87%91%E5%92%8C%E5%9F%8E%E5%BA%97%29&src=vetmap&coordinate=gaode&callnative=1","route_id":"r1","route_name":"第1段","global_order":35},{"name":"诺安宠物诊所","address":"乌丹路与王府大街交叉口东南100米","phone":"","category":"医疗保健服务;动物医疗场所;宠物诊所","area":"","lng":118.897363,"lat":42.270649,"amap_id":"B0JB1MED41","order":36,"prev_distance_km":1.793,"cumulative_distance_km":160.023,"amap_marker_url":"https://uri.amap.com/marker?position=118.897363,42.270649&name=%E8%AF%BA%E5%AE%89%E5%AE%A0%E7%89%A9%E8%AF%8A%E6%89%80&src=vetmap&coordinate=gaode&callnative=1","route_id":"r1","route_name":"第1段","global_order":36},{"name":"艺泽宠物医院(水榭花都店)","address":"平双公路西水榭花都A区玉龙大街北侧金日怡景8号楼","phone":"0476-8263258","category":"医疗保健服务;动物医疗场所;宠物诊所","area":"","lng":118.907354,"lat":42.269268,"amap_id":"B0G2L7LR9N","order":37,"prev_distance_km":0.836,"cumulative_distance_km":160.859,"amap_marker_url":"https://uri.amap.com/marker?position=118.907354,42.269268&name=%E8%89%BA%E6%B3%BD%E5%AE%A0%E7%89%A9%E5%8C%BB%E9%99%A2%28%E6%B0%B4%E6%A6%AD%E8%8A%B1%E9%83%BD%E5%BA%97%29&src=vetmap&coordinate=gaode&callnative=1","route_id":"r1","route_name":"第1段","global_order":37},{"name":"瑞派宠物医院(水榭花都店)","address":"腾飞大道辅路与下洼子南街交叉口东南180米","phone":"","category":"医疗保健服务;动物医疗场所;宠物诊所","area":"","lng":118.90738,"lat":42.26913,"amap_id":"B0JG3DYLMZ","order":38,"prev_distance_km":0.015,"cumulative_distance_km":160.875,"amap_marker_url":"https://uri.amap.com/marker?position=118.907380,42.269130&name=%E7%91%9E%E6%B4%BE%E5%AE%A0%E7%89%A9%E5%8C%BB%E9%99%A2%28%E6%B0%B4%E6%A6%AD%E8%8A%B1%E9%83%BD%E5%BA%97%29&src=vetmap&coordinate=gaode&callnative=1","route_id":"r1","route_name":"第1段","global_order":38},{"name":"于德生兽医门诊","address":"振兴大街130-7号","phone":"0476-8425339","category":"医疗保健服务;动物医疗场所;兽医站","area":"木兰街","lng":118.917927,"lat":42.269037,"amap_id":"B01DC00FKY","order":39,"prev_distance_km":0.868,"cumulative_distance_km":161.742,"amap_marker_url":"https://uri.amap.com/marker?position=118.917927,42.269037&name=%E4%BA%8E%E5%BE%B7%E7%94%9F%E5%85%BD%E5%8C%BB%E9%97%A8%E8%AF%8A&src=vetmap&coordinate=gaode&callnative=1","route_id":"r1","route_name":"第1段","global_order":39},{"name":"苏慧兽医门诊(振兴大街)","address":"振兴大街西段警察学校楼下","phone":"13354761889","category":"医疗保健服务;动物医疗场所;兽医站","area":"木兰街","lng":118.918846,"lat":42.268997,"amap_id":"B0FFH0NVTA","order":40,"prev_distance_km":0.076,"cumulative_distance_km":161.818,"amap_marker_url":"https://uri.amap.com/marker?position=118.918846,42.268997&name=%E8%8B%8F%E6%85%A7%E5%85%BD%E5%8C%BB%E9%97%A8%E8%AF%8A%28%E6%8C%AF%E5%85%B4%E5%A4%A7%E8%A1%97%29&src=vetmap&coordinate=gaode&callnative=1","route_id":"r1","route_name":"第1段","global_order":40},{"name":"李帅宠物诊所","address":"临潢大街亲情文大院西52-3李帅宠物诊所","phone":"13204765705","category":"医疗保健服务;动物医疗场所;宠物诊所","area":"","lng":118.932736,"lat":42.271853,"amap_id":"B0L2TU42P3","order":41,"prev_distance_km":1.186,"cumulative_distance_km":163.004,"amap_marker_url":"https://uri.amap.com/marker?position=118.932736,42.271853&name=%E6%9D%8E%E5%B8%85%E5%AE%A0%E7%89%A9%E8%AF%8A%E6%89%80&src=vetmap&coordinate=gaode&callnative=1","route_id":"r1","route_name":"第1段","global_order":41},{"name":"宠爱天下宠物医院","address":"临河小区东门旁","phone":"13848666015","category":"医疗保健服务;动物医疗场所;宠物诊所","area":"木兰街","lng":118.94493,"lat":42.282461,"amap_id":"B0FFF4LT8A","order":42,"prev_distance_km":1.548,"cumulative_distance_km":164.553,"amap_marker_url":"https://uri.amap.com/marker?position=118.944930,42.282461&name=%E5%AE%A0%E7%88%B1%E5%A4%A9%E4%B8%8B%E5%AE%A0%E7%89%A9%E5%8C%BB%E9%99%A2&src=vetmap&coordinate=gaode&callnative=1","route_id":"r1","route_name":"第1段","global_order":42},{"name":"陈素云兽医门诊","address":"夏家店乡山水坡","phone":"15334765507","category":"医疗保健服务;动物医疗场所;兽医站","area":"","lng":119.186773,"lat":42.373045,"amap_id":"B0FFFGZL3B","order":43,"prev_distance_km":22.287,"cumulative_distance_km":186.84,"amap_marker_url":"https://uri.amap.com/marker?position=119.186773,42.373045&name=%E9%99%88%E7%B4%A0%E4%BA%91%E5%85%BD%E5%8C%BB%E9%97%A8%E8%AF%8A&src=vetmap&coordinate=gaode&callnative=1","route_id":"r1","route_name":"第1段","global_order":43},{"name":"牧康兽医门诊","address":"111国道与山鸡线交叉口东北240米","phone":"","category":"医疗保健服务;动物医疗场所;兽医站","area":"","lng":119.187525,"lat":42.373875,"amap_id":"B0LDY6L0B1","order":44,"prev_distance_km":0.111,"cumulative_distance_km":186.951,"amap_marker_url":"https://uri.amap.com/marker?position=119.187525,42.373875&name=%E7%89%A7%E5%BA%B7%E5%85%BD%E5%8C%BB%E9%97%A8%E8%AF%8A&src=vetmap&coordinate=gaode&callnative=1","route_id":"r1","route_name":"第1段","global_order":44},{"name":"杜全兽医门诊","address":"夏家店乡金娃娃幼儿园附近","phone":"13294761061","category":"医疗保健服务;动物医疗场所;兽医站","area":"","lng":119.188091,"lat":42.374278,"amap_id":"B0FFFGZHU8","order":45,"prev_distance_km":0.065,"cumulative_distance_km":187.016,"amap_marker_url":"https://uri.amap.com/marker?position=119.188091,42.374278&name=%E6%9D%9C%E5%85%A8%E5%85%BD%E5%8C%BB%E9%97%A8%E8%AF%8A&src=vetmap&coordinate=gaode&callnative=1","route_id":"r1","route_name":"第1段","global_order":45},{"name":"隋鸿宇兽医诊所","address":"小北营子11号","phone":"","category":"医疗保健服务;动物医疗场所;兽医站","area":"","lng":119.337724,"lat":42.429735,"amap_id":"B0K3FCOOU1","order":46,"prev_distance_km":13.747,"cumulative_distance_km":200.763,"amap_marker_url":"https://uri.amap.com/marker?position=119.337724,42.429735&name=%E9%9A%8B%E9%B8%BF%E5%AE%87%E5%85%BD%E5%8C%BB%E8%AF%8A%E6%89%80&src=vetmap&coordinate=gaode&callnative=1","route_id":"r1","route_name":"第1段","global_order":46}]}