{"summary":{"id":"d00089","province":"内蒙古自治区","city":"通辽市","district":"开鲁县","count":18,"route_count":1,"max_route_clinics":18,"total_distance_km":151.635,"coordinate_system":"GCJ-02 / Amap","generated_at":"2026-05-08 19:39:25"},"routes":[{"id":"r1","name":"第1段","count":18,"total_distance_km":151.635,"rows":[{"name":"福康兽药店","address":"客来缘烧烤西南侧","phone":"","category":"医疗保健服务;动物医疗场所;动物医疗场所","area":"","lng":120.692492,"lat":43.436275,"amap_id":"B0K3OMX9IF","order":1,"prev_distance_km":0.0,"cumulative_distance_km":0.0,"amap_marker_url":"https://uri.amap.com/marker?position=120.692492,43.436275&name=%E7%A6%8F%E5%BA%B7%E5%85%BD%E8%8D%AF%E5%BA%97&src=vetmap&coordinate=gaode&callnative=1","route_id":"r1","route_name":"第1段"},{"name":"林国金兽医","address":"中心大街路北","phone":"13847538204","category":"医疗保健服务;动物医疗场所;兽医站","area":"","lng":120.750693,"lat":43.496524,"amap_id":"B0JK99E0WW","order":2,"prev_distance_km":8.182,"cumulative_distance_km":8.182,"amap_marker_url":"https://uri.amap.com/marker?position=120.750693,43.496524&name=%E6%9E%97%E5%9B%BD%E9%87%91%E5%85%BD%E5%8C%BB&src=vetmap&coordinate=gaode&callnative=1","route_id":"r1","route_name":"第1段"},{"name":"小袁兽医+兽药","address":"黑龙坝镇","phone":"","category":"医疗保健服务;动物医疗场所;兽医站","area":"","lng":120.923499,"lat":43.566086,"amap_id":"B0LRRDKU86","order":3,"prev_distance_km":15.934,"cumulative_distance_km":24.116,"amap_marker_url":"https://uri.amap.com/marker?position=120.923499,43.566086&name=%E5%B0%8F%E8%A2%81%E5%85%BD%E5%8C%BB%2B%E5%85%BD%E8%8D%AF&src=vetmap&coordinate=gaode&callnative=1","route_id":"r1","route_name":"第1段"},{"name":"小宋兽药","address":"195乡道与开八线交叉口南260米","phone":"","category":"购物服务;购物相关场所;购物相关场所|医疗保健服务;动物医疗场所;动物医疗场所","area":"","lng":121.071623,"lat":43.569001,"amap_id":"B0KUD93E84","order":4,"prev_distance_km":11.938,"cumulative_distance_km":36.055,"amap_marker_url":"https://uri.amap.com/marker?position=121.071623,43.569001&name=%E5%B0%8F%E5%AE%8B%E5%85%BD%E8%8D%AF&src=vetmap&coordinate=gaode&callnative=1","route_id":"r1","route_name":"第1段"},{"name":"心语动物诊所","address":"内蒙古自治区 通辽市 开鲁县 开鲁镇北港润泽府小区22号楼003门市","phone":"0475-6888668;15771532265","category":"医疗保健服务;动物医疗场所;宠物诊所","area":"","lng":121.300325,"lat":43.592444,"amap_id":"B0HDNCE4M6","order":5,"prev_distance_km":18.605,"cumulative_distance_km":54.66,"amap_marker_url":"https://uri.amap.com/marker?position=121.300325,43.592444&name=%E5%BF%83%E8%AF%AD%E5%8A%A8%E7%89%A9%E8%AF%8A%E6%89%80&src=vetmap&coordinate=gaode&callnative=1","route_id":"r1","route_name":"第1段"},{"name":"24小时开鲁县愿安宠物医院","address":"梧桐佳苑一号楼8号门市","phone":"13739998954","category":"医疗保健服务;动物医疗场所;宠物诊所","area":"","lng":121.302207,"lat":43.593181,"amap_id":"B0L2OSVE4T","order":6,"prev_distance_km":0.172,"cumulative_distance_km":54.832,"amap_marker_url":"https://uri.amap.com/marker?position=121.302207,43.593181&name=24%E5%B0%8F%E6%97%B6%E5%BC%80%E9%B2%81%E5%8E%BF%E6%84%BF%E5%AE%89%E5%AE%A0%E7%89%A9%E5%8C%BB%E9%99%A2&src=vetmap&coordinate=gaode&callnative=1","route_id":"r1","route_name":"第1段"},{"name":"安馨连锁宠物医院","address":"幸福路与东风街交叉口北80米世纪广场西侧","phone":"0475-6222999;18347575456","category":"医疗保健服务;动物医疗场所;宠物诊所","area":"","lng":121.303372,"lat":43.60124,"amap_id":"B0LRYXX3U2","order":7,"prev_distance_km":0.901,"cumulative_distance_km":55.733,"amap_marker_url":"https://uri.amap.com/marker?position=121.303372,43.601240&name=%E5%AE%89%E9%A6%A8%E8%BF%9E%E9%94%81%E5%AE%A0%E7%89%A9%E5%8C%BB%E9%99%A2&src=vetmap&coordinate=gaode&callnative=1","route_id":"r1","route_name":"第1段"},{"name":"巴迪动物诊所(开鲁总院)","address":"世纪广场西侧","phone":"18347575456","category":"医疗保健服务;动物医疗场所;宠物诊所","area":"","lng":121.303367,"lat":43.60125,"amap_id":"B0FFIKJIMR","order":8,"prev_distance_km":0.001,"cumulative_distance_km":55.735,"amap_marker_url":"https://uri.amap.com/marker?position=121.303367,43.601250&name=%E5%B7%B4%E8%BF%AA%E5%8A%A8%E7%89%A9%E8%AF%8A%E6%89%80%28%E5%BC%80%E9%B2%81%E6%80%BB%E9%99%A2%29&src=vetmap&coordinate=gaode&callnative=1","route_id":"r1","route_name":"第1段"},{"name":"酷乐宠物门诊","address":"富贵佳园114号","phone":"15934945558","category":"医疗保健服务;动物医疗场所;宠物诊所","area":"","lng":121.313201,"lat":43.605932,"amap_id":"B0HA5SMNH7","order":9,"prev_distance_km":0.948,"cumulative_distance_km":56.682,"amap_marker_url":"https://uri.amap.com/marker?position=121.313201,43.605932&name=%E9%85%B7%E4%B9%90%E5%AE%A0%E7%89%A9%E9%97%A8%E8%AF%8A&src=vetmap&coordinate=gaode&callnative=1","route_id":"r1","route_name":"第1段"},{"name":"优百宠物医疗","address":"民族路36-3号","phone":"18247511039","category":"医疗保健服务;动物医疗场所;宠物诊所","area":"","lng":121.30826,"lat":43.598752,"amap_id":"B0K2S7956C","order":10,"prev_distance_km":0.892,"cumulative_distance_km":57.574,"amap_marker_url":"https://uri.amap.com/marker?position=121.308260,43.598752&name=%E4%BC%98%E7%99%BE%E5%AE%A0%E7%89%A9%E5%8C%BB%E7%96%97&src=vetmap&coordinate=gaode&callnative=1","route_id":"r1","route_name":"第1段"},{"name":"利牧兽药店","address":"长青街与曙光路交叉口西北40米","phone":"15663337416","category":"医疗保健服务;动物医疗场所;动物医疗场所","area":"","lng":121.313075,"lat":43.596675,"amap_id":"B0LD1PG2VX","order":11,"prev_distance_km":0.451,"cumulative_distance_km":58.026,"amap_marker_url":"https://uri.amap.com/marker?position=121.313075,43.596675&name=%E5%88%A9%E7%89%A7%E5%85%BD%E8%8D%AF%E5%BA%97&src=vetmap&coordinate=gaode&callnative=1","route_id":"r1","route_name":"第1段"},{"name":"木木宠物美容","address":"白塔公园西门100米","phone":"15164925552","category":"医疗保健服务;动物医疗场所;宠物诊所","area":"","lng":121.315395,"lat":43.596165,"amap_id":"B0KRJMZC4C","order":12,"prev_distance_km":0.195,"cumulative_distance_km":58.221,"amap_marker_url":"https://uri.amap.com/marker?position=121.315395,43.596165&name=%E6%9C%A8%E6%9C%A8%E5%AE%A0%E7%89%A9%E7%BE%8E%E5%AE%B9&src=vetmap&coordinate=gaode&callnative=1","route_id":"r1","route_name":"第1段"},{"name":"仁望宠物医院","address":"辽河大街与兴安路交叉口东320米","phone":"","category":"医疗保健服务;动物医疗场所;宠物诊所","area":"","lng":121.332925,"lat":43.599575,"amap_id":"B0M69DAMZW","order":13,"prev_distance_km":1.462,"cumulative_distance_km":59.682,"amap_marker_url":"https://uri.amap.com/marker?position=121.332925,43.599575&name=%E4%BB%81%E6%9C%9B%E5%AE%A0%E7%89%A9%E5%8C%BB%E9%99%A2&src=vetmap&coordinate=gaode&callnative=1","route_id":"r1","route_name":"第1段"},{"name":"动物诊疗室","address":"北兴市场东南侧","phone":"","category":"医疗保健服务;动物医疗场所;兽医站","area":"","lng":121.465622,"lat":43.54413,"amap_id":"B0L16YRA9R","order":14,"prev_distance_km":12.341,"cumulative_distance_km":72.023,"amap_marker_url":"https://uri.amap.com/marker?position=121.465622,43.544130&name=%E5%8A%A8%E7%89%A9%E8%AF%8A%E7%96%97%E5%AE%A4&src=vetmap&coordinate=gaode&callnative=1","route_id":"r1","route_name":"第1段"},{"name":"小张兽药","address":"宝开线与191乡道交叉口西360米","phone":"","category":"购物服务;购物相关场所;购物相关场所|医疗保健服务;动物医疗场所;动物医疗场所","area":"","lng":121.393651,"lat":43.772577,"amap_id":"B0KUD93E8K","order":15,"prev_distance_km":26.054,"cumulative_distance_km":98.077,"amap_marker_url":"https://uri.amap.com/marker?position=121.393651,43.772577&name=%E5%B0%8F%E5%BC%A0%E5%85%BD%E8%8D%AF&src=vetmap&coordinate=gaode&callnative=1","route_id":"r1","route_name":"第1段"},{"name":"新常海兽医门诊","address":"宝开线","phone":"","category":"医疗保健服务;动物医疗场所;兽医站","area":"","lng":121.529975,"lat":43.882675,"amap_id":"B0G3ORBUNN","order":16,"prev_distance_km":16.415,"cumulative_distance_km":114.492,"amap_marker_url":"https://uri.amap.com/marker?position=121.529975,43.882675&name=%E6%96%B0%E5%B8%B8%E6%B5%B7%E5%85%BD%E5%8C%BB%E9%97%A8%E8%AF%8A&src=vetmap&coordinate=gaode&callnative=1","route_id":"r1","route_name":"第1段"},{"name":"明吉兽药店","address":"187乡道与304省道交叉口南320米","phone":"","category":"医疗保健服务;动物医疗场所;动物医疗场所","area":"","lng":121.518625,"lat":43.882725,"amap_id":"B0M6LH5U6V","order":17,"prev_distance_km":0.91,"cumulative_distance_km":115.402,"amap_marker_url":"https://uri.amap.com/marker?position=121.518625,43.882725&name=%E6%98%8E%E5%90%89%E5%85%BD%E8%8D%AF%E5%BA%97&src=vetmap&coordinate=gaode&callnative=1","route_id":"r1","route_name":"第1段"},{"name":"小崔兽医","address":"民开线与204乡道交叉口西北100米","phone":"","category":"医疗保健服务;动物医疗场所;兽医站","area":"","lng":121.114615,"lat":44.029675,"amap_id":"B0KUD9DKIS","order":18,"prev_distance_km":36.233,"cumulative_distance_km":151.635,"amap_marker_url":"https://uri.amap.com/marker?position=121.114615,44.029675&name=%E5%B0%8F%E5%B4%94%E5%85%BD%E5%8C%BB&src=vetmap&coordinate=gaode&callnative=1","route_id":"r1","route_name":"第1段"}]}],"rows":[{"name":"福康兽药店","address":"客来缘烧烤西南侧","phone":"","category":"医疗保健服务;动物医疗场所;动物医疗场所","area":"","lng":120.692492,"lat":43.436275,"amap_id":"B0K3OMX9IF","order":1,"prev_distance_km":0.0,"cumulative_distance_km":0.0,"amap_marker_url":"https://uri.amap.com/marker?position=120.692492,43.436275&name=%E7%A6%8F%E5%BA%B7%E5%85%BD%E8%8D%AF%E5%BA%97&src=vetmap&coordinate=gaode&callnative=1","route_id":"r1","route_name":"第1段","global_order":1},{"name":"林国金兽医","address":"中心大街路北","phone":"13847538204","category":"医疗保健服务;动物医疗场所;兽医站","area":"","lng":120.750693,"lat":43.496524,"amap_id":"B0JK99E0WW","order":2,"prev_distance_km":8.182,"cumulative_distance_km":8.182,"amap_marker_url":"https://uri.amap.com/marker?position=120.750693,43.496524&name=%E6%9E%97%E5%9B%BD%E9%87%91%E5%85%BD%E5%8C%BB&src=vetmap&coordinate=gaode&callnative=1","route_id":"r1","route_name":"第1段","global_order":2},{"name":"小袁兽医+兽药","address":"黑龙坝镇","phone":"","category":"医疗保健服务;动物医疗场所;兽医站","area":"","lng":120.923499,"lat":43.566086,"amap_id":"B0LRRDKU86","order":3,"prev_distance_km":15.934,"cumulative_distance_km":24.116,"amap_marker_url":"https://uri.amap.com/marker?position=120.923499,43.566086&name=%E5%B0%8F%E8%A2%81%E5%85%BD%E5%8C%BB%2B%E5%85%BD%E8%8D%AF&src=vetmap&coordinate=gaode&callnative=1","route_id":"r1","route_name":"第1段","global_order":3},{"name":"小宋兽药","address":"195乡道与开八线交叉口南260米","phone":"","category":"购物服务;购物相关场所;购物相关场所|医疗保健服务;动物医疗场所;动物医疗场所","area":"","lng":121.071623,"lat":43.569001,"amap_id":"B0KUD93E84","order":4,"prev_distance_km":11.938,"cumulative_distance_km":36.055,"amap_marker_url":"https://uri.amap.com/marker?position=121.071623,43.569001&name=%E5%B0%8F%E5%AE%8B%E5%85%BD%E8%8D%AF&src=vetmap&coordinate=gaode&callnative=1","route_id":"r1","route_name":"第1段","global_order":4},{"name":"心语动物诊所","address":"内蒙古自治区 通辽市 开鲁县 开鲁镇北港润泽府小区22号楼003门市","phone":"0475-6888668;15771532265","category":"医疗保健服务;动物医疗场所;宠物诊所","area":"","lng":121.300325,"lat":43.592444,"amap_id":"B0HDNCE4M6","order":5,"prev_distance_km":18.605,"cumulative_distance_km":54.66,"amap_marker_url":"https://uri.amap.com/marker?position=121.300325,43.592444&name=%E5%BF%83%E8%AF%AD%E5%8A%A8%E7%89%A9%E8%AF%8A%E6%89%80&src=vetmap&coordinate=gaode&callnative=1","route_id":"r1","route_name":"第1段","global_order":5},{"name":"24小时开鲁县愿安宠物医院","address":"梧桐佳苑一号楼8号门市","phone":"13739998954","category":"医疗保健服务;动物医疗场所;宠物诊所","area":"","lng":121.302207,"lat":43.593181,"amap_id":"B0L2OSVE4T","order":6,"prev_distance_km":0.172,"cumulative_distance_km":54.832,"amap_marker_url":"https://uri.amap.com/marker?position=121.302207,43.593181&name=24%E5%B0%8F%E6%97%B6%E5%BC%80%E9%B2%81%E5%8E%BF%E6%84%BF%E5%AE%89%E5%AE%A0%E7%89%A9%E5%8C%BB%E9%99%A2&src=vetmap&coordinate=gaode&callnative=1","route_id":"r1","route_name":"第1段","global_order":6},{"name":"安馨连锁宠物医院","address":"幸福路与东风街交叉口北80米世纪广场西侧","phone":"0475-6222999;18347575456","category":"医疗保健服务;动物医疗场所;宠物诊所","area":"","lng":121.303372,"lat":43.60124,"amap_id":"B0LRYXX3U2","order":7,"prev_distance_km":0.901,"cumulative_distance_km":55.733,"amap_marker_url":"https://uri.amap.com/marker?position=121.303372,43.601240&name=%E5%AE%89%E9%A6%A8%E8%BF%9E%E9%94%81%E5%AE%A0%E7%89%A9%E5%8C%BB%E9%99%A2&src=vetmap&coordinate=gaode&callnative=1","route_id":"r1","route_name":"第1段","global_order":7},{"name":"巴迪动物诊所(开鲁总院)","address":"世纪广场西侧","phone":"18347575456","category":"医疗保健服务;动物医疗场所;宠物诊所","area":"","lng":121.303367,"lat":43.60125,"amap_id":"B0FFIKJIMR","order":8,"prev_distance_km":0.001,"cumulative_distance_km":55.735,"amap_marker_url":"https://uri.amap.com/marker?position=121.303367,43.601250&name=%E5%B7%B4%E8%BF%AA%E5%8A%A8%E7%89%A9%E8%AF%8A%E6%89%80%28%E5%BC%80%E9%B2%81%E6%80%BB%E9%99%A2%29&src=vetmap&coordinate=gaode&callnative=1","route_id":"r1","route_name":"第1段","global_order":8},{"name":"酷乐宠物门诊","address":"富贵佳园114号","phone":"15934945558","category":"医疗保健服务;动物医疗场所;宠物诊所","area":"","lng":121.313201,"lat":43.605932,"amap_id":"B0HA5SMNH7","order":9,"prev_distance_km":0.948,"cumulative_distance_km":56.682,"amap_marker_url":"https://uri.amap.com/marker?position=121.313201,43.605932&name=%E9%85%B7%E4%B9%90%E5%AE%A0%E7%89%A9%E9%97%A8%E8%AF%8A&src=vetmap&coordinate=gaode&callnative=1","route_id":"r1","route_name":"第1段","global_order":9},{"name":"优百宠物医疗","address":"民族路36-3号","phone":"18247511039","category":"医疗保健服务;动物医疗场所;宠物诊所","area":"","lng":121.30826,"lat":43.598752,"amap_id":"B0K2S7956C","order":10,"prev_distance_km":0.892,"cumulative_distance_km":57.574,"amap_marker_url":"https://uri.amap.com/marker?position=121.308260,43.598752&name=%E4%BC%98%E7%99%BE%E5%AE%A0%E7%89%A9%E5%8C%BB%E7%96%97&src=vetmap&coordinate=gaode&callnative=1","route_id":"r1","route_name":"第1段","global_order":10},{"name":"利牧兽药店","address":"长青街与曙光路交叉口西北40米","phone":"15663337416","category":"医疗保健服务;动物医疗场所;动物医疗场所","area":"","lng":121.313075,"lat":43.596675,"amap_id":"B0LD1PG2VX","order":11,"prev_distance_km":0.451,"cumulative_distance_km":58.026,"amap_marker_url":"https://uri.amap.com/marker?position=121.313075,43.596675&name=%E5%88%A9%E7%89%A7%E5%85%BD%E8%8D%AF%E5%BA%97&src=vetmap&coordinate=gaode&callnative=1","route_id":"r1","route_name":"第1段","global_order":11},{"name":"木木宠物美容","address":"白塔公园西门100米","phone":"15164925552","category":"医疗保健服务;动物医疗场所;宠物诊所","area":"","lng":121.315395,"lat":43.596165,"amap_id":"B0KRJMZC4C","order":12,"prev_distance_km":0.195,"cumulative_distance_km":58.221,"amap_marker_url":"https://uri.amap.com/marker?position=121.315395,43.596165&name=%E6%9C%A8%E6%9C%A8%E5%AE%A0%E7%89%A9%E7%BE%8E%E5%AE%B9&src=vetmap&coordinate=gaode&callnative=1","route_id":"r1","route_name":"第1段","global_order":12},{"name":"仁望宠物医院","address":"辽河大街与兴安路交叉口东320米","phone":"","category":"医疗保健服务;动物医疗场所;宠物诊所","area":"","lng":121.332925,"lat":43.599575,"amap_id":"B0M69DAMZW","order":13,"prev_distance_km":1.462,"cumulative_distance_km":59.682,"amap_marker_url":"https://uri.amap.com/marker?position=121.332925,43.599575&name=%E4%BB%81%E6%9C%9B%E5%AE%A0%E7%89%A9%E5%8C%BB%E9%99%A2&src=vetmap&coordinate=gaode&callnative=1","route_id":"r1","route_name":"第1段","global_order":13},{"name":"动物诊疗室","address":"北兴市场东南侧","phone":"","category":"医疗保健服务;动物医疗场所;兽医站","area":"","lng":121.465622,"lat":43.54413,"amap_id":"B0L16YRA9R","order":14,"prev_distance_km":12.341,"cumulative_distance_km":72.023,"amap_marker_url":"https://uri.amap.com/marker?position=121.465622,43.544130&name=%E5%8A%A8%E7%89%A9%E8%AF%8A%E7%96%97%E5%AE%A4&src=vetmap&coordinate=gaode&callnative=1","route_id":"r1","route_name":"第1段","global_order":14},{"name":"小张兽药","address":"宝开线与191乡道交叉口西360米","phone":"","category":"购物服务;购物相关场所;购物相关场所|医疗保健服务;动物医疗场所;动物医疗场所","area":"","lng":121.393651,"lat":43.772577,"amap_id":"B0KUD93E8K","order":15,"prev_distance_km":26.054,"cumulative_distance_km":98.077,"amap_marker_url":"https://uri.amap.com/marker?position=121.393651,43.772577&name=%E5%B0%8F%E5%BC%A0%E5%85%BD%E8%8D%AF&src=vetmap&coordinate=gaode&callnative=1","route_id":"r1","route_name":"第1段","global_order":15},{"name":"新常海兽医门诊","address":"宝开线","phone":"","category":"医疗保健服务;动物医疗场所;兽医站","area":"","lng":121.529975,"lat":43.882675,"amap_id":"B0G3ORBUNN","order":16,"prev_distance_km":16.415,"cumulative_distance_km":114.492,"amap_marker_url":"https://uri.amap.com/marker?position=121.529975,43.882675&name=%E6%96%B0%E5%B8%B8%E6%B5%B7%E5%85%BD%E5%8C%BB%E9%97%A8%E8%AF%8A&src=vetmap&coordinate=gaode&callnative=1","route_id":"r1","route_name":"第1段","global_order":16},{"name":"明吉兽药店","address":"187乡道与304省道交叉口南320米","phone":"","category":"医疗保健服务;动物医疗场所;动物医疗场所","area":"","lng":121.518625,"lat":43.882725,"amap_id":"B0M6LH5U6V","order":17,"prev_distance_km":0.91,"cumulative_distance_km":115.402,"amap_marker_url":"https://uri.amap.com/marker?position=121.518625,43.882725&name=%E6%98%8E%E5%90%89%E5%85%BD%E8%8D%AF%E5%BA%97&src=vetmap&coordinate=gaode&callnative=1","route_id":"r1","route_name":"第1段","global_order":17},{"name":"小崔兽医","address":"民开线与204乡道交叉口西北100米","phone":"","category":"医疗保健服务;动物医疗场所;兽医站","area":"","lng":121.114615,"lat":44.029675,"amap_id":"B0KUD9DKIS","order":18,"prev_distance_km":36.233,"cumulative_distance_km":151.635,"amap_marker_url":"https://uri.amap.com/marker?position=121.114615,44.029675&name=%E5%B0%8F%E5%B4%94%E5%85%BD%E5%8C%BB&src=vetmap&coordinate=gaode&callnative=1","route_id":"r1","route_name":"第1段","global_order":18}]}