{"summary":{"id":"d00016","province":"上海市","city":"上海市","district":"黄浦区","count":10,"total_distance_km":6.92,"coordinate_system":"GCJ-02 / Amap","generated_at":"2026-05-07 19:55:43"},"rows":[{"name":"芭比堂动物医院眼科中心·心脏科·急重症(苏河湾店)","address":"新闸路435号上海滩·新昌城北临街商铺1-2层(近成都北路)","phone":"18121049348","category":"医疗保健服务;动物医疗场所;宠物诊所","area":"北京路","lng":121.465183,"lat":31.238382,"amap_id":"B0FFH7KQWJ","order":1,"prev_distance_km":0.0,"cumulative_distance_km":0.0,"amap_marker_url":"https://uri.amap.com/marker?position=121.465183,31.238382&name=%E8%8A%AD%E6%AF%94%E5%A0%82%E5%8A%A8%E7%89%A9%E5%8C%BB%E9%99%A2%E7%9C%BC%E7%A7%91%E4%B8%AD%E5%BF%83%C2%B7%E5%BF%83%E8%84%8F%E7%A7%91%C2%B7%E6%80%A5%E9%87%8D%E7%97%87%28%E8%8B%8F%E6%B2%B3%E6%B9%BE%E5%BA%97%29&src=vetmap&coordinate=gaode&callnative=1"},{"name":"安享宠物火化","address":"九江路与云南中路交叉口西南60米","phone":"","category":"医疗保健服务;动物医疗场所;动物医疗场所","area":"北京路","lng":121.475925,"lat":31.233725,"amap_id":"B0M6FHYZ15","order":2,"prev_distance_km":1.145,"cumulative_distance_km":1.145,"amap_marker_url":"https://uri.amap.com/marker?position=121.475925,31.233725&name=%E5%AE%89%E4%BA%AB%E5%AE%A0%E7%89%A9%E7%81%AB%E5%8C%96&src=vetmap&coordinate=gaode&callnative=1"},{"name":"佩兹宠物医院·金牌猫友好诊所(黄浦店)","address":"东青莲街99号(大世界地铁站5号口步行460米)","phone":"021-67337866","category":"医疗保健服务;动物医疗场所;宠物诊所","area":"城隍庙","lng":121.484085,"lat":31.225579,"amap_id":"B0HBMKILFL","order":3,"prev_distance_km":1.193,"cumulative_distance_km":2.338,"amap_marker_url":"https://uri.amap.com/marker?position=121.484085,31.225579&name=%E4%BD%A9%E5%85%B9%E5%AE%A0%E7%89%A9%E5%8C%BB%E9%99%A2%C2%B7%E9%87%91%E7%89%8C%E7%8C%AB%E5%8F%8B%E5%A5%BD%E8%AF%8A%E6%89%80%28%E9%BB%84%E6%B5%A6%E5%BA%97%29&src=vetmap&coordinate=gaode&callnative=1"},{"name":"守心宠物医院(文庙店)","address":"中华路1359号1层2号","phone":"18930832120","category":"医疗保健服务;动物医疗场所;宠物诊所","area":"","lng":121.486028,"lat":31.217488,"amap_id":"B0M6B7HP1W","order":4,"prev_distance_km":0.918,"cumulative_distance_km":3.256,"amap_marker_url":"https://uri.amap.com/marker?position=121.486028,31.217488&name=%E5%AE%88%E5%BF%83%E5%AE%A0%E7%89%A9%E5%8C%BB%E9%99%A2%28%E6%96%87%E5%BA%99%E5%BA%97%29&src=vetmap&coordinate=gaode&callnative=1"},{"name":"Totale尾予","address":"方斜路269号108室(老西门地铁站2号口步行340米)","phone":"17621210435","category":"医疗保健服务;动物医疗场所;宠物诊所","area":"","lng":121.485163,"lat":31.216369,"amap_id":"B0LR4UQKWC","order":5,"prev_distance_km":0.149,"cumulative_distance_km":3.405,"amap_marker_url":"https://uri.amap.com/marker?position=121.485163,31.216369&name=Totale%E5%B0%BE%E4%BA%88&src=vetmap&coordinate=gaode&callnative=1"},{"name":"芭芭拉宠物诊所","address":"中华路1150号(近大兴街)","phone":"021-63455899","category":"医疗保健服务;动物医疗场所;宠物诊所","area":"制造局路","lng":121.488069,"lat":31.215184,"amap_id":"B0FFJYGAWL","order":6,"prev_distance_km":0.306,"cumulative_distance_km":3.712,"amap_marker_url":"https://uri.amap.com/marker?position=121.488069,31.215184&name=%E8%8A%AD%E8%8A%AD%E6%8B%89%E5%AE%A0%E7%89%A9%E8%AF%8A%E6%89%80&src=vetmap&coordinate=gaode&callnative=1"},{"name":"宠爱国际24小时动物医院(黄浦店)","address":"斜土东路187号底层","phone":"021-38277832","category":"医疗保健服务;动物医疗场所;宠物诊所","area":"制造局路","lng":121.487998,"lat":31.208047,"amap_id":"B0HRJSN3G9","order":7,"prev_distance_km":0.794,"cumulative_distance_km":4.505,"amap_marker_url":"https://uri.amap.com/marker?position=121.487998,31.208047&name=%E5%AE%A0%E7%88%B1%E5%9B%BD%E9%99%8524%E5%B0%8F%E6%97%B6%E5%8A%A8%E7%89%A9%E5%8C%BB%E9%99%A2%28%E9%BB%84%E6%B5%A6%E5%BA%97%29&src=vetmap&coordinate=gaode&callnative=1"},{"name":"贝肯菲宠物医院","address":"西藏南路1745号(西藏南路地铁站2号口步行480米)","phone":"021-53095366","category":"医疗保健服务;动物医疗场所;宠物诊所","area":"制造局路","lng":121.491982,"lat":31.198429,"amap_id":"B0FFIDLK9S","order":8,"prev_distance_km":1.135,"cumulative_distance_km":5.64,"amap_marker_url":"https://uri.amap.com/marker?position=121.491982,31.198429&name=%E8%B4%9D%E8%82%AF%E8%8F%B2%E5%AE%A0%E7%89%A9%E5%8C%BB%E9%99%A2&src=vetmap&coordinate=gaode&callnative=1"},{"name":"瑞鹏宠物医院狂犬免疫点·牙科·针灸(黄浦分院)","address":"蒙自路610号(中山南一路口)","phone":"021-63355668","category":"医疗保健服务;动物医疗场所;宠物诊所","area":"五里桥","lng":121.480257,"lat":31.199791,"amap_id":"B0FFGH4O6A","order":9,"prev_distance_km":1.125,"cumulative_distance_km":6.765,"amap_marker_url":"https://uri.amap.com/marker?position=121.480257,31.199791&name=%E7%91%9E%E9%B9%8F%E5%AE%A0%E7%89%A9%E5%8C%BB%E9%99%A2%E7%8B%82%E7%8A%AC%E5%85%8D%E7%96%AB%E7%82%B9%C2%B7%E7%89%99%E7%A7%91%C2%B7%E9%92%88%E7%81%B8%28%E9%BB%84%E6%B5%A6%E5%88%86%E9%99%A2%29&src=vetmap&coordinate=gaode&callnative=1"},{"name":"萌兽医馆(心愿宠物医院)","address":"瞿溪路906号(鲁班路地铁站2号口步行250米)","phone":"021-63025592","category":"医疗保健服务;动物医疗场所;宠物诊所","area":"五里桥","lng":121.47863,"lat":31.199781,"amap_id":"B0FFLOJGX0","order":10,"prev_distance_km":0.155,"cumulative_distance_km":6.92,"amap_marker_url":"https://uri.amap.com/marker?position=121.478630,31.199781&name=%E8%90%8C%E5%85%BD%E5%8C%BB%E9%A6%86%28%E5%BF%83%E6%84%BF%E5%AE%A0%E7%89%A9%E5%8C%BB%E9%99%A2%29&src=vetmap&coordinate=gaode&callnative=1"}]}