{"summary":{"id":"d00079","province":"内蒙古自治区","city":"赤峰市","district":"巴林右旗","count":10,"route_count":1,"max_route_clinics":10,"total_distance_km":168.175,"coordinate_system":"GCJ-02 / Amap","generated_at":"2026-05-07 21:26:17"},"routes":[{"id":"r1","name":"第1段","count":10,"total_distance_km":168.175,"rows":[{"name":"兽药一站通","address":"中国联通(索博日嘎营业厅)北侧60米","phone":"","category":"购物服务;购物相关场所;购物相关场所|医疗保健服务;动物医疗场所;动物医疗场所","area":"","lng":118.516125,"lat":44.197375,"amap_id":"B0L3ASUCSO","order":1,"prev_distance_km":0.0,"cumulative_distance_km":0.0,"amap_marker_url":"https://uri.amap.com/marker?position=118.516125,44.197375&name=%E5%85%BD%E8%8D%AF%E4%B8%80%E7%AB%99%E9%80%9A&src=vetmap&coordinate=gaode&callnative=1","route_id":"r1","route_name":"第1段"},{"name":"倍能伴侣动物医院(大板店)","address":"假日蓝湾小区26号楼01011厅","phone":"13848469823","category":"医疗保健服务;动物医疗场所;宠物诊所","area":"","lng":118.665364,"lat":43.535002,"amap_id":"B0HR679YCZ","order":2,"prev_distance_km":74.618,"cumulative_distance_km":74.618,"amap_marker_url":"https://uri.amap.com/marker?position=118.665364,43.535002&name=%E5%80%8D%E8%83%BD%E4%BC%B4%E4%BE%A3%E5%8A%A8%E7%89%A9%E5%8C%BB%E9%99%A2%28%E5%A4%A7%E6%9D%BF%E5%BA%97%29&src=vetmap&coordinate=gaode&callnative=1","route_id":"r1","route_name":"第1段"},{"name":"凯蒂宠物美容","address":"政府环路与索博日嘎街交叉口北80米","phone":"18904760834","category":"医疗保健服务;动物医疗场所;宠物诊所","area":"","lng":118.666932,"lat":43.531765,"amap_id":"B0FFMEMGI5","order":3,"prev_distance_km":0.381,"cumulative_distance_km":74.999,"amap_marker_url":"https://uri.amap.com/marker?position=118.666932,43.531765&name=%E5%87%AF%E8%92%82%E5%AE%A0%E7%89%A9%E7%BE%8E%E5%AE%B9&src=vetmap&coordinate=gaode&callnative=1","route_id":"r1","route_name":"第1段"},{"name":"赛伊汗兽药店","address":"北市街与荟福路交叉口西60","phone":"13734761148;17647696037","category":"医疗保健服务;动物医疗场所;动物医疗场所","area":"荟福路","lng":118.681778,"lat":43.53118,"amap_id":"B0G24LFSC3","order":4,"prev_distance_km":1.199,"cumulative_distance_km":76.198,"amap_marker_url":"https://uri.amap.com/marker?position=118.681778,43.531180&name=%E8%B5%9B%E4%BC%8A%E6%B1%97%E5%85%BD%E8%8D%AF%E5%BA%97&src=vetmap&coordinate=gaode&callnative=1","route_id":"r1","route_name":"第1段"},{"name":"金牧兽药疫苗","address":"北市街东","phone":"15047619292","category":"医疗保健服务;动物医疗场所;动物医疗场所","area":"","lng":118.684813,"lat":43.531573,"amap_id":"B0K0HUKYDI","order":5,"prev_distance_km":0.249,"cumulative_distance_km":76.447,"amap_marker_url":"https://uri.amap.com/marker?position=118.684813,43.531573&name=%E9%87%91%E7%89%A7%E5%85%BD%E8%8D%AF%E7%96%AB%E8%8B%97&src=vetmap&coordinate=gaode&callnative=1","route_id":"r1","route_name":"第1段"},{"name":"君马兽药店","address":"查干沐沦街北段16-5","phone":"","category":"医疗保健服务;动物医疗场所;动物医疗场所","area":"荟福路","lng":118.684489,"lat":43.529464,"amap_id":"B0JGAHAZTY","order":6,"prev_distance_km":0.236,"cumulative_distance_km":76.683,"amap_marker_url":"https://uri.amap.com/marker?position=118.684489,43.529464&name=%E5%90%9B%E9%A9%AC%E5%85%BD%E8%8D%AF%E5%BA%97&src=vetmap&coordinate=gaode&callnative=1","route_id":"r1","route_name":"第1段"},{"name":"长垣畜牧兽医服务有限公司","address":"查干沐沦街与兴安胡同交叉口西140米","phone":"","category":"医疗保健服务;动物医疗场所;兽医站","area":"","lng":118.685225,"lat":43.529275,"amap_id":"B0M6K7BZVT","order":7,"prev_distance_km":0.063,"cumulative_distance_km":76.745,"amap_marker_url":"https://uri.amap.com/marker?position=118.685225,43.529275&name=%E9%95%BF%E5%9E%A3%E7%95%9C%E7%89%A7%E5%85%BD%E5%8C%BB%E6%9C%8D%E5%8A%A1%E6%9C%89%E9%99%90%E5%85%AC%E5%8F%B8&src=vetmap&coordinate=gaode&callnative=1","route_id":"r1","route_name":"第1段"},{"name":"九州宠物医院","address":"查干沐沦街67-7九州兽医2层","phone":"13848469823;13848860620","category":"医疗保健服务;动物医疗场所;宠物诊所","area":"","lng":118.689476,"lat":43.526715,"amap_id":"B0FFJXXDPN","order":8,"prev_distance_km":0.446,"cumulative_distance_km":77.191,"amap_marker_url":"https://uri.amap.com/marker?position=118.689476,43.526715&name=%E4%B9%9D%E5%B7%9E%E5%AE%A0%E7%89%A9%E5%8C%BB%E9%99%A2&src=vetmap&coordinate=gaode&callnative=1","route_id":"r1","route_name":"第1段"},{"name":"巴林右旗达尔畜牧兽医服务有限公司","address":"大板镇五区省际通道南段东段北侧05","phone":"13113560631;18525778721","category":"医疗保健服务;动物医疗场所;兽医站","area":"","lng":118.742482,"lat":43.512746,"amap_id":"B0K635T3VK","order":9,"prev_distance_km":4.547,"cumulative_distance_km":81.738,"amap_marker_url":"https://uri.amap.com/marker?position=118.742482,43.512746&name=%E5%B7%B4%E6%9E%97%E5%8F%B3%E6%97%97%E8%BE%BE%E5%B0%94%E7%95%9C%E7%89%A7%E5%85%BD%E5%8C%BB%E6%9C%8D%E5%8A%A1%E6%9C%89%E9%99%90%E5%85%AC%E5%8F%B8&src=vetmap&coordinate=gaode&callnative=1","route_id":"r1","route_name":"第1段"},{"name":"胡日哈兽药店","address":"西拉沐沦苏木人民政府南侧230米","phone":"","category":"医疗保健服务;动物医疗场所;动物医疗场所","area":"","lng":119.811525,"lat":43.461025,"amap_id":"B0M67MWL6S","order":10,"prev_distance_km":86.437,"cumulative_distance_km":168.175,"amap_marker_url":"https://uri.amap.com/marker?position=119.811525,43.461025&name=%E8%83%A1%E6%97%A5%E5%93%88%E5%85%BD%E8%8D%AF%E5%BA%97&src=vetmap&coordinate=gaode&callnative=1","route_id":"r1","route_name":"第1段"}]}],"rows":[{"name":"兽药一站通","address":"中国联通(索博日嘎营业厅)北侧60米","phone":"","category":"购物服务;购物相关场所;购物相关场所|医疗保健服务;动物医疗场所;动物医疗场所","area":"","lng":118.516125,"lat":44.197375,"amap_id":"B0L3ASUCSO","order":1,"prev_distance_km":0.0,"cumulative_distance_km":0.0,"amap_marker_url":"https://uri.amap.com/marker?position=118.516125,44.197375&name=%E5%85%BD%E8%8D%AF%E4%B8%80%E7%AB%99%E9%80%9A&src=vetmap&coordinate=gaode&callnative=1","route_id":"r1","route_name":"第1段","global_order":1},{"name":"倍能伴侣动物医院(大板店)","address":"假日蓝湾小区26号楼01011厅","phone":"13848469823","category":"医疗保健服务;动物医疗场所;宠物诊所","area":"","lng":118.665364,"lat":43.535002,"amap_id":"B0HR679YCZ","order":2,"prev_distance_km":74.618,"cumulative_distance_km":74.618,"amap_marker_url":"https://uri.amap.com/marker?position=118.665364,43.535002&name=%E5%80%8D%E8%83%BD%E4%BC%B4%E4%BE%A3%E5%8A%A8%E7%89%A9%E5%8C%BB%E9%99%A2%28%E5%A4%A7%E6%9D%BF%E5%BA%97%29&src=vetmap&coordinate=gaode&callnative=1","route_id":"r1","route_name":"第1段","global_order":2},{"name":"凯蒂宠物美容","address":"政府环路与索博日嘎街交叉口北80米","phone":"18904760834","category":"医疗保健服务;动物医疗场所;宠物诊所","area":"","lng":118.666932,"lat":43.531765,"amap_id":"B0FFMEMGI5","order":3,"prev_distance_km":0.381,"cumulative_distance_km":74.999,"amap_marker_url":"https://uri.amap.com/marker?position=118.666932,43.531765&name=%E5%87%AF%E8%92%82%E5%AE%A0%E7%89%A9%E7%BE%8E%E5%AE%B9&src=vetmap&coordinate=gaode&callnative=1","route_id":"r1","route_name":"第1段","global_order":3},{"name":"赛伊汗兽药店","address":"北市街与荟福路交叉口西60","phone":"13734761148;17647696037","category":"医疗保健服务;动物医疗场所;动物医疗场所","area":"荟福路","lng":118.681778,"lat":43.53118,"amap_id":"B0G24LFSC3","order":4,"prev_distance_km":1.199,"cumulative_distance_km":76.198,"amap_marker_url":"https://uri.amap.com/marker?position=118.681778,43.531180&name=%E8%B5%9B%E4%BC%8A%E6%B1%97%E5%85%BD%E8%8D%AF%E5%BA%97&src=vetmap&coordinate=gaode&callnative=1","route_id":"r1","route_name":"第1段","global_order":4},{"name":"金牧兽药疫苗","address":"北市街东","phone":"15047619292","category":"医疗保健服务;动物医疗场所;动物医疗场所","area":"","lng":118.684813,"lat":43.531573,"amap_id":"B0K0HUKYDI","order":5,"prev_distance_km":0.249,"cumulative_distance_km":76.447,"amap_marker_url":"https://uri.amap.com/marker?position=118.684813,43.531573&name=%E9%87%91%E7%89%A7%E5%85%BD%E8%8D%AF%E7%96%AB%E8%8B%97&src=vetmap&coordinate=gaode&callnative=1","route_id":"r1","route_name":"第1段","global_order":5},{"name":"君马兽药店","address":"查干沐沦街北段16-5","phone":"","category":"医疗保健服务;动物医疗场所;动物医疗场所","area":"荟福路","lng":118.684489,"lat":43.529464,"amap_id":"B0JGAHAZTY","order":6,"prev_distance_km":0.236,"cumulative_distance_km":76.683,"amap_marker_url":"https://uri.amap.com/marker?position=118.684489,43.529464&name=%E5%90%9B%E9%A9%AC%E5%85%BD%E8%8D%AF%E5%BA%97&src=vetmap&coordinate=gaode&callnative=1","route_id":"r1","route_name":"第1段","global_order":6},{"name":"长垣畜牧兽医服务有限公司","address":"查干沐沦街与兴安胡同交叉口西140米","phone":"","category":"医疗保健服务;动物医疗场所;兽医站","area":"","lng":118.685225,"lat":43.529275,"amap_id":"B0M6K7BZVT","order":7,"prev_distance_km":0.063,"cumulative_distance_km":76.745,"amap_marker_url":"https://uri.amap.com/marker?position=118.685225,43.529275&name=%E9%95%BF%E5%9E%A3%E7%95%9C%E7%89%A7%E5%85%BD%E5%8C%BB%E6%9C%8D%E5%8A%A1%E6%9C%89%E9%99%90%E5%85%AC%E5%8F%B8&src=vetmap&coordinate=gaode&callnative=1","route_id":"r1","route_name":"第1段","global_order":7},{"name":"九州宠物医院","address":"查干沐沦街67-7九州兽医2层","phone":"13848469823;13848860620","category":"医疗保健服务;动物医疗场所;宠物诊所","area":"","lng":118.689476,"lat":43.526715,"amap_id":"B0FFJXXDPN","order":8,"prev_distance_km":0.446,"cumulative_distance_km":77.191,"amap_marker_url":"https://uri.amap.com/marker?position=118.689476,43.526715&name=%E4%B9%9D%E5%B7%9E%E5%AE%A0%E7%89%A9%E5%8C%BB%E9%99%A2&src=vetmap&coordinate=gaode&callnative=1","route_id":"r1","route_name":"第1段","global_order":8},{"name":"巴林右旗达尔畜牧兽医服务有限公司","address":"大板镇五区省际通道南段东段北侧05","phone":"13113560631;18525778721","category":"医疗保健服务;动物医疗场所;兽医站","area":"","lng":118.742482,"lat":43.512746,"amap_id":"B0K635T3VK","order":9,"prev_distance_km":4.547,"cumulative_distance_km":81.738,"amap_marker_url":"https://uri.amap.com/marker?position=118.742482,43.512746&name=%E5%B7%B4%E6%9E%97%E5%8F%B3%E6%97%97%E8%BE%BE%E5%B0%94%E7%95%9C%E7%89%A7%E5%85%BD%E5%8C%BB%E6%9C%8D%E5%8A%A1%E6%9C%89%E9%99%90%E5%85%AC%E5%8F%B8&src=vetmap&coordinate=gaode&callnative=1","route_id":"r1","route_name":"第1段","global_order":9},{"name":"胡日哈兽药店","address":"西拉沐沦苏木人民政府南侧230米","phone":"","category":"医疗保健服务;动物医疗场所;动物医疗场所","area":"","lng":119.811525,"lat":43.461025,"amap_id":"B0M67MWL6S","order":10,"prev_distance_km":86.437,"cumulative_distance_km":168.175,"amap_marker_url":"https://uri.amap.com/marker?position=119.811525,43.461025&name=%E8%83%A1%E6%97%A5%E5%93%88%E5%85%BD%E8%8D%AF%E5%BA%97&src=vetmap&coordinate=gaode&callnative=1","route_id":"r1","route_name":"第1段","global_order":10}]}