{"summary":{"id":"d00122","province":"北京市","city":"北京市","district":"平谷区","count":12,"total_distance_km":20.174,"coordinate_system":"GCJ-02 / Amap","generated_at":"2026-05-07 19:55:52"},"rows":[{"name":"平谷区动物疫病预防控制中心(平关路店)","address":"小辛寨桥","phone":"010-60955825","category":"医疗保健服务;动物医疗场所;动物医疗场所","area":"","lng":117.092354,"lat":40.163835,"amap_id":"B0FFG55K9Y","order":1,"prev_distance_km":0.0,"cumulative_distance_km":0.0,"amap_marker_url":"https://uri.amap.com/marker?position=117.092354,40.163835&name=%E5%B9%B3%E8%B0%B7%E5%8C%BA%E5%8A%A8%E7%89%A9%E7%96%AB%E7%97%85%E9%A2%84%E9%98%B2%E6%8E%A7%E5%88%B6%E4%B8%AD%E5%BF%83%28%E5%B9%B3%E5%85%B3%E8%B7%AF%E5%BA%97%29&src=vetmap&coordinate=gaode&callnative=1"},{"name":"北京天瑞萌宠物医院","address":"平谷大街18-5号","phone":"010-69962850","category":"医疗保健服务;动物医疗场所;宠物诊所","area":"兴谷","lng":117.115955,"lat":40.157875,"amap_id":"B0FFJGP7FP","order":2,"prev_distance_km":2.112,"cumulative_distance_km":2.112,"amap_marker_url":"https://uri.amap.com/marker?position=117.115955,40.157875&name=%E5%8C%97%E4%BA%AC%E5%A4%A9%E7%91%9E%E8%90%8C%E5%AE%A0%E7%89%A9%E5%8C%BB%E9%99%A2&src=vetmap&coordinate=gaode&callnative=1"},{"name":"知心宠物诊所(兴谷乐园小区东区1号楼店)","address":"乐园东小区1号楼","phone":"010-69963052","category":"医疗保健服务;动物医疗场所;宠物诊所","area":"兴谷","lng":117.121515,"lat":40.153655,"amap_id":"B000A8X9M0","order":3,"prev_distance_km":0.666,"cumulative_distance_km":2.778,"amap_marker_url":"https://uri.amap.com/marker?position=117.121515,40.153655&name=%E7%9F%A5%E5%BF%83%E5%AE%A0%E7%89%A9%E8%AF%8A%E6%89%80%28%E5%85%B4%E8%B0%B7%E4%B9%90%E5%9B%AD%E5%B0%8F%E5%8C%BA%E4%B8%9C%E5%8C%BA1%E5%8F%B7%E6%A5%BC%E5%BA%97%29&src=vetmap&coordinate=gaode&callnative=1"},{"name":"宠物诊所","address":"平蓟路与北环路交叉口西南100米","phone":"","category":"医疗保健服务;动物医疗场所;宠物诊所","area":"","lng":117.132827,"lat":40.149448,"amap_id":"B0LR3NAOWR","order":4,"prev_distance_km":1.069,"cumulative_distance_km":3.847,"amap_marker_url":"https://uri.amap.com/marker?position=117.132827,40.149448&name=%E5%AE%A0%E7%89%A9%E8%AF%8A%E6%89%80&src=vetmap&coordinate=gaode&callnative=1"},{"name":"北京爱尚宠物医院","address":"闲人屋网吧西侧","phone":"","category":"医疗保健服务;动物医疗场所;宠物诊所","area":"王辛庄村","lng":117.113129,"lat":40.147315,"amap_id":"B0LB1ASFQ9","order":5,"prev_distance_km":1.691,"cumulative_distance_km":5.538,"amap_marker_url":"https://uri.amap.com/marker?position=117.113129,40.147315&name=%E5%8C%97%E4%BA%AC%E7%88%B1%E5%B0%9A%E5%AE%A0%E7%89%A9%E5%8C%BB%E9%99%A2&src=vetmap&coordinate=gaode&callnative=1"},{"name":"谷泰动保动物诊所","address":"滨河街道叫响金街2号","phone":"","category":"医疗保健服务;动物医疗场所;宠物诊所","area":"","lng":117.122816,"lat":40.13966,"amap_id":"B0L2AU1NQY","order":6,"prev_distance_km":1.184,"cumulative_distance_km":6.723,"amap_marker_url":"https://uri.amap.com/marker?position=117.122816,40.139660&name=%E8%B0%B7%E6%B3%B0%E5%8A%A8%E4%BF%9D%E5%8A%A8%E7%89%A9%E8%AF%8A%E6%89%80&src=vetmap&coordinate=gaode&callnative=1"},{"name":"卓越动物医院(文化南街店)","address":"南小区南区北门旁","phone":"13121010175","category":"医疗保健服务;动物医疗场所;宠物诊所","area":"","lng":117.112177,"lat":40.134653,"amap_id":"B0FFJT9CK4","order":7,"prev_distance_km":1.062,"cumulative_distance_km":7.785,"amap_marker_url":"https://uri.amap.com/marker?position=117.112177,40.134653&name=%E5%8D%93%E8%B6%8A%E5%8A%A8%E7%89%A9%E5%8C%BB%E9%99%A2%28%E6%96%87%E5%8C%96%E5%8D%97%E8%A1%97%E5%BA%97%29&src=vetmap&coordinate=gaode&callnative=1"},{"name":"北京四叶草动物诊所","address":"平谷镇建设西街2号楼1层-1-2","phone":"15300098039","category":"医疗保健服务;动物医疗场所;宠物诊所","area":"","lng":117.110671,"lat":40.136787,"amap_id":"B0M6BCGPN0","order":8,"prev_distance_km":0.27,"cumulative_distance_km":8.054,"amap_marker_url":"https://uri.amap.com/marker?position=117.110671,40.136787&name=%E5%8C%97%E4%BA%AC%E5%9B%9B%E5%8F%B6%E8%8D%89%E5%8A%A8%E7%89%A9%E8%AF%8A%E6%89%80&src=vetmap&coordinate=gaode&callnative=1"},{"name":"欧卡乔动物医院","address":"林荫南街与建设西街交叉口西南80米","phone":"","category":"医疗保健服务;动物医疗场所;宠物诊所","area":"","lng":117.105272,"lat":40.136195,"amap_id":"B0JG07D5A9","order":9,"prev_distance_km":0.464,"cumulative_distance_km":8.518,"amap_marker_url":"https://uri.amap.com/marker?position=117.105272,40.136195&name=%E6%AC%A7%E5%8D%A1%E4%B9%94%E5%8A%A8%E7%89%A9%E5%8C%BB%E9%99%A2&src=vetmap&coordinate=gaode&callnative=1"},{"name":"宠福鑫动物医院(康馨分院)","address":"东方国际公寓底商5-3号","phone":"010-69967697","category":"医疗保健服务;动物医疗场所;宠物诊所","area":"","lng":117.105273,"lat":40.138926,"amap_id":"B0FFKB2N7Z","order":10,"prev_distance_km":0.304,"cumulative_distance_km":8.822,"amap_marker_url":"https://uri.amap.com/marker?position=117.105273,40.138926&name=%E5%AE%A0%E7%A6%8F%E9%91%AB%E5%8A%A8%E7%89%A9%E5%8C%BB%E9%99%A2%28%E5%BA%B7%E9%A6%A8%E5%88%86%E9%99%A2%29&src=vetmap&coordinate=gaode&callnative=1"},{"name":"北京益宠堂动物医院","address":"西环南路5号-31","phone":"18110024905","category":"医疗保健服务;动物医疗场所;宠物诊所","area":"","lng":117.095853,"lat":40.13759,"amap_id":"B0FFJX94UU","order":11,"prev_distance_km":0.814,"cumulative_distance_km":9.636,"amap_marker_url":"https://uri.amap.com/marker?position=117.095853,40.137590&name=%E5%8C%97%E4%BA%AC%E7%9B%8A%E5%AE%A0%E5%A0%82%E5%8A%A8%E7%89%A9%E5%8C%BB%E9%99%A2&src=vetmap&coordinate=gaode&callnative=1"},{"name":"爱尚宠物医院","address":"小屯新路2号院13-2","phone":"13436672512;18911809632","category":"医疗保健服务;动物医疗场所;宠物诊所","area":"","lng":117.016279,"lat":40.064951,"amap_id":"B0I62RHVDD","order":12,"prev_distance_km":10.538,"cumulative_distance_km":20.174,"amap_marker_url":"https://uri.amap.com/marker?position=117.016279,40.064951&name=%E7%88%B1%E5%B0%9A%E5%AE%A0%E7%89%A9%E5%8C%BB%E9%99%A2&src=vetmap&coordinate=gaode&callnative=1"}]}