{"summary":{"id":"d00123","province":"北京市","city":"北京市","district":"延庆区","count":11,"total_distance_km":18.085,"coordinate_system":"GCJ-02 / Amap","generated_at":"2026-05-07 20:21:17"},"rows":[{"name":"康升宠物医院","address":"兴隆北街68号","phone":"010-69131001;15801027879","category":"医疗保健服务;动物医疗场所;宠物诊所","area":"康庄","lng":115.901304,"lat":40.376913,"amap_id":"B0LRL7N9QV","order":1,"prev_distance_km":0.0,"cumulative_distance_km":0.0,"amap_marker_url":"https://uri.amap.com/marker?position=115.901304,40.376913&name=%E5%BA%B7%E5%8D%87%E5%AE%A0%E7%89%A9%E5%8C%BB%E9%99%A2&src=vetmap&coordinate=gaode&callnative=1"},{"name":"北京市水生野生动植物救护中心","address":"大榆树镇西杏园村300号","phone":"010-81191407","category":"医疗保健服务;动物医疗场所;动物医疗场所","area":"","lng":115.979062,"lat":40.42483,"amap_id":"B0FFKVG8J5","order":2,"prev_distance_km":8.47,"cumulative_distance_km":8.47,"amap_marker_url":"https://uri.amap.com/marker?position=115.979062,40.424830&name=%E5%8C%97%E4%BA%AC%E5%B8%82%E6%B0%B4%E7%94%9F%E9%87%8E%E7%94%9F%E5%8A%A8%E6%A4%8D%E7%89%A9%E6%95%91%E6%8A%A4%E4%B8%AD%E5%BF%83&src=vetmap&coordinate=gaode&callnative=1"},{"name":"北京康昇动物医院","address":"燕水佳园甲14-1","phone":"010-69178818;13810382224","category":"医疗保健服务;动物医疗场所;宠物诊所","area":"","lng":115.991551,"lat":40.44255,"amap_id":"B0LBL5MYRB","order":3,"prev_distance_km":2.236,"cumulative_distance_km":10.706,"amap_marker_url":"https://uri.amap.com/marker?position=115.991551,40.442550&name=%E5%8C%97%E4%BA%AC%E5%BA%B7%E6%98%87%E5%8A%A8%E7%89%A9%E5%8C%BB%E9%99%A2&src=vetmap&coordinate=gaode&callnative=1"},{"name":"北京诚安动物医院","address":"妫水南街19号","phone":"010-69172820","category":"医疗保健服务;动物医疗场所;宠物诊所","area":"","lng":115.984712,"lat":40.447872,"amap_id":"B0FFKMECW4","order":4,"prev_distance_km":0.828,"cumulative_distance_km":11.534,"amap_marker_url":"https://uri.amap.com/marker?position=115.984712,40.447872&name=%E5%8C%97%E4%BA%AC%E8%AF%9A%E5%AE%89%E5%8A%A8%E7%89%A9%E5%8C%BB%E9%99%A2&src=vetmap&coordinate=gaode&callnative=1"},{"name":"北京康安动物医院(猫专科)","address":"延康路与玉皇阁大街交叉口西100米","phone":"010-69101720","category":"医疗保健服务;动物医疗场所;宠物诊所","area":"","lng":115.969765,"lat":40.455263,"amap_id":"B0I1XHR9RB","order":5,"prev_distance_km":1.508,"cumulative_distance_km":13.042,"amap_marker_url":"https://uri.amap.com/marker?position=115.969765,40.455263&name=%E5%8C%97%E4%BA%AC%E5%BA%B7%E5%AE%89%E5%8A%A8%E7%89%A9%E5%8C%BB%E9%99%A2%28%E7%8C%AB%E4%B8%93%E7%A7%91%29&src=vetmap&coordinate=gaode&callnative=1"},{"name":"恒诺动物医院","address":"玉皇阁大街1号楼6门","phone":"010-81199320;13911683612","category":"医疗保健服务;动物医疗场所;宠物诊所","area":"","lng":115.970034,"lat":40.460136,"amap_id":"B0IUHSP5AU","order":6,"prev_distance_km":0.542,"cumulative_distance_km":13.585,"amap_marker_url":"https://uri.amap.com/marker?position=115.970034,40.460136&name=%E6%81%92%E8%AF%BA%E5%8A%A8%E7%89%A9%E5%8C%BB%E9%99%A2&src=vetmap&coordinate=gaode&callnative=1"},{"name":"北京宠安动物医院(延庆新兴小区店)","address":"延庆镇新兴小区51号楼北甲10号","phone":"010-69176961","category":"医疗保健服务;动物医疗场所;宠物诊所","area":"","lng":115.987564,"lat":40.472662,"amap_id":"B0FFHQ8FB9","order":7,"prev_distance_km":2.034,"cumulative_distance_km":15.619,"amap_marker_url":"https://uri.amap.com/marker?position=115.987564,40.472662&name=%E5%8C%97%E4%BA%AC%E5%AE%A0%E5%AE%89%E5%8A%A8%E7%89%A9%E5%8C%BB%E9%99%A2%28%E5%BB%B6%E5%BA%86%E6%96%B0%E5%85%B4%E5%B0%8F%E5%8C%BA%E5%BA%97%29&src=vetmap&coordinate=gaode&callnative=1"},{"name":"北京至诚动物医院(高塔街店)","address":"香苑小区东南门旁","phone":"010-61113852;15910949282","category":"医疗保健服务;动物医疗场所;宠物诊所","area":"","lng":115.993999,"lat":40.468532,"amap_id":"B0HB9ADRAM","order":8,"prev_distance_km":0.712,"cumulative_distance_km":16.331,"amap_marker_url":"https://uri.amap.com/marker?position=115.993999,40.468532&name=%E5%8C%97%E4%BA%AC%E8%87%B3%E8%AF%9A%E5%8A%A8%E7%89%A9%E5%8C%BB%E9%99%A2%28%E9%AB%98%E5%A1%94%E8%A1%97%E5%BA%97%29&src=vetmap&coordinate=gaode&callnative=1"},{"name":"北京康生动物医院","address":"延庆火车站小区南","phone":"010-51051001","category":"医疗保健服务;动物医疗场所;宠物诊所|医疗保健服务;动物医疗场所;兽医站","area":"","lng":115.998414,"lat":40.473797,"amap_id":"B000A8XDDI","order":9,"prev_distance_km":0.694,"cumulative_distance_km":17.026,"amap_marker_url":"https://uri.amap.com/marker?position=115.998414,40.473797&name=%E5%8C%97%E4%BA%AC%E5%BA%B7%E7%94%9F%E5%8A%A8%E7%89%A9%E5%8C%BB%E9%99%A2&src=vetmap&coordinate=gaode&callnative=1"},{"name":"北京市延庆区动物疫病预防控制中心","address":"延庆镇七里墩","phone":"","category":"医疗保健服务;动物医疗场所;动物医疗场所","area":"","lng":116.010182,"lat":40.476526,"amap_id":"B0KUBHQPYS","order":10,"prev_distance_km":1.041,"cumulative_distance_km":18.066,"amap_marker_url":"https://uri.amap.com/marker?position=116.010182,40.476526&name=%E5%8C%97%E4%BA%AC%E5%B8%82%E5%BB%B6%E5%BA%86%E5%8C%BA%E5%8A%A8%E7%89%A9%E7%96%AB%E7%97%85%E9%A2%84%E9%98%B2%E6%8E%A7%E5%88%B6%E4%B8%AD%E5%BF%83&src=vetmap&coordinate=gaode&callnative=1"},{"name":"延庆区动物检疫申报点","address":"河广路与延琉路交叉口西北60米","phone":"010-69143628","category":"医疗保健服务;动物医疗场所;动物医疗场所","area":"","lng":116.010331,"lat":40.476405,"amap_id":"B0FFGCIVYQ","order":11,"prev_distance_km":0.018,"cumulative_distance_km":18.085,"amap_marker_url":"https://uri.amap.com/marker?position=116.010331,40.476405&name=%E5%BB%B6%E5%BA%86%E5%8C%BA%E5%8A%A8%E7%89%A9%E6%A3%80%E7%96%AB%E7%94%B3%E6%8A%A5%E7%82%B9&src=vetmap&coordinate=gaode&callnative=1"}]}