{"summary":{"id":"d00154","province":"吉林省","city":"延边朝鲜族自治州","district":"珲春市","count":9,"route_count":1,"max_route_clinics":9,"total_distance_km":4.938,"coordinate_system":"GCJ-02 / Amap","generated_at":"2026-05-08 19:40:09"},"routes":[{"id":"r1","name":"第1段","count":9,"total_distance_km":4.938,"rows":[{"name":"犬乐宠物","address":"文化路与渤海大街交叉口北500米","phone":"","category":"医疗保健服务;动物医疗场所;动物医疗场所","area":"","lng":130.361346,"lat":42.885358,"amap_id":"B0LDK1QEBD","order":1,"prev_distance_km":0.0,"cumulative_distance_km":0.0,"amap_marker_url":"https://uri.amap.com/marker?position=130.361346,42.885358&name=%E7%8A%AC%E4%B9%90%E5%AE%A0%E7%89%A9&src=vetmap&coordinate=gaode&callnative=1","route_id":"r1","route_name":"第1段"},{"name":"80后宠物诊所","address":"渤海大街雅居庭苑门市","phone":"13944352300","category":"医疗保健服务;动物医疗场所;宠物诊所","area":"靖和","lng":130.367749,"lat":42.882343,"amap_id":"B0JR19W0ET","order":2,"prev_distance_km":0.62,"cumulative_distance_km":0.62,"amap_marker_url":"https://uri.amap.com/marker?position=130.367749,42.882343&name=80%E5%90%8E%E5%AE%A0%E7%89%A9%E8%AF%8A%E6%89%80&src=vetmap&coordinate=gaode&callnative=1","route_id":"r1","route_name":"第1段"},{"name":"酷爱宠物医院","address":"珲春市基督教会西南门东南330米","phone":"15568079222","category":"医疗保健服务;动物医疗场所;宠物诊所","area":"靖和","lng":130.371522,"lat":42.879072,"amap_id":"B0FFJSPA8N","order":3,"prev_distance_km":0.476,"cumulative_distance_km":1.096,"amap_marker_url":"https://uri.amap.com/marker?position=130.371522,42.879072&name=%E9%85%B7%E7%88%B1%E5%AE%A0%E7%89%A9%E5%8C%BB%E9%99%A2&src=vetmap&coordinate=gaode&callnative=1","route_id":"r1","route_name":"第1段"},{"name":"春成动物诊所","address":"天鑫家园门市","phone":"18743393909","category":"医疗保健服务;动物医疗场所;宠物诊所","area":"","lng":130.377333,"lat":42.878005,"amap_id":"B0LGLZIYHF","order":4,"prev_distance_km":0.488,"cumulative_distance_km":1.585,"amap_marker_url":"https://uri.amap.com/marker?position=130.377333,42.878005&name=%E6%98%A5%E6%88%90%E5%8A%A8%E7%89%A9%E8%AF%8A%E6%89%80&src=vetmap&coordinate=gaode&callnative=1","route_id":"r1","route_name":"第1段"},{"name":"爱宠之家动物诊所(沿河西街店)","address":"沿河西街333号","phone":"15844393877","category":"医疗保健服务;动物医疗场所;宠物诊所","area":"靖和","lng":130.37189,"lat":42.869478,"amap_id":"B059900BMU","order":5,"prev_distance_km":1.047,"cumulative_distance_km":2.631,"amap_marker_url":"https://uri.amap.com/marker?position=130.371890,42.869478&name=%E7%88%B1%E5%AE%A0%E4%B9%8B%E5%AE%B6%E5%8A%A8%E7%89%A9%E8%AF%8A%E6%89%80%28%E6%B2%BF%E6%B2%B3%E8%A5%BF%E8%A1%97%E5%BA%97%29&src=vetmap&coordinate=gaode&callnative=1","route_id":"r1","route_name":"第1段"},{"name":"贝贝动物医院","address":"新安街团结委1号楼208室","phone":"0433-7530520;15568099199","category":"医疗保健服务;动物医疗场所;宠物诊所","area":"","lng":130.35545,"lat":42.867857,"amap_id":"B0K2LRQ5KB","order":6,"prev_distance_km":1.352,"cumulative_distance_km":3.983,"amap_marker_url":"https://uri.amap.com/marker?position=130.355450,42.867857&name=%E8%B4%9D%E8%B4%9D%E5%8A%A8%E7%89%A9%E5%8C%BB%E9%99%A2&src=vetmap&coordinate=gaode&callnative=1","route_id":"r1","route_name":"第1段"},{"name":"中兴动物诊所","address":"友谊胡同与口岸大路交叉口东北80米","phone":"","category":"医疗保健服务;动物医疗场所;宠物诊所","area":"","lng":130.354125,"lat":42.862825,"amap_id":"B0K1ZCZDZE","order":7,"prev_distance_km":0.57,"cumulative_distance_km":4.553,"amap_marker_url":"https://uri.amap.com/marker?position=130.354125,42.862825&name=%E4%B8%AD%E5%85%B4%E5%8A%A8%E7%89%A9%E8%AF%8A%E6%89%80&src=vetmap&coordinate=gaode&callnative=1","route_id":"r1","route_name":"第1段"},{"name":"向阳动物诊所","address":"口岸大路1848号","phone":"13039181297;13179152675","category":"医疗保健服务;动物医疗场所;宠物诊所","area":"","lng":130.353762,"lat":42.862052,"amap_id":"B0L65GL0HF","order":8,"prev_distance_km":0.091,"cumulative_distance_km":4.644,"amap_marker_url":"https://uri.amap.com/marker?position=130.353762,42.862052&name=%E5%90%91%E9%98%B3%E5%8A%A8%E7%89%A9%E8%AF%8A%E6%89%80&src=vetmap&coordinate=gaode&callnative=1","route_id":"r1","route_name":"第1段"},{"name":"珲春市春城兽医站","address":"跃丰生态园西北门旁","phone":"","category":"医疗保健服务;动物医疗场所;兽医站","area":"","lng":130.353639,"lat":42.859409,"amap_id":"B0FFG0OFFP","order":9,"prev_distance_km":0.294,"cumulative_distance_km":4.938,"amap_marker_url":"https://uri.amap.com/marker?position=130.353639,42.859409&name=%E7%8F%B2%E6%98%A5%E5%B8%82%E6%98%A5%E5%9F%8E%E5%85%BD%E5%8C%BB%E7%AB%99&src=vetmap&coordinate=gaode&callnative=1","route_id":"r1","route_name":"第1段"}]}],"rows":[{"name":"犬乐宠物","address":"文化路与渤海大街交叉口北500米","phone":"","category":"医疗保健服务;动物医疗场所;动物医疗场所","area":"","lng":130.361346,"lat":42.885358,"amap_id":"B0LDK1QEBD","order":1,"prev_distance_km":0.0,"cumulative_distance_km":0.0,"amap_marker_url":"https://uri.amap.com/marker?position=130.361346,42.885358&name=%E7%8A%AC%E4%B9%90%E5%AE%A0%E7%89%A9&src=vetmap&coordinate=gaode&callnative=1","route_id":"r1","route_name":"第1段","global_order":1},{"name":"80后宠物诊所","address":"渤海大街雅居庭苑门市","phone":"13944352300","category":"医疗保健服务;动物医疗场所;宠物诊所","area":"靖和","lng":130.367749,"lat":42.882343,"amap_id":"B0JR19W0ET","order":2,"prev_distance_km":0.62,"cumulative_distance_km":0.62,"amap_marker_url":"https://uri.amap.com/marker?position=130.367749,42.882343&name=80%E5%90%8E%E5%AE%A0%E7%89%A9%E8%AF%8A%E6%89%80&src=vetmap&coordinate=gaode&callnative=1","route_id":"r1","route_name":"第1段","global_order":2},{"name":"酷爱宠物医院","address":"珲春市基督教会西南门东南330米","phone":"15568079222","category":"医疗保健服务;动物医疗场所;宠物诊所","area":"靖和","lng":130.371522,"lat":42.879072,"amap_id":"B0FFJSPA8N","order":3,"prev_distance_km":0.476,"cumulative_distance_km":1.096,"amap_marker_url":"https://uri.amap.com/marker?position=130.371522,42.879072&name=%E9%85%B7%E7%88%B1%E5%AE%A0%E7%89%A9%E5%8C%BB%E9%99%A2&src=vetmap&coordinate=gaode&callnative=1","route_id":"r1","route_name":"第1段","global_order":3},{"name":"春成动物诊所","address":"天鑫家园门市","phone":"18743393909","category":"医疗保健服务;动物医疗场所;宠物诊所","area":"","lng":130.377333,"lat":42.878005,"amap_id":"B0LGLZIYHF","order":4,"prev_distance_km":0.488,"cumulative_distance_km":1.585,"amap_marker_url":"https://uri.amap.com/marker?position=130.377333,42.878005&name=%E6%98%A5%E6%88%90%E5%8A%A8%E7%89%A9%E8%AF%8A%E6%89%80&src=vetmap&coordinate=gaode&callnative=1","route_id":"r1","route_name":"第1段","global_order":4},{"name":"爱宠之家动物诊所(沿河西街店)","address":"沿河西街333号","phone":"15844393877","category":"医疗保健服务;动物医疗场所;宠物诊所","area":"靖和","lng":130.37189,"lat":42.869478,"amap_id":"B059900BMU","order":5,"prev_distance_km":1.047,"cumulative_distance_km":2.631,"amap_marker_url":"https://uri.amap.com/marker?position=130.371890,42.869478&name=%E7%88%B1%E5%AE%A0%E4%B9%8B%E5%AE%B6%E5%8A%A8%E7%89%A9%E8%AF%8A%E6%89%80%28%E6%B2%BF%E6%B2%B3%E8%A5%BF%E8%A1%97%E5%BA%97%29&src=vetmap&coordinate=gaode&callnative=1","route_id":"r1","route_name":"第1段","global_order":5},{"name":"贝贝动物医院","address":"新安街团结委1号楼208室","phone":"0433-7530520;15568099199","category":"医疗保健服务;动物医疗场所;宠物诊所","area":"","lng":130.35545,"lat":42.867857,"amap_id":"B0K2LRQ5KB","order":6,"prev_distance_km":1.352,"cumulative_distance_km":3.983,"amap_marker_url":"https://uri.amap.com/marker?position=130.355450,42.867857&name=%E8%B4%9D%E8%B4%9D%E5%8A%A8%E7%89%A9%E5%8C%BB%E9%99%A2&src=vetmap&coordinate=gaode&callnative=1","route_id":"r1","route_name":"第1段","global_order":6},{"name":"中兴动物诊所","address":"友谊胡同与口岸大路交叉口东北80米","phone":"","category":"医疗保健服务;动物医疗场所;宠物诊所","area":"","lng":130.354125,"lat":42.862825,"amap_id":"B0K1ZCZDZE","order":7,"prev_distance_km":0.57,"cumulative_distance_km":4.553,"amap_marker_url":"https://uri.amap.com/marker?position=130.354125,42.862825&name=%E4%B8%AD%E5%85%B4%E5%8A%A8%E7%89%A9%E8%AF%8A%E6%89%80&src=vetmap&coordinate=gaode&callnative=1","route_id":"r1","route_name":"第1段","global_order":7},{"name":"向阳动物诊所","address":"口岸大路1848号","phone":"13039181297;13179152675","category":"医疗保健服务;动物医疗场所;宠物诊所","area":"","lng":130.353762,"lat":42.862052,"amap_id":"B0L65GL0HF","order":8,"prev_distance_km":0.091,"cumulative_distance_km":4.644,"amap_marker_url":"https://uri.amap.com/marker?position=130.353762,42.862052&name=%E5%90%91%E9%98%B3%E5%8A%A8%E7%89%A9%E8%AF%8A%E6%89%80&src=vetmap&coordinate=gaode&callnative=1","route_id":"r1","route_name":"第1段","global_order":8},{"name":"珲春市春城兽医站","address":"跃丰生态园西北门旁","phone":"","category":"医疗保健服务;动物医疗场所;兽医站","area":"","lng":130.353639,"lat":42.859409,"amap_id":"B0FFG0OFFP","order":9,"prev_distance_km":0.294,"cumulative_distance_km":4.938,"amap_marker_url":"https://uri.amap.com/marker?position=130.353639,42.859409&name=%E7%8F%B2%E6%98%A5%E5%B8%82%E6%98%A5%E5%9F%8E%E5%85%BD%E5%8C%BB%E7%AB%99&src=vetmap&coordinate=gaode&callnative=1","route_id":"r1","route_name":"第1段","global_order":9}]}