{"summary":{"id":"d00184","province":"吉林省","city":"长春市","district":"农安县","count":53,"route_count":2,"max_route_clinics":27,"total_distance_km":256.763,"coordinate_system":"GCJ-02 / Amap","generated_at":"2026-05-08 19:40:12"},"routes":[{"id":"r1","name":"第1段","count":26,"total_distance_km":135.905,"rows":[{"name":"农安县烧锅镇畜牧兽医站","address":"天成路与中兴街交叉口西360米","phone":"","category":"医疗保健服务;动物医疗场所;兽医站","area":"","lng":124.993275,"lat":43.989825,"amap_id":"B0FFL1PBBI","order":1,"prev_distance_km":0.0,"cumulative_distance_km":0.0,"amap_marker_url":"https://uri.amap.com/marker?position=124.993275,43.989825&name=%E5%86%9C%E5%AE%89%E5%8E%BF%E7%83%A7%E9%94%85%E9%95%87%E7%95%9C%E7%89%A7%E5%85%BD%E5%8C%BB%E7%AB%99&src=vetmap&coordinate=gaode&callnative=1","route_id":"r1","route_name":"第1段"},{"name":"沈阳兽药店","address":"东盛路与中兴街交叉口西220米","phone":"13756278828","category":"医疗保健服务;动物医疗场所;动物医疗场所","area":"","lng":124.994462,"lat":43.992433,"amap_id":"B0FFH6CM6A","order":2,"prev_distance_km":0.305,"cumulative_distance_km":0.305,"amap_marker_url":"https://uri.amap.com/marker?position=124.994462,43.992433&name=%E6%B2%88%E9%98%B3%E5%85%BD%E8%8D%AF%E5%BA%97&src=vetmap&coordinate=gaode&callnative=1","route_id":"r1","route_name":"第1段"},{"name":"齐心村兽医所","address":"东盛路与中兴街交叉口西南120米","phone":"","category":"医疗保健服务;动物医疗场所;兽医站","area":"","lng":124.995646,"lat":43.992435,"amap_id":"B0FFG805V5","order":3,"prev_distance_km":0.095,"cumulative_distance_km":0.4,"amap_marker_url":"https://uri.amap.com/marker?position=124.995646,43.992435&name=%E9%BD%90%E5%BF%83%E6%9D%91%E5%85%BD%E5%8C%BB%E6%89%80&src=vetmap&coordinate=gaode&callnative=1","route_id":"r1","route_name":"第1段"},{"name":"志彬动物诊所","address":"烧锅镇隆达小区一栋121","phone":"15500075730","category":"医疗保健服务;动物医疗场所;宠物诊所","area":"","lng":125.021145,"lat":43.999692,"amap_id":"B0FFG804QP","order":4,"prev_distance_km":2.194,"cumulative_distance_km":2.593,"amap_marker_url":"https://uri.amap.com/marker?position=125.021145,43.999692&name=%E5%BF%97%E5%BD%AC%E5%8A%A8%E7%89%A9%E8%AF%8A%E6%89%80&src=vetmap&coordinate=gaode&callnative=1","route_id":"r1","route_name":"第1段"},{"name":"云龙兽医兽药","address":"前进大街与开安大路交叉口北100米","phone":"","category":"医疗保健服务;动物医疗场所;兽医站","area":"","lng":125.205846,"lat":44.168403,"amap_id":"B0FFI2NI37","order":5,"prev_distance_km":23.866,"cumulative_distance_km":26.459,"amap_marker_url":"https://uri.amap.com/marker?position=125.205846,44.168403&name=%E4%BA%91%E9%BE%99%E5%85%BD%E5%8C%BB%E5%85%BD%E8%8D%AF&src=vetmap&coordinate=gaode&callnative=1","route_id":"r1","route_name":"第1段"},{"name":"小家畜兽药商店","address":"宏光大街与开安大路交叉口北40米","phone":"","category":"医疗保健服务;动物医疗场所;兽医站","area":"","lng":125.208716,"lat":44.168428,"amap_id":"B0FFG5BHPD","order":6,"prev_distance_km":0.229,"cumulative_distance_km":26.688,"amap_marker_url":"https://uri.amap.com/marker?position=125.208716,44.168428&name=%E5%B0%8F%E5%AE%B6%E7%95%9C%E5%85%BD%E8%8D%AF%E5%95%86%E5%BA%97&src=vetmap&coordinate=gaode&callnative=1","route_id":"r1","route_name":"第1段"},{"name":"常发兽医诊所","address":"004县道与开拓路交叉口南120米","phone":"","category":"医疗保健服务;动物医疗场所;兽医站","area":"","lng":125.270925,"lat":44.262625,"amap_id":"B0LA5LU4OH","order":7,"prev_distance_km":11.588,"cumulative_distance_km":38.276,"amap_marker_url":"https://uri.amap.com/marker?position=125.270925,44.262625&name=%E5%B8%B8%E5%8F%91%E5%85%BD%E5%8C%BB%E8%AF%8A%E6%89%80&src=vetmap&coordinate=gaode&callnative=1","route_id":"r1","route_name":"第1段"},{"name":"康发动物医院","address":"宽平路与009县道交叉口东北340米","phone":"","category":"医疗保健服务;动物医疗场所;宠物诊所","area":"","lng":125.369075,"lat":44.317525,"amap_id":"B0M63CA3H6","order":8,"prev_distance_km":9.915,"cumulative_distance_km":48.191,"amap_marker_url":"https://uri.amap.com/marker?position=125.369075,44.317525&name=%E5%BA%B7%E5%8F%91%E5%8A%A8%E7%89%A9%E5%8C%BB%E9%99%A2&src=vetmap&coordinate=gaode&callnative=1","route_id":"r1","route_name":"第1段"},{"name":"吉牧兽药店","address":"鲍家镇宽平街","phone":"17390059939","category":"医疗保健服务;动物医疗场所;动物医疗场所","area":"","lng":125.3696,"lat":44.317797,"amap_id":"B0LAUH1MYA","order":9,"prev_distance_km":0.052,"cumulative_distance_km":48.242,"amap_marker_url":"https://uri.amap.com/marker?position=125.369600,44.317797&name=%E5%90%89%E7%89%A7%E5%85%BD%E8%8D%AF%E5%BA%97&src=vetmap&coordinate=gaode&callnative=1","route_id":"r1","route_name":"第1段"},{"name":"大北农天龙兽医诊所","address":"宽平路西北30米","phone":"","category":"医疗保健服务;动物医疗场所;兽医站","area":"","lng":125.371121,"lat":44.318642,"amap_id":"B0G129LP6I","order":10,"prev_distance_km":0.153,"cumulative_distance_km":48.396,"amap_marker_url":"https://uri.amap.com/marker?position=125.371121,44.318642&name=%E5%A4%A7%E5%8C%97%E5%86%9C%E5%A4%A9%E9%BE%99%E5%85%BD%E5%8C%BB%E8%AF%8A%E6%89%80&src=vetmap&coordinate=gaode&callnative=1","route_id":"r1","route_name":"第1段"},{"name":"农安县农安镇动物保健医院杨光动物医院","address":"农安镇金街三期宝塔街46号","phone":"0431-83229993;13844126828","category":"医疗保健服务;动物医疗场所;宠物诊所","area":"","lng":125.17564,"lat":44.432668,"amap_id":"B0G2F73FNJ","order":11,"prev_distance_km":20.054,"cumulative_distance_km":68.449,"amap_marker_url":"https://uri.amap.com/marker?position=125.175640,44.432668&name=%E5%86%9C%E5%AE%89%E5%8E%BF%E5%86%9C%E5%AE%89%E9%95%87%E5%8A%A8%E7%89%A9%E4%BF%9D%E5%81%A5%E5%8C%BB%E9%99%A2%E6%9D%A8%E5%85%89%E5%8A%A8%E7%89%A9%E5%8C%BB%E9%99%A2&src=vetmap&coordinate=gaode&callnative=1","route_id":"r1","route_name":"第1段"},{"name":"瑞宠宠物诊所","address":"宝塔街辅路与黄龙路交叉口东南40米","phone":"","category":"医疗保健服务;动物医疗场所;宠物诊所","area":"","lng":125.17502,"lat":44.42795,"amap_id":"B0K64PNQJY","order":12,"prev_distance_km":0.527,"cumulative_distance_km":68.976,"amap_marker_url":"https://uri.amap.com/marker?position=125.175020,44.427950&name=%E7%91%9E%E5%AE%A0%E5%AE%A0%E7%89%A9%E8%AF%8A%E6%89%80&src=vetmap&coordinate=gaode&callnative=1","route_id":"r1","route_name":"第1段"},{"name":"星级宠屋","address":"农安镇宝塔街南段东侧2/3-167号1922轴(康发兽药综合楼一层)","phone":"15804444016","category":"医疗保健服务;动物医疗场所;宠物诊所","area":"","lng":125.174892,"lat":44.427348,"amap_id":"B0FFL2MH6Q","order":13,"prev_distance_km":0.068,"cumulative_distance_km":69.044,"amap_marker_url":"https://uri.amap.com/marker?position=125.174892,44.427348&name=%E6%98%9F%E7%BA%A7%E5%AE%A0%E5%B1%8B&src=vetmap&coordinate=gaode&callnative=1","route_id":"r1","route_name":"第1段"},{"name":"星级宠物诊所","address":"宝塔街辅路与黄龙路交叉口南100米","phone":"","category":"医疗保健服务;动物医疗场所;宠物诊所","area":"","lng":125.174822,"lat":44.427348,"amap_id":"B0LUZLZ6E4","order":14,"prev_distance_km":0.006,"cumulative_distance_km":69.049,"amap_marker_url":"https://uri.amap.com/marker?position=125.174822,44.427348&name=%E6%98%9F%E7%BA%A7%E5%AE%A0%E7%89%A9%E8%AF%8A%E6%89%80&src=vetmap&coordinate=gaode&callnative=1","route_id":"r1","route_name":"第1段"},{"name":"康发动物医院(宝塔街辅路店)","address":"宝塔街110号","phone":"0431-83236667;15904459827","category":"医疗保健服务;动物医疗场所;宠物诊所","area":"","lng":125.174865,"lat":44.427228,"amap_id":"B01AF0C9K8","order":15,"prev_distance_km":0.014,"cumulative_distance_km":69.063,"amap_marker_url":"https://uri.amap.com/marker?position=125.174865,44.427228&name=%E5%BA%B7%E5%8F%91%E5%8A%A8%E7%89%A9%E5%8C%BB%E9%99%A2%28%E5%AE%9D%E5%A1%94%E8%A1%97%E8%BE%85%E8%B7%AF%E5%BA%97%29&src=vetmap&coordinate=gaode&callnative=1","route_id":"r1","route_name":"第1段"},{"name":"韩大夫宠物诊所","address":"凯德文化花园西2门旁","phone":"15643146185","category":"医疗保健服务;动物医疗场所;宠物诊所","area":"","lng":125.174975,"lat":44.423373,"amap_id":"B0FFI4S6KJ","order":16,"prev_distance_km":0.429,"cumulative_distance_km":69.492,"amap_marker_url":"https://uri.amap.com/marker?position=125.174975,44.423373&name=%E9%9F%A9%E5%A4%A7%E5%A4%AB%E5%AE%A0%E7%89%A9%E8%AF%8A%E6%89%80&src=vetmap&coordinate=gaode&callnative=1","route_id":"r1","route_name":"第1段"},{"name":"宋大夫动物医院","address":"电联街文腾小区","phone":"","category":"医疗保健服务;动物医疗场所;宠物诊所","area":"","lng":125.17424,"lat":44.422063,"amap_id":"B0KDM7BE5L","order":17,"prev_distance_km":0.157,"cumulative_distance_km":69.649,"amap_marker_url":"https://uri.amap.com/marker?position=125.174240,44.422063&name=%E5%AE%8B%E5%A4%A7%E5%A4%AB%E5%8A%A8%E7%89%A9%E5%8C%BB%E9%99%A2&src=vetmap&coordinate=gaode&callnative=1","route_id":"r1","route_name":"第1段"},{"name":"农安县畜牧兽医总站","address":"滨河北路与德彪街交叉口西60米","phone":"","category":"医疗保健服务;动物医疗场所;兽医站","area":"","lng":125.177575,"lat":44.408825,"amap_id":"B0LBDLT79F","order":18,"prev_distance_km":1.496,"cumulative_distance_km":71.145,"amap_marker_url":"https://uri.amap.com/marker?position=125.177575,44.408825&name=%E5%86%9C%E5%AE%89%E5%8E%BF%E7%95%9C%E7%89%A7%E5%85%BD%E5%8C%BB%E6%80%BB%E7%AB%99&src=vetmap&coordinate=gaode&callnative=1","route_id":"r1","route_name":"第1段"},{"name":"农安县洪宇兽药店","address":"027乡道农安县洪宇兽药店","phone":"15144075035","category":"医疗保健服务;动物医疗场所;动物医疗场所","area":"","lng":124.983499,"lat":44.286755,"amap_id":"B0L3DX7BAI","order":19,"prev_distance_km":20.552,"cumulative_distance_km":91.697,"amap_marker_url":"https://uri.amap.com/marker?position=124.983499,44.286755&name=%E5%86%9C%E5%AE%89%E5%8E%BF%E6%B4%AA%E5%AE%87%E5%85%BD%E8%8D%AF%E5%BA%97&src=vetmap&coordinate=gaode&callnative=1","route_id":"r1","route_name":"第1段"},{"name":"张二兽药店","address":"巴吉垒镇洼中高农场退役军人服务站西侧","phone":"","category":"医疗保健服务;动物医疗场所;动物医疗场所","area":"","lng":124.799875,"lat":44.240575,"amap_id":"B0L1DCUL66","order":20,"prev_distance_km":15.498,"cumulative_distance_km":107.194,"amap_marker_url":"https://uri.amap.com/marker?position=124.799875,44.240575&name=%E5%BC%A0%E4%BA%8C%E5%85%BD%E8%8D%AF%E5%BA%97&src=vetmap&coordinate=gaode&callnative=1","route_id":"r1","route_name":"第1段"},{"name":"巴吉垒畜牧站吴景田兽药门诊","address":"005县道与001省道交叉口西140米","phone":"","category":"医疗保健服务;动物医疗场所;兽医站","area":"","lng":124.832031,"lat":44.34338,"amap_id":"B01AF0Z630","order":21,"prev_distance_km":11.714,"cumulative_distance_km":118.909,"amap_marker_url":"https://uri.amap.com/marker?position=124.832031,44.343380&name=%E5%B7%B4%E5%90%89%E5%9E%92%E7%95%9C%E7%89%A7%E7%AB%99%E5%90%B4%E6%99%AF%E7%94%B0%E5%85%BD%E8%8D%AF%E9%97%A8%E8%AF%8A&src=vetmap&coordinate=gaode&callnative=1","route_id":"r1","route_name":"第1段"},{"name":"王秋兽医门诊","address":"将军路","phone":"18043081335","category":"医疗保健服务;动物医疗场所;兽医站","area":"","lng":124.831309,"lat":44.343899,"amap_id":"B0J0BLRP9J","order":22,"prev_distance_km":0.081,"cumulative_distance_km":118.99,"amap_marker_url":"https://uri.amap.com/marker?position=124.831309,44.343899&name=%E7%8E%8B%E7%A7%8B%E5%85%BD%E5%8C%BB%E9%97%A8%E8%AF%8A&src=vetmap&coordinate=gaode&callnative=1","route_id":"r1","route_name":"第1段"},{"name":"动物医院","address":"张峰镶牙所西南侧170米","phone":"0431-83522499;13804398889","category":"医疗保健服务;动物医疗场所;宠物诊所","area":"","lng":124.829408,"lat":44.343122,"amap_id":"B0H027GLB2","order":23,"prev_distance_km":0.174,"cumulative_distance_km":119.164,"amap_marker_url":"https://uri.amap.com/marker?position=124.829408,44.343122&name=%E5%8A%A8%E7%89%A9%E5%8C%BB%E9%99%A2&src=vetmap&coordinate=gaode&callnative=1","route_id":"r1","route_name":"第1段"},{"name":"伏龙泉康发动物医院","address":"伏龙泉镇十字街东行200米路南","phone":"17843031000","category":"医疗保健服务;动物医疗场所;兽医站","area":"","lng":124.635295,"lat":44.395352,"amap_id":"B0FFG6GA6P","order":24,"prev_distance_km":16.486,"cumulative_distance_km":135.651,"amap_marker_url":"https://uri.amap.com/marker?position=124.635295,44.395352&name=%E4%BC%8F%E9%BE%99%E6%B3%89%E5%BA%B7%E5%8F%91%E5%8A%A8%E7%89%A9%E5%8C%BB%E9%99%A2&src=vetmap&coordinate=gaode&callnative=1","route_id":"r1","route_name":"第1段"},{"name":"顺意兽药店","address":"农伏路与龙泉街交叉口西南40米","phone":"","category":"医疗保健服务;动物医疗场所;动物医疗场所","area":"","lng":124.633103,"lat":44.394768,"amap_id":"B0KUGK6T66","order":25,"prev_distance_km":0.186,"cumulative_distance_km":135.837,"amap_marker_url":"https://uri.amap.com/marker?position=124.633103,44.394768&name=%E9%A1%BA%E6%84%8F%E5%85%BD%E8%8D%AF%E5%BA%97&src=vetmap&coordinate=gaode&callnative=1","route_id":"r1","route_name":"第1段"},{"name":"顾凤山兽医所","address":"伏龙泉镇天赐百货西南","phone":"0431-83543579;15143167111","category":"医疗保健服务;动物医疗场所;兽医站","area":"","lng":124.632594,"lat":44.394269,"amap_id":"B0FFG6GB73","order":26,"prev_distance_km":0.069,"cumulative_distance_km":135.905,"amap_marker_url":"https://uri.amap.com/marker?position=124.632594,44.394269&name=%E9%A1%BE%E5%87%A4%E5%B1%B1%E5%85%BD%E5%8C%BB%E6%89%80&src=vetmap&coordinate=gaode&callnative=1","route_id":"r1","route_name":"第1段"}]},{"id":"r2","name":"第2段","count":27,"total_distance_km":120.858,"rows":[{"name":"冯龙乡村兽医服务站","address":"春雨加油站西南侧130米","phone":"","category":"医疗保健服务;动物医疗场所;兽医站","area":"","lng":124.909273,"lat":44.67362,"amap_id":"B0J0CC3YMT","order":1,"prev_distance_km":0.0,"cumulative_distance_km":0.0,"amap_marker_url":"https://uri.amap.com/marker?position=124.909273,44.673620&name=%E5%86%AF%E9%BE%99%E4%B9%A1%E6%9D%91%E5%85%BD%E5%8C%BB%E6%9C%8D%E5%8A%A1%E7%AB%99&src=vetmap&coordinate=gaode&callnative=1","route_id":"r2","route_name":"第2段"},{"name":"宝康兽药","address":"春雨加油站西南侧130米","phone":"","category":"购物服务;购物相关场所;购物相关场所|医疗保健服务;动物医疗场所;动物医疗场所","area":"","lng":124.909325,"lat":44.673625,"amap_id":"B0LDPR2U5O","order":2,"prev_distance_km":0.004,"cumulative_distance_km":0.004,"amap_marker_url":"https://uri.amap.com/marker?position=124.909325,44.673625&name=%E5%AE%9D%E5%BA%B7%E5%85%BD%E8%8D%AF&src=vetmap&coordinate=gaode&callnative=1","route_id":"r2","route_name":"第2段"},{"name":"吉林省农安县哈拉海镇李文俊兽医所","address":"哈拉海镇李文俊兽医所","phone":"15144025000","category":"医疗保健服务;动物医疗场所;兽医站","area":"","lng":125.122096,"lat":44.669452,"amap_id":"B0FFG4QA5O","order":3,"prev_distance_km":16.832,"cumulative_distance_km":16.836,"amap_marker_url":"https://uri.amap.com/marker?position=125.122096,44.669452&name=%E5%90%89%E6%9E%97%E7%9C%81%E5%86%9C%E5%AE%89%E5%8E%BF%E5%93%88%E6%8B%89%E6%B5%B7%E9%95%87%E6%9D%8E%E6%96%87%E4%BF%8A%E5%85%BD%E5%8C%BB%E6%89%80&src=vetmap&coordinate=gaode&callnative=1","route_id":"r2","route_name":"第2段"},{"name":"康发动物医院(海森豪苑东北)","address":"中原加油站(哈拉海邮政支局南)北侧50米","phone":"15944198123","category":"医疗保健服务;动物医疗场所;兽医站","area":"","lng":125.128836,"lat":44.666576,"amap_id":"B0FFHEZ5IM","order":4,"prev_distance_km":0.622,"cumulative_distance_km":17.457,"amap_marker_url":"https://uri.amap.com/marker?position=125.128836,44.666576&name=%E5%BA%B7%E5%8F%91%E5%8A%A8%E7%89%A9%E5%8C%BB%E9%99%A2%28%E6%B5%B7%E6%A3%AE%E8%B1%AA%E8%8B%91%E4%B8%9C%E5%8C%97%29&src=vetmap&coordinate=gaode&callnative=1","route_id":"r2","route_name":"第2段"},{"name":"王秋石兽医所","address":"302国道与303省道交叉口西南60米","phone":"","category":"医疗保健服务;动物医疗场所;兽医站","area":"","lng":125.128725,"lat":44.669375,"amap_id":"B01AF0Z5H4","order":5,"prev_distance_km":0.311,"cumulative_distance_km":17.769,"amap_marker_url":"https://uri.amap.com/marker?position=125.128725,44.669375&name=%E7%8E%8B%E7%A7%8B%E7%9F%B3%E5%85%BD%E5%8C%BB%E6%89%80&src=vetmap&coordinate=gaode&callnative=1","route_id":"r2","route_name":"第2段"},{"name":"康发动物医院(兴城路店)","address":"孙文斌牙科西南侧80米","phone":"15043120363","category":"医疗保健服务;动物医疗场所;宠物诊所|医疗保健服务;动物医疗场所;兽医站","area":"","lng":125.355116,"lat":44.772274,"amap_id":"B01AF0ZFFS","order":6,"prev_distance_km":21.233,"cumulative_distance_km":39.002,"amap_marker_url":"https://uri.amap.com/marker?position=125.355116,44.772274&name=%E5%BA%B7%E5%8F%91%E5%8A%A8%E7%89%A9%E5%8C%BB%E9%99%A2%28%E5%85%B4%E5%9F%8E%E8%B7%AF%E5%BA%97%29&src=vetmap&coordinate=gaode&callnative=1","route_id":"r2","route_name":"第2段"},{"name":"王希全动物医院","address":"黄鱼圈利民路道北","phone":"13756578160","category":"医疗保健服务;动物医疗场所;宠物诊所","area":"","lng":125.477318,"lat":44.8178,"amap_id":"B0K3AAW8QQ","order":7,"prev_distance_km":10.891,"cumulative_distance_km":49.893,"amap_marker_url":"https://uri.amap.com/marker?position=125.477318,44.817800&name=%E7%8E%8B%E5%B8%8C%E5%85%A8%E5%8A%A8%E7%89%A9%E5%8C%BB%E9%99%A2&src=vetmap&coordinate=gaode&callnative=1","route_id":"r2","route_name":"第2段"},{"name":"兴牧兽医所(中共农安县靠山镇委员会西南)","address":"靠山大路与013县道交叉口西180米","phone":"0431-83343020;13944034698","category":"医疗保健服务;动物医疗场所;兽医站","area":"","lng":125.658287,"lat":44.779327,"amap_id":"B01AF0ZFGG","order":8,"prev_distance_km":14.906,"cumulative_distance_km":64.799,"amap_marker_url":"https://uri.amap.com/marker?position=125.658287,44.779327&name=%E5%85%B4%E7%89%A7%E5%85%BD%E5%8C%BB%E6%89%80%28%E4%B8%AD%E5%85%B1%E5%86%9C%E5%AE%89%E5%8E%BF%E9%9D%A0%E5%B1%B1%E9%95%87%E5%A7%94%E5%91%98%E4%BC%9A%E8%A5%BF%E5%8D%97%29&src=vetmap&coordinate=gaode&callnative=1","route_id":"r2","route_name":"第2段"},{"name":"姜万军兽药店","address":"新农乡卫生院东北侧","phone":"","category":"医疗保健服务;动物医疗场所;动物医疗场所","area":"","lng":125.543525,"lat":44.723075,"amap_id":"B0LKSUII9T","order":9,"prev_distance_km":11.011,"cumulative_distance_km":75.81,"amap_marker_url":"https://uri.amap.com/marker?position=125.543525,44.723075&name=%E5%A7%9C%E4%B8%87%E5%86%9B%E5%85%BD%E8%8D%AF%E5%BA%97&src=vetmap&coordinate=gaode&callnative=1","route_id":"r2","route_name":"第2段"},{"name":"康发动物医院(新农乡分院)","address":"007县道附近","phone":"15524395666;15844799333","category":"医疗保健服务;动物医疗场所;宠物诊所","area":"","lng":125.540396,"lat":44.719857,"amap_id":"B0KDTS7D1I","order":10,"prev_distance_km":0.435,"cumulative_distance_km":76.245,"amap_marker_url":"https://uri.amap.com/marker?position=125.540396,44.719857&name=%E5%BA%B7%E5%8F%91%E5%8A%A8%E7%89%A9%E5%8C%BB%E9%99%A2%28%E6%96%B0%E5%86%9C%E4%B9%A1%E5%88%86%E9%99%A2%29&src=vetmap&coordinate=gaode&callnative=1","route_id":"r2","route_name":"第2段"},{"name":"李旭兽医门诊","address":"玉龙口腔东北侧190米","phone":"","category":"医疗保健服务;动物医疗场所;兽医站","area":"","lng":125.538806,"lat":44.718377,"amap_id":"B0KUNLOPY4","order":11,"prev_distance_km":0.207,"cumulative_distance_km":76.452,"amap_marker_url":"https://uri.amap.com/marker?position=125.538806,44.718377&name=%E6%9D%8E%E6%97%AD%E5%85%BD%E5%8C%BB%E9%97%A8%E8%AF%8A&src=vetmap&coordinate=gaode&callnative=1","route_id":"r2","route_name":"第2段"},{"name":"康顺发兽药店","address":"万金塔乡车站南400米路东","phone":"14743988222;16724027888","category":"医疗保健服务;动物医疗场所;兽医站","area":"","lng":125.401197,"lat":44.61457,"amap_id":"B0KDFH7AQA","order":12,"prev_distance_km":15.864,"cumulative_distance_km":92.316,"amap_marker_url":"https://uri.amap.com/marker?position=125.401197,44.614570&name=%E5%BA%B7%E9%A1%BA%E5%8F%91%E5%85%BD%E8%8D%AF%E5%BA%97&src=vetmap&coordinate=gaode&callnative=1","route_id":"r2","route_name":"第2段"},{"name":"康发动物医院","address":"303省道与007县道交叉口南340米","phone":"","category":"医疗保健服务;动物医疗场所;宠物诊所","area":"","lng":125.401225,"lat":44.614525,"amap_id":"B0LBL1P6BL","order":13,"prev_distance_km":0.005,"cumulative_distance_km":92.322,"amap_marker_url":"https://uri.amap.com/marker?position=125.401225,44.614525&name=%E5%BA%B7%E5%8F%91%E5%8A%A8%E7%89%A9%E5%8C%BB%E9%99%A2&src=vetmap&coordinate=gaode&callnative=1","route_id":"r2","route_name":"第2段"},{"name":"易安动物诊所","address":"农安镇众鑫商务宾馆对面","phone":"13943296686","category":"医疗保健服务;动物医疗场所;兽医站","area":"","lng":125.179083,"lat":44.438484,"amap_id":"B0FFL2MHSK","order":14,"prev_distance_km":26.33,"cumulative_distance_km":118.652,"amap_marker_url":"https://uri.amap.com/marker?position=125.179083,44.438484&name=%E6%98%93%E5%AE%89%E5%8A%A8%E7%89%A9%E8%AF%8A%E6%89%80&src=vetmap&coordinate=gaode&callnative=1","route_id":"r2","route_name":"第2段"},{"name":"农安县畜牧兽医站","address":"农安县人民医院东门西250米","phone":"","category":"医疗保健服务;动物医疗场所;兽医站","area":"","lng":125.174578,"lat":44.436082,"amap_id":"B0K345435U","order":15,"prev_distance_km":0.446,"cumulative_distance_km":119.098,"amap_marker_url":"https://uri.amap.com/marker?position=125.174578,44.436082&name=%E5%86%9C%E5%AE%89%E5%8E%BF%E7%95%9C%E7%89%A7%E5%85%BD%E5%8C%BB%E7%AB%99&src=vetmap&coordinate=gaode&callnative=1","route_id":"r2","route_name":"第2段"},{"name":"农安县畜禽诊疗中心第十兽医所","address":"宝塔街辅路与农安路交叉口南80米","phone":"","category":"医疗保健服务;动物医疗场所;兽医站","area":"","lng":125.17459,"lat":44.436001,"amap_id":"B01AF0C8X0","order":16,"prev_distance_km":0.009,"cumulative_distance_km":119.108,"amap_marker_url":"https://uri.amap.com/marker?position=125.174590,44.436001&name=%E5%86%9C%E5%AE%89%E5%8E%BF%E7%95%9C%E7%A6%BD%E8%AF%8A%E7%96%97%E4%B8%AD%E5%BF%83%E7%AC%AC%E5%8D%81%E5%85%BD%E5%8C%BB%E6%89%80&src=vetmap&coordinate=gaode&callnative=1","route_id":"r2","route_name":"第2段"},{"name":"北方兽药","address":"农安镇县医院家属楼下南8门","phone":"13331777171","category":"医疗保健服务;动物医疗场所;宠物诊所","area":"","lng":125.174599,"lat":44.435511,"amap_id":"B0L03RCUXK","order":17,"prev_distance_km":0.054,"cumulative_distance_km":119.162,"amap_marker_url":"https://uri.amap.com/marker?position=125.174599,44.435511&name=%E5%8C%97%E6%96%B9%E5%85%BD%E8%8D%AF&src=vetmap&coordinate=gaode&callnative=1","route_id":"r2","route_name":"第2段"},{"name":"农安县人民医院-第七兽医所","address":"宝塔街272号","phone":"18043590369","category":"医疗保健服务;动物医疗场所;兽医站","area":"","lng":125.174662,"lat":44.435404,"amap_id":"B0FFM4S30N","order":18,"prev_distance_km":0.013,"cumulative_distance_km":119.175,"amap_marker_url":"https://uri.amap.com/marker?position=125.174662,44.435404&name=%E5%86%9C%E5%AE%89%E5%8E%BF%E4%BA%BA%E6%B0%91%E5%8C%BB%E9%99%A2-%E7%AC%AC%E4%B8%83%E5%85%BD%E5%8C%BB%E6%89%80&src=vetmap&coordinate=gaode&callnative=1","route_id":"r2","route_name":"第2段"},{"name":"佳康动物诊所","address":"农安县财政所综合楼北2门","phone":"15844122188","category":"医疗保健服务;动物医疗场所;宠物诊所","area":"","lng":125.174798,"lat":44.434892,"amap_id":"B0FFFT7WDW","order":19,"prev_distance_km":0.058,"cumulative_distance_km":119.233,"amap_marker_url":"https://uri.amap.com/marker?position=125.174798,44.434892&name=%E4%BD%B3%E5%BA%B7%E5%8A%A8%E7%89%A9%E8%AF%8A%E6%89%80&src=vetmap&coordinate=gaode&callnative=1","route_id":"r2","route_name":"第2段"},{"name":"华康动物医院","address":"实验小学住宅南门北170米","phone":"0431-83236045;0431-83237091;13578825277","category":"医疗保健服务;动物医疗场所;宠物诊所","area":"","lng":125.175347,"lat":44.433757,"amap_id":"B01AF09E3E","order":20,"prev_distance_km":0.134,"cumulative_distance_km":119.366,"amap_marker_url":"https://uri.amap.com/marker?position=125.175347,44.433757&name=%E5%8D%8E%E5%BA%B7%E5%8A%A8%E7%89%A9%E5%8C%BB%E9%99%A2&src=vetmap&coordinate=gaode&callnative=1","route_id":"r2","route_name":"第2段"},{"name":"康泰顺动物医院(畜牧局家属楼店)","address":"实验小学住宅南门北170米","phone":"15543166966","category":"医疗保健服务;动物医疗场所;宠物诊所","area":"","lng":125.175376,"lat":44.433758,"amap_id":"B0FFFT7N17","order":21,"prev_distance_km":0.002,"cumulative_distance_km":119.369,"amap_marker_url":"https://uri.amap.com/marker?position=125.175376,44.433758&name=%E5%BA%B7%E6%B3%B0%E9%A1%BA%E5%8A%A8%E7%89%A9%E5%8C%BB%E9%99%A2%28%E7%95%9C%E7%89%A7%E5%B1%80%E5%AE%B6%E5%B1%9E%E6%A5%BC%E5%BA%97%29&src=vetmap&coordinate=gaode&callnative=1","route_id":"r2","route_name":"第2段"},{"name":"福平动物诊所","address":"兴华路与文育街交汇畜牧局综合楼1栋1层北1门","phone":"13843187664","category":"医疗保健服务;动物医疗场所;宠物诊所","area":"","lng":125.175329,"lat":44.433649,"amap_id":"B0J33CSCU5","order":22,"prev_distance_km":0.013,"cumulative_distance_km":119.381,"amap_marker_url":"https://uri.amap.com/marker?position=125.175329,44.433649&name=%E7%A6%8F%E5%B9%B3%E5%8A%A8%E7%89%A9%E8%AF%8A%E6%89%80&src=vetmap&coordinate=gaode&callnative=1","route_id":"r2","route_name":"第2段"},{"name":"第一兽医所","address":"实验小学住宅南门北110米","phone":"13596121550","category":"医疗保健服务;动物医疗场所;兽医站","area":"","lng":125.175272,"lat":44.433389,"amap_id":"B0FFFOVNA9","order":23,"prev_distance_km":0.029,"cumulative_distance_km":119.411,"amap_marker_url":"https://uri.amap.com/marker?position=125.175272,44.433389&name=%E7%AC%AC%E4%B8%80%E5%85%BD%E5%8C%BB%E6%89%80&src=vetmap&coordinate=gaode&callnative=1","route_id":"r2","route_name":"第2段"},{"name":"益宠动物诊所","address":"实验小学住宅南门北50米","phone":"15143089039","category":"医疗保健服务;动物医疗场所;宠物诊所","area":"","lng":125.175258,"lat":44.433025,"amap_id":"B0FFKJTGL2","order":24,"prev_distance_km":0.04,"cumulative_distance_km":119.451,"amap_marker_url":"https://uri.amap.com/marker?position=125.175258,44.433025&name=%E7%9B%8A%E5%AE%A0%E5%8A%A8%E7%89%A9%E8%AF%8A%E6%89%80&src=vetmap&coordinate=gaode&callnative=1","route_id":"r2","route_name":"第2段"},{"name":"康牧兽医门诊(站前街)","address":"站前街","phone":"0431-86970666;0431-86971222;13007333777","category":"医疗保健服务;动物医疗场所;兽医站","area":"","lng":125.162913,"lat":44.437074,"amap_id":"B01AF09MPY","order":25,"prev_distance_km":1.079,"cumulative_distance_km":120.53,"amap_marker_url":"https://uri.amap.com/marker?position=125.162913,44.437074&name=%E5%BA%B7%E7%89%A7%E5%85%BD%E5%8C%BB%E9%97%A8%E8%AF%8A%28%E7%AB%99%E5%89%8D%E8%A1%97%29&src=vetmap&coordinate=gaode&callnative=1","route_id":"r2","route_name":"第2段"},{"name":"单老师兽药店","address":"隆达·丽景新城北区西北门南60米","phone":"13894779416;18904343789","category":"医疗保健服务;动物医疗场所;兽医站","area":"","lng":125.163248,"lat":44.4392,"amap_id":"B0FFJOG36U","order":26,"prev_distance_km":0.238,"cumulative_distance_km":120.768,"amap_marker_url":"https://uri.amap.com/marker?position=125.163248,44.439200&name=%E5%8D%95%E8%80%81%E5%B8%88%E5%85%BD%E8%8D%AF%E5%BA%97&src=vetmap&coordinate=gaode&callnative=1","route_id":"r2","route_name":"第2段"},{"name":"农安县祥和兽医门诊","address":"安平小区东门南120米","phone":"","category":"医疗保健服务;动物医疗场所;兽医站","area":"","lng":125.162638,"lat":44.439885,"amap_id":"B0FFMBNL34","order":27,"prev_distance_km":0.09,"cumulative_distance_km":120.858,"amap_marker_url":"https://uri.amap.com/marker?position=125.162638,44.439885&name=%E5%86%9C%E5%AE%89%E5%8E%BF%E7%A5%A5%E5%92%8C%E5%85%BD%E5%8C%BB%E9%97%A8%E8%AF%8A&src=vetmap&coordinate=gaode&callnative=1","route_id":"r2","route_name":"第2段"}]}],"rows":[{"name":"农安县烧锅镇畜牧兽医站","address":"天成路与中兴街交叉口西360米","phone":"","category":"医疗保健服务;动物医疗场所;兽医站","area":"","lng":124.993275,"lat":43.989825,"amap_id":"B0FFL1PBBI","order":1,"prev_distance_km":0.0,"cumulative_distance_km":0.0,"amap_marker_url":"https://uri.amap.com/marker?position=124.993275,43.989825&name=%E5%86%9C%E5%AE%89%E5%8E%BF%E7%83%A7%E9%94%85%E9%95%87%E7%95%9C%E7%89%A7%E5%85%BD%E5%8C%BB%E7%AB%99&src=vetmap&coordinate=gaode&callnative=1","route_id":"r1","route_name":"第1段","global_order":1},{"name":"沈阳兽药店","address":"东盛路与中兴街交叉口西220米","phone":"13756278828","category":"医疗保健服务;动物医疗场所;动物医疗场所","area":"","lng":124.994462,"lat":43.992433,"amap_id":"B0FFH6CM6A","order":2,"prev_distance_km":0.305,"cumulative_distance_km":0.305,"amap_marker_url":"https://uri.amap.com/marker?position=124.994462,43.992433&name=%E6%B2%88%E9%98%B3%E5%85%BD%E8%8D%AF%E5%BA%97&src=vetmap&coordinate=gaode&callnative=1","route_id":"r1","route_name":"第1段","global_order":2},{"name":"齐心村兽医所","address":"东盛路与中兴街交叉口西南120米","phone":"","category":"医疗保健服务;动物医疗场所;兽医站","area":"","lng":124.995646,"lat":43.992435,"amap_id":"B0FFG805V5","order":3,"prev_distance_km":0.095,"cumulative_distance_km":0.4,"amap_marker_url":"https://uri.amap.com/marker?position=124.995646,43.992435&name=%E9%BD%90%E5%BF%83%E6%9D%91%E5%85%BD%E5%8C%BB%E6%89%80&src=vetmap&coordinate=gaode&callnative=1","route_id":"r1","route_name":"第1段","global_order":3},{"name":"志彬动物诊所","address":"烧锅镇隆达小区一栋121","phone":"15500075730","category":"医疗保健服务;动物医疗场所;宠物诊所","area":"","lng":125.021145,"lat":43.999692,"amap_id":"B0FFG804QP","order":4,"prev_distance_km":2.194,"cumulative_distance_km":2.593,"amap_marker_url":"https://uri.amap.com/marker?position=125.021145,43.999692&name=%E5%BF%97%E5%BD%AC%E5%8A%A8%E7%89%A9%E8%AF%8A%E6%89%80&src=vetmap&coordinate=gaode&callnative=1","route_id":"r1","route_name":"第1段","global_order":4},{"name":"云龙兽医兽药","address":"前进大街与开安大路交叉口北100米","phone":"","category":"医疗保健服务;动物医疗场所;兽医站","area":"","lng":125.205846,"lat":44.168403,"amap_id":"B0FFI2NI37","order":5,"prev_distance_km":23.866,"cumulative_distance_km":26.459,"amap_marker_url":"https://uri.amap.com/marker?position=125.205846,44.168403&name=%E4%BA%91%E9%BE%99%E5%85%BD%E5%8C%BB%E5%85%BD%E8%8D%AF&src=vetmap&coordinate=gaode&callnative=1","route_id":"r1","route_name":"第1段","global_order":5},{"name":"小家畜兽药商店","address":"宏光大街与开安大路交叉口北40米","phone":"","category":"医疗保健服务;动物医疗场所;兽医站","area":"","lng":125.208716,"lat":44.168428,"amap_id":"B0FFG5BHPD","order":6,"prev_distance_km":0.229,"cumulative_distance_km":26.688,"amap_marker_url":"https://uri.amap.com/marker?position=125.208716,44.168428&name=%E5%B0%8F%E5%AE%B6%E7%95%9C%E5%85%BD%E8%8D%AF%E5%95%86%E5%BA%97&src=vetmap&coordinate=gaode&callnative=1","route_id":"r1","route_name":"第1段","global_order":6},{"name":"常发兽医诊所","address":"004县道与开拓路交叉口南120米","phone":"","category":"医疗保健服务;动物医疗场所;兽医站","area":"","lng":125.270925,"lat":44.262625,"amap_id":"B0LA5LU4OH","order":7,"prev_distance_km":11.588,"cumulative_distance_km":38.276,"amap_marker_url":"https://uri.amap.com/marker?position=125.270925,44.262625&name=%E5%B8%B8%E5%8F%91%E5%85%BD%E5%8C%BB%E8%AF%8A%E6%89%80&src=vetmap&coordinate=gaode&callnative=1","route_id":"r1","route_name":"第1段","global_order":7},{"name":"康发动物医院","address":"宽平路与009县道交叉口东北340米","phone":"","category":"医疗保健服务;动物医疗场所;宠物诊所","area":"","lng":125.369075,"lat":44.317525,"amap_id":"B0M63CA3H6","order":8,"prev_distance_km":9.915,"cumulative_distance_km":48.191,"amap_marker_url":"https://uri.amap.com/marker?position=125.369075,44.317525&name=%E5%BA%B7%E5%8F%91%E5%8A%A8%E7%89%A9%E5%8C%BB%E9%99%A2&src=vetmap&coordinate=gaode&callnative=1","route_id":"r1","route_name":"第1段","global_order":8},{"name":"吉牧兽药店","address":"鲍家镇宽平街","phone":"17390059939","category":"医疗保健服务;动物医疗场所;动物医疗场所","area":"","lng":125.3696,"lat":44.317797,"amap_id":"B0LAUH1MYA","order":9,"prev_distance_km":0.052,"cumulative_distance_km":48.242,"amap_marker_url":"https://uri.amap.com/marker?position=125.369600,44.317797&name=%E5%90%89%E7%89%A7%E5%85%BD%E8%8D%AF%E5%BA%97&src=vetmap&coordinate=gaode&callnative=1","route_id":"r1","route_name":"第1段","global_order":9},{"name":"大北农天龙兽医诊所","address":"宽平路西北30米","phone":"","category":"医疗保健服务;动物医疗场所;兽医站","area":"","lng":125.371121,"lat":44.318642,"amap_id":"B0G129LP6I","order":10,"prev_distance_km":0.153,"cumulative_distance_km":48.396,"amap_marker_url":"https://uri.amap.com/marker?position=125.371121,44.318642&name=%E5%A4%A7%E5%8C%97%E5%86%9C%E5%A4%A9%E9%BE%99%E5%85%BD%E5%8C%BB%E8%AF%8A%E6%89%80&src=vetmap&coordinate=gaode&callnative=1","route_id":"r1","route_name":"第1段","global_order":10},{"name":"农安县农安镇动物保健医院杨光动物医院","address":"农安镇金街三期宝塔街46号","phone":"0431-83229993;13844126828","category":"医疗保健服务;动物医疗场所;宠物诊所","area":"","lng":125.17564,"lat":44.432668,"amap_id":"B0G2F73FNJ","order":11,"prev_distance_km":20.054,"cumulative_distance_km":68.449,"amap_marker_url":"https://uri.amap.com/marker?position=125.175640,44.432668&name=%E5%86%9C%E5%AE%89%E5%8E%BF%E5%86%9C%E5%AE%89%E9%95%87%E5%8A%A8%E7%89%A9%E4%BF%9D%E5%81%A5%E5%8C%BB%E9%99%A2%E6%9D%A8%E5%85%89%E5%8A%A8%E7%89%A9%E5%8C%BB%E9%99%A2&src=vetmap&coordinate=gaode&callnative=1","route_id":"r1","route_name":"第1段","global_order":11},{"name":"瑞宠宠物诊所","address":"宝塔街辅路与黄龙路交叉口东南40米","phone":"","category":"医疗保健服务;动物医疗场所;宠物诊所","area":"","lng":125.17502,"lat":44.42795,"amap_id":"B0K64PNQJY","order":12,"prev_distance_km":0.527,"cumulative_distance_km":68.976,"amap_marker_url":"https://uri.amap.com/marker?position=125.175020,44.427950&name=%E7%91%9E%E5%AE%A0%E5%AE%A0%E7%89%A9%E8%AF%8A%E6%89%80&src=vetmap&coordinate=gaode&callnative=1","route_id":"r1","route_name":"第1段","global_order":12},{"name":"星级宠屋","address":"农安镇宝塔街南段东侧2/3-167号1922轴(康发兽药综合楼一层)","phone":"15804444016","category":"医疗保健服务;动物医疗场所;宠物诊所","area":"","lng":125.174892,"lat":44.427348,"amap_id":"B0FFL2MH6Q","order":13,"prev_distance_km":0.068,"cumulative_distance_km":69.044,"amap_marker_url":"https://uri.amap.com/marker?position=125.174892,44.427348&name=%E6%98%9F%E7%BA%A7%E5%AE%A0%E5%B1%8B&src=vetmap&coordinate=gaode&callnative=1","route_id":"r1","route_name":"第1段","global_order":13},{"name":"星级宠物诊所","address":"宝塔街辅路与黄龙路交叉口南100米","phone":"","category":"医疗保健服务;动物医疗场所;宠物诊所","area":"","lng":125.174822,"lat":44.427348,"amap_id":"B0LUZLZ6E4","order":14,"prev_distance_km":0.006,"cumulative_distance_km":69.049,"amap_marker_url":"https://uri.amap.com/marker?position=125.174822,44.427348&name=%E6%98%9F%E7%BA%A7%E5%AE%A0%E7%89%A9%E8%AF%8A%E6%89%80&src=vetmap&coordinate=gaode&callnative=1","route_id":"r1","route_name":"第1段","global_order":14},{"name":"康发动物医院(宝塔街辅路店)","address":"宝塔街110号","phone":"0431-83236667;15904459827","category":"医疗保健服务;动物医疗场所;宠物诊所","area":"","lng":125.174865,"lat":44.427228,"amap_id":"B01AF0C9K8","order":15,"prev_distance_km":0.014,"cumulative_distance_km":69.063,"amap_marker_url":"https://uri.amap.com/marker?position=125.174865,44.427228&name=%E5%BA%B7%E5%8F%91%E5%8A%A8%E7%89%A9%E5%8C%BB%E9%99%A2%28%E5%AE%9D%E5%A1%94%E8%A1%97%E8%BE%85%E8%B7%AF%E5%BA%97%29&src=vetmap&coordinate=gaode&callnative=1","route_id":"r1","route_name":"第1段","global_order":15},{"name":"韩大夫宠物诊所","address":"凯德文化花园西2门旁","phone":"15643146185","category":"医疗保健服务;动物医疗场所;宠物诊所","area":"","lng":125.174975,"lat":44.423373,"amap_id":"B0FFI4S6KJ","order":16,"prev_distance_km":0.429,"cumulative_distance_km":69.492,"amap_marker_url":"https://uri.amap.com/marker?position=125.174975,44.423373&name=%E9%9F%A9%E5%A4%A7%E5%A4%AB%E5%AE%A0%E7%89%A9%E8%AF%8A%E6%89%80&src=vetmap&coordinate=gaode&callnative=1","route_id":"r1","route_name":"第1段","global_order":16},{"name":"宋大夫动物医院","address":"电联街文腾小区","phone":"","category":"医疗保健服务;动物医疗场所;宠物诊所","area":"","lng":125.17424,"lat":44.422063,"amap_id":"B0KDM7BE5L","order":17,"prev_distance_km":0.157,"cumulative_distance_km":69.649,"amap_marker_url":"https://uri.amap.com/marker?position=125.174240,44.422063&name=%E5%AE%8B%E5%A4%A7%E5%A4%AB%E5%8A%A8%E7%89%A9%E5%8C%BB%E9%99%A2&src=vetmap&coordinate=gaode&callnative=1","route_id":"r1","route_name":"第1段","global_order":17},{"name":"农安县畜牧兽医总站","address":"滨河北路与德彪街交叉口西60米","phone":"","category":"医疗保健服务;动物医疗场所;兽医站","area":"","lng":125.177575,"lat":44.408825,"amap_id":"B0LBDLT79F","order":18,"prev_distance_km":1.496,"cumulative_distance_km":71.145,"amap_marker_url":"https://uri.amap.com/marker?position=125.177575,44.408825&name=%E5%86%9C%E5%AE%89%E5%8E%BF%E7%95%9C%E7%89%A7%E5%85%BD%E5%8C%BB%E6%80%BB%E7%AB%99&src=vetmap&coordinate=gaode&callnative=1","route_id":"r1","route_name":"第1段","global_order":18},{"name":"农安县洪宇兽药店","address":"027乡道农安县洪宇兽药店","phone":"15144075035","category":"医疗保健服务;动物医疗场所;动物医疗场所","area":"","lng":124.983499,"lat":44.286755,"amap_id":"B0L3DX7BAI","order":19,"prev_distance_km":20.552,"cumulative_distance_km":91.697,"amap_marker_url":"https://uri.amap.com/marker?position=124.983499,44.286755&name=%E5%86%9C%E5%AE%89%E5%8E%BF%E6%B4%AA%E5%AE%87%E5%85%BD%E8%8D%AF%E5%BA%97&src=vetmap&coordinate=gaode&callnative=1","route_id":"r1","route_name":"第1段","global_order":19},{"name":"张二兽药店","address":"巴吉垒镇洼中高农场退役军人服务站西侧","phone":"","category":"医疗保健服务;动物医疗场所;动物医疗场所","area":"","lng":124.799875,"lat":44.240575,"amap_id":"B0L1DCUL66","order":20,"prev_distance_km":15.498,"cumulative_distance_km":107.194,"amap_marker_url":"https://uri.amap.com/marker?position=124.799875,44.240575&name=%E5%BC%A0%E4%BA%8C%E5%85%BD%E8%8D%AF%E5%BA%97&src=vetmap&coordinate=gaode&callnative=1","route_id":"r1","route_name":"第1段","global_order":20},{"name":"巴吉垒畜牧站吴景田兽药门诊","address":"005县道与001省道交叉口西140米","phone":"","category":"医疗保健服务;动物医疗场所;兽医站","area":"","lng":124.832031,"lat":44.34338,"amap_id":"B01AF0Z630","order":21,"prev_distance_km":11.714,"cumulative_distance_km":118.909,"amap_marker_url":"https://uri.amap.com/marker?position=124.832031,44.343380&name=%E5%B7%B4%E5%90%89%E5%9E%92%E7%95%9C%E7%89%A7%E7%AB%99%E5%90%B4%E6%99%AF%E7%94%B0%E5%85%BD%E8%8D%AF%E9%97%A8%E8%AF%8A&src=vetmap&coordinate=gaode&callnative=1","route_id":"r1","route_name":"第1段","global_order":21},{"name":"王秋兽医门诊","address":"将军路","phone":"18043081335","category":"医疗保健服务;动物医疗场所;兽医站","area":"","lng":124.831309,"lat":44.343899,"amap_id":"B0J0BLRP9J","order":22,"prev_distance_km":0.081,"cumulative_distance_km":118.99,"amap_marker_url":"https://uri.amap.com/marker?position=124.831309,44.343899&name=%E7%8E%8B%E7%A7%8B%E5%85%BD%E5%8C%BB%E9%97%A8%E8%AF%8A&src=vetmap&coordinate=gaode&callnative=1","route_id":"r1","route_name":"第1段","global_order":22},{"name":"动物医院","address":"张峰镶牙所西南侧170米","phone":"0431-83522499;13804398889","category":"医疗保健服务;动物医疗场所;宠物诊所","area":"","lng":124.829408,"lat":44.343122,"amap_id":"B0H027GLB2","order":23,"prev_distance_km":0.174,"cumulative_distance_km":119.164,"amap_marker_url":"https://uri.amap.com/marker?position=124.829408,44.343122&name=%E5%8A%A8%E7%89%A9%E5%8C%BB%E9%99%A2&src=vetmap&coordinate=gaode&callnative=1","route_id":"r1","route_name":"第1段","global_order":23},{"name":"伏龙泉康发动物医院","address":"伏龙泉镇十字街东行200米路南","phone":"17843031000","category":"医疗保健服务;动物医疗场所;兽医站","area":"","lng":124.635295,"lat":44.395352,"amap_id":"B0FFG6GA6P","order":24,"prev_distance_km":16.486,"cumulative_distance_km":135.651,"amap_marker_url":"https://uri.amap.com/marker?position=124.635295,44.395352&name=%E4%BC%8F%E9%BE%99%E6%B3%89%E5%BA%B7%E5%8F%91%E5%8A%A8%E7%89%A9%E5%8C%BB%E9%99%A2&src=vetmap&coordinate=gaode&callnative=1","route_id":"r1","route_name":"第1段","global_order":24},{"name":"顺意兽药店","address":"农伏路与龙泉街交叉口西南40米","phone":"","category":"医疗保健服务;动物医疗场所;动物医疗场所","area":"","lng":124.633103,"lat":44.394768,"amap_id":"B0KUGK6T66","order":25,"prev_distance_km":0.186,"cumulative_distance_km":135.837,"amap_marker_url":"https://uri.amap.com/marker?position=124.633103,44.394768&name=%E9%A1%BA%E6%84%8F%E5%85%BD%E8%8D%AF%E5%BA%97&src=vetmap&coordinate=gaode&callnative=1","route_id":"r1","route_name":"第1段","global_order":25},{"name":"顾凤山兽医所","address":"伏龙泉镇天赐百货西南","phone":"0431-83543579;15143167111","category":"医疗保健服务;动物医疗场所;兽医站","area":"","lng":124.632594,"lat":44.394269,"amap_id":"B0FFG6GB73","order":26,"prev_distance_km":0.069,"cumulative_distance_km":135.905,"amap_marker_url":"https://uri.amap.com/marker?position=124.632594,44.394269&name=%E9%A1%BE%E5%87%A4%E5%B1%B1%E5%85%BD%E5%8C%BB%E6%89%80&src=vetmap&coordinate=gaode&callnative=1","route_id":"r1","route_name":"第1段","global_order":26},{"name":"冯龙乡村兽医服务站","address":"春雨加油站西南侧130米","phone":"","category":"医疗保健服务;动物医疗场所;兽医站","area":"","lng":124.909273,"lat":44.67362,"amap_id":"B0J0CC3YMT","order":1,"prev_distance_km":0.0,"cumulative_distance_km":0.0,"amap_marker_url":"https://uri.amap.com/marker?position=124.909273,44.673620&name=%E5%86%AF%E9%BE%99%E4%B9%A1%E6%9D%91%E5%85%BD%E5%8C%BB%E6%9C%8D%E5%8A%A1%E7%AB%99&src=vetmap&coordinate=gaode&callnative=1","route_id":"r2","route_name":"第2段","global_order":27},{"name":"宝康兽药","address":"春雨加油站西南侧130米","phone":"","category":"购物服务;购物相关场所;购物相关场所|医疗保健服务;动物医疗场所;动物医疗场所","area":"","lng":124.909325,"lat":44.673625,"amap_id":"B0LDPR2U5O","order":2,"prev_distance_km":0.004,"cumulative_distance_km":0.004,"amap_marker_url":"https://uri.amap.com/marker?position=124.909325,44.673625&name=%E5%AE%9D%E5%BA%B7%E5%85%BD%E8%8D%AF&src=vetmap&coordinate=gaode&callnative=1","route_id":"r2","route_name":"第2段","global_order":28},{"name":"吉林省农安县哈拉海镇李文俊兽医所","address":"哈拉海镇李文俊兽医所","phone":"15144025000","category":"医疗保健服务;动物医疗场所;兽医站","area":"","lng":125.122096,"lat":44.669452,"amap_id":"B0FFG4QA5O","order":3,"prev_distance_km":16.832,"cumulative_distance_km":16.836,"amap_marker_url":"https://uri.amap.com/marker?position=125.122096,44.669452&name=%E5%90%89%E6%9E%97%E7%9C%81%E5%86%9C%E5%AE%89%E5%8E%BF%E5%93%88%E6%8B%89%E6%B5%B7%E9%95%87%E6%9D%8E%E6%96%87%E4%BF%8A%E5%85%BD%E5%8C%BB%E6%89%80&src=vetmap&coordinate=gaode&callnative=1","route_id":"r2","route_name":"第2段","global_order":29},{"name":"康发动物医院(海森豪苑东北)","address":"中原加油站(哈拉海邮政支局南)北侧50米","phone":"15944198123","category":"医疗保健服务;动物医疗场所;兽医站","area":"","lng":125.128836,"lat":44.666576,"amap_id":"B0FFHEZ5IM","order":4,"prev_distance_km":0.622,"cumulative_distance_km":17.457,"amap_marker_url":"https://uri.amap.com/marker?position=125.128836,44.666576&name=%E5%BA%B7%E5%8F%91%E5%8A%A8%E7%89%A9%E5%8C%BB%E9%99%A2%28%E6%B5%B7%E6%A3%AE%E8%B1%AA%E8%8B%91%E4%B8%9C%E5%8C%97%29&src=vetmap&coordinate=gaode&callnative=1","route_id":"r2","route_name":"第2段","global_order":30},{"name":"王秋石兽医所","address":"302国道与303省道交叉口西南60米","phone":"","category":"医疗保健服务;动物医疗场所;兽医站","area":"","lng":125.128725,"lat":44.669375,"amap_id":"B01AF0Z5H4","order":5,"prev_distance_km":0.311,"cumulative_distance_km":17.769,"amap_marker_url":"https://uri.amap.com/marker?position=125.128725,44.669375&name=%E7%8E%8B%E7%A7%8B%E7%9F%B3%E5%85%BD%E5%8C%BB%E6%89%80&src=vetmap&coordinate=gaode&callnative=1","route_id":"r2","route_name":"第2段","global_order":31},{"name":"康发动物医院(兴城路店)","address":"孙文斌牙科西南侧80米","phone":"15043120363","category":"医疗保健服务;动物医疗场所;宠物诊所|医疗保健服务;动物医疗场所;兽医站","area":"","lng":125.355116,"lat":44.772274,"amap_id":"B01AF0ZFFS","order":6,"prev_distance_km":21.233,"cumulative_distance_km":39.002,"amap_marker_url":"https://uri.amap.com/marker?position=125.355116,44.772274&name=%E5%BA%B7%E5%8F%91%E5%8A%A8%E7%89%A9%E5%8C%BB%E9%99%A2%28%E5%85%B4%E5%9F%8E%E8%B7%AF%E5%BA%97%29&src=vetmap&coordinate=gaode&callnative=1","route_id":"r2","route_name":"第2段","global_order":32},{"name":"王希全动物医院","address":"黄鱼圈利民路道北","phone":"13756578160","category":"医疗保健服务;动物医疗场所;宠物诊所","area":"","lng":125.477318,"lat":44.8178,"amap_id":"B0K3AAW8QQ","order":7,"prev_distance_km":10.891,"cumulative_distance_km":49.893,"amap_marker_url":"https://uri.amap.com/marker?position=125.477318,44.817800&name=%E7%8E%8B%E5%B8%8C%E5%85%A8%E5%8A%A8%E7%89%A9%E5%8C%BB%E9%99%A2&src=vetmap&coordinate=gaode&callnative=1","route_id":"r2","route_name":"第2段","global_order":33},{"name":"兴牧兽医所(中共农安县靠山镇委员会西南)","address":"靠山大路与013县道交叉口西180米","phone":"0431-83343020;13944034698","category":"医疗保健服务;动物医疗场所;兽医站","area":"","lng":125.658287,"lat":44.779327,"amap_id":"B01AF0ZFGG","order":8,"prev_distance_km":14.906,"cumulative_distance_km":64.799,"amap_marker_url":"https://uri.amap.com/marker?position=125.658287,44.779327&name=%E5%85%B4%E7%89%A7%E5%85%BD%E5%8C%BB%E6%89%80%28%E4%B8%AD%E5%85%B1%E5%86%9C%E5%AE%89%E5%8E%BF%E9%9D%A0%E5%B1%B1%E9%95%87%E5%A7%94%E5%91%98%E4%BC%9A%E8%A5%BF%E5%8D%97%29&src=vetmap&coordinate=gaode&callnative=1","route_id":"r2","route_name":"第2段","global_order":34},{"name":"姜万军兽药店","address":"新农乡卫生院东北侧","phone":"","category":"医疗保健服务;动物医疗场所;动物医疗场所","area":"","lng":125.543525,"lat":44.723075,"amap_id":"B0LKSUII9T","order":9,"prev_distance_km":11.011,"cumulative_distance_km":75.81,"amap_marker_url":"https://uri.amap.com/marker?position=125.543525,44.723075&name=%E5%A7%9C%E4%B8%87%E5%86%9B%E5%85%BD%E8%8D%AF%E5%BA%97&src=vetmap&coordinate=gaode&callnative=1","route_id":"r2","route_name":"第2段","global_order":35},{"name":"康发动物医院(新农乡分院)","address":"007县道附近","phone":"15524395666;15844799333","category":"医疗保健服务;动物医疗场所;宠物诊所","area":"","lng":125.540396,"lat":44.719857,"amap_id":"B0KDTS7D1I","order":10,"prev_distance_km":0.435,"cumulative_distance_km":76.245,"amap_marker_url":"https://uri.amap.com/marker?position=125.540396,44.719857&name=%E5%BA%B7%E5%8F%91%E5%8A%A8%E7%89%A9%E5%8C%BB%E9%99%A2%28%E6%96%B0%E5%86%9C%E4%B9%A1%E5%88%86%E9%99%A2%29&src=vetmap&coordinate=gaode&callnative=1","route_id":"r2","route_name":"第2段","global_order":36},{"name":"李旭兽医门诊","address":"玉龙口腔东北侧190米","phone":"","category":"医疗保健服务;动物医疗场所;兽医站","area":"","lng":125.538806,"lat":44.718377,"amap_id":"B0KUNLOPY4","order":11,"prev_distance_km":0.207,"cumulative_distance_km":76.452,"amap_marker_url":"https://uri.amap.com/marker?position=125.538806,44.718377&name=%E6%9D%8E%E6%97%AD%E5%85%BD%E5%8C%BB%E9%97%A8%E8%AF%8A&src=vetmap&coordinate=gaode&callnative=1","route_id":"r2","route_name":"第2段","global_order":37},{"name":"康顺发兽药店","address":"万金塔乡车站南400米路东","phone":"14743988222;16724027888","category":"医疗保健服务;动物医疗场所;兽医站","area":"","lng":125.401197,"lat":44.61457,"amap_id":"B0KDFH7AQA","order":12,"prev_distance_km":15.864,"cumulative_distance_km":92.316,"amap_marker_url":"https://uri.amap.com/marker?position=125.401197,44.614570&name=%E5%BA%B7%E9%A1%BA%E5%8F%91%E5%85%BD%E8%8D%AF%E5%BA%97&src=vetmap&coordinate=gaode&callnative=1","route_id":"r2","route_name":"第2段","global_order":38},{"name":"康发动物医院","address":"303省道与007县道交叉口南340米","phone":"","category":"医疗保健服务;动物医疗场所;宠物诊所","area":"","lng":125.401225,"lat":44.614525,"amap_id":"B0LBL1P6BL","order":13,"prev_distance_km":0.005,"cumulative_distance_km":92.322,"amap_marker_url":"https://uri.amap.com/marker?position=125.401225,44.614525&name=%E5%BA%B7%E5%8F%91%E5%8A%A8%E7%89%A9%E5%8C%BB%E9%99%A2&src=vetmap&coordinate=gaode&callnative=1","route_id":"r2","route_name":"第2段","global_order":39},{"name":"易安动物诊所","address":"农安镇众鑫商务宾馆对面","phone":"13943296686","category":"医疗保健服务;动物医疗场所;兽医站","area":"","lng":125.179083,"lat":44.438484,"amap_id":"B0FFL2MHSK","order":14,"prev_distance_km":26.33,"cumulative_distance_km":118.652,"amap_marker_url":"https://uri.amap.com/marker?position=125.179083,44.438484&name=%E6%98%93%E5%AE%89%E5%8A%A8%E7%89%A9%E8%AF%8A%E6%89%80&src=vetmap&coordinate=gaode&callnative=1","route_id":"r2","route_name":"第2段","global_order":40},{"name":"农安县畜牧兽医站","address":"农安县人民医院东门西250米","phone":"","category":"医疗保健服务;动物医疗场所;兽医站","area":"","lng":125.174578,"lat":44.436082,"amap_id":"B0K345435U","order":15,"prev_distance_km":0.446,"cumulative_distance_km":119.098,"amap_marker_url":"https://uri.amap.com/marker?position=125.174578,44.436082&name=%E5%86%9C%E5%AE%89%E5%8E%BF%E7%95%9C%E7%89%A7%E5%85%BD%E5%8C%BB%E7%AB%99&src=vetmap&coordinate=gaode&callnative=1","route_id":"r2","route_name":"第2段","global_order":41},{"name":"农安县畜禽诊疗中心第十兽医所","address":"宝塔街辅路与农安路交叉口南80米","phone":"","category":"医疗保健服务;动物医疗场所;兽医站","area":"","lng":125.17459,"lat":44.436001,"amap_id":"B01AF0C8X0","order":16,"prev_distance_km":0.009,"cumulative_distance_km":119.108,"amap_marker_url":"https://uri.amap.com/marker?position=125.174590,44.436001&name=%E5%86%9C%E5%AE%89%E5%8E%BF%E7%95%9C%E7%A6%BD%E8%AF%8A%E7%96%97%E4%B8%AD%E5%BF%83%E7%AC%AC%E5%8D%81%E5%85%BD%E5%8C%BB%E6%89%80&src=vetmap&coordinate=gaode&callnative=1","route_id":"r2","route_name":"第2段","global_order":42},{"name":"北方兽药","address":"农安镇县医院家属楼下南8门","phone":"13331777171","category":"医疗保健服务;动物医疗场所;宠物诊所","area":"","lng":125.174599,"lat":44.435511,"amap_id":"B0L03RCUXK","order":17,"prev_distance_km":0.054,"cumulative_distance_km":119.162,"amap_marker_url":"https://uri.amap.com/marker?position=125.174599,44.435511&name=%E5%8C%97%E6%96%B9%E5%85%BD%E8%8D%AF&src=vetmap&coordinate=gaode&callnative=1","route_id":"r2","route_name":"第2段","global_order":43},{"name":"农安县人民医院-第七兽医所","address":"宝塔街272号","phone":"18043590369","category":"医疗保健服务;动物医疗场所;兽医站","area":"","lng":125.174662,"lat":44.435404,"amap_id":"B0FFM4S30N","order":18,"prev_distance_km":0.013,"cumulative_distance_km":119.175,"amap_marker_url":"https://uri.amap.com/marker?position=125.174662,44.435404&name=%E5%86%9C%E5%AE%89%E5%8E%BF%E4%BA%BA%E6%B0%91%E5%8C%BB%E9%99%A2-%E7%AC%AC%E4%B8%83%E5%85%BD%E5%8C%BB%E6%89%80&src=vetmap&coordinate=gaode&callnative=1","route_id":"r2","route_name":"第2段","global_order":44},{"name":"佳康动物诊所","address":"农安县财政所综合楼北2门","phone":"15844122188","category":"医疗保健服务;动物医疗场所;宠物诊所","area":"","lng":125.174798,"lat":44.434892,"amap_id":"B0FFFT7WDW","order":19,"prev_distance_km":0.058,"cumulative_distance_km":119.233,"amap_marker_url":"https://uri.amap.com/marker?position=125.174798,44.434892&name=%E4%BD%B3%E5%BA%B7%E5%8A%A8%E7%89%A9%E8%AF%8A%E6%89%80&src=vetmap&coordinate=gaode&callnative=1","route_id":"r2","route_name":"第2段","global_order":45},{"name":"华康动物医院","address":"实验小学住宅南门北170米","phone":"0431-83236045;0431-83237091;13578825277","category":"医疗保健服务;动物医疗场所;宠物诊所","area":"","lng":125.175347,"lat":44.433757,"amap_id":"B01AF09E3E","order":20,"prev_distance_km":0.134,"cumulative_distance_km":119.366,"amap_marker_url":"https://uri.amap.com/marker?position=125.175347,44.433757&name=%E5%8D%8E%E5%BA%B7%E5%8A%A8%E7%89%A9%E5%8C%BB%E9%99%A2&src=vetmap&coordinate=gaode&callnative=1","route_id":"r2","route_name":"第2段","global_order":46},{"name":"康泰顺动物医院(畜牧局家属楼店)","address":"实验小学住宅南门北170米","phone":"15543166966","category":"医疗保健服务;动物医疗场所;宠物诊所","area":"","lng":125.175376,"lat":44.433758,"amap_id":"B0FFFT7N17","order":21,"prev_distance_km":0.002,"cumulative_distance_km":119.369,"amap_marker_url":"https://uri.amap.com/marker?position=125.175376,44.433758&name=%E5%BA%B7%E6%B3%B0%E9%A1%BA%E5%8A%A8%E7%89%A9%E5%8C%BB%E9%99%A2%28%E7%95%9C%E7%89%A7%E5%B1%80%E5%AE%B6%E5%B1%9E%E6%A5%BC%E5%BA%97%29&src=vetmap&coordinate=gaode&callnative=1","route_id":"r2","route_name":"第2段","global_order":47},{"name":"福平动物诊所","address":"兴华路与文育街交汇畜牧局综合楼1栋1层北1门","phone":"13843187664","category":"医疗保健服务;动物医疗场所;宠物诊所","area":"","lng":125.175329,"lat":44.433649,"amap_id":"B0J33CSCU5","order":22,"prev_distance_km":0.013,"cumulative_distance_km":119.381,"amap_marker_url":"https://uri.amap.com/marker?position=125.175329,44.433649&name=%E7%A6%8F%E5%B9%B3%E5%8A%A8%E7%89%A9%E8%AF%8A%E6%89%80&src=vetmap&coordinate=gaode&callnative=1","route_id":"r2","route_name":"第2段","global_order":48},{"name":"第一兽医所","address":"实验小学住宅南门北110米","phone":"13596121550","category":"医疗保健服务;动物医疗场所;兽医站","area":"","lng":125.175272,"lat":44.433389,"amap_id":"B0FFFOVNA9","order":23,"prev_distance_km":0.029,"cumulative_distance_km":119.411,"amap_marker_url":"https://uri.amap.com/marker?position=125.175272,44.433389&name=%E7%AC%AC%E4%B8%80%E5%85%BD%E5%8C%BB%E6%89%80&src=vetmap&coordinate=gaode&callnative=1","route_id":"r2","route_name":"第2段","global_order":49},{"name":"益宠动物诊所","address":"实验小学住宅南门北50米","phone":"15143089039","category":"医疗保健服务;动物医疗场所;宠物诊所","area":"","lng":125.175258,"lat":44.433025,"amap_id":"B0FFKJTGL2","order":24,"prev_distance_km":0.04,"cumulative_distance_km":119.451,"amap_marker_url":"https://uri.amap.com/marker?position=125.175258,44.433025&name=%E7%9B%8A%E5%AE%A0%E5%8A%A8%E7%89%A9%E8%AF%8A%E6%89%80&src=vetmap&coordinate=gaode&callnative=1","route_id":"r2","route_name":"第2段","global_order":50},{"name":"康牧兽医门诊(站前街)","address":"站前街","phone":"0431-86970666;0431-86971222;13007333777","category":"医疗保健服务;动物医疗场所;兽医站","area":"","lng":125.162913,"lat":44.437074,"amap_id":"B01AF09MPY","order":25,"prev_distance_km":1.079,"cumulative_distance_km":120.53,"amap_marker_url":"https://uri.amap.com/marker?position=125.162913,44.437074&name=%E5%BA%B7%E7%89%A7%E5%85%BD%E5%8C%BB%E9%97%A8%E8%AF%8A%28%E7%AB%99%E5%89%8D%E8%A1%97%29&src=vetmap&coordinate=gaode&callnative=1","route_id":"r2","route_name":"第2段","global_order":51},{"name":"单老师兽药店","address":"隆达·丽景新城北区西北门南60米","phone":"13894779416;18904343789","category":"医疗保健服务;动物医疗场所;兽医站","area":"","lng":125.163248,"lat":44.4392,"amap_id":"B0FFJOG36U","order":26,"prev_distance_km":0.238,"cumulative_distance_km":120.768,"amap_marker_url":"https://uri.amap.com/marker?position=125.163248,44.439200&name=%E5%8D%95%E8%80%81%E5%B8%88%E5%85%BD%E8%8D%AF%E5%BA%97&src=vetmap&coordinate=gaode&callnative=1","route_id":"r2","route_name":"第2段","global_order":52},{"name":"农安县祥和兽医门诊","address":"安平小区东门南120米","phone":"","category":"医疗保健服务;动物医疗场所;兽医站","area":"","lng":125.162638,"lat":44.439885,"amap_id":"B0FFMBNL34","order":27,"prev_distance_km":0.09,"cumulative_distance_km":120.858,"amap_marker_url":"https://uri.amap.com/marker?position=125.162638,44.439885&name=%E5%86%9C%E5%AE%89%E5%8E%BF%E7%A5%A5%E5%92%8C%E5%85%BD%E5%8C%BB%E9%97%A8%E8%AF%8A&src=vetmap&coordinate=gaode&callnative=1","route_id":"r2","route_name":"第2段","global_order":53}]}