{"summary":{"id":"d00192","province":"天津市","city":"天津市","district":"东丽区","count":33,"route_count":1,"max_route_clinics":33,"total_distance_km":65.902,"coordinate_system":"GCJ-02 / Amap","generated_at":"2026-05-07 21:26:54"},"routes":[{"id":"r1","name":"第1段","count":33,"total_distance_km":65.902,"rows":[{"name":"泓愿宠物医院东丽湖店","address":"东丽湖街道万科城五期商业中心阅溪苑9-108底商","phone":"13212217881","category":"医疗保健服务;动物医疗场所;宠物诊所","area":"","lng":117.508585,"lat":39.178111,"amap_id":"B0HDACY4XE","order":1,"prev_distance_km":0.0,"cumulative_distance_km":0.0,"amap_marker_url":"https://uri.amap.com/marker?position=117.508585,39.178111&name=%E6%B3%93%E6%84%BF%E5%AE%A0%E7%89%A9%E5%8C%BB%E9%99%A2%E4%B8%9C%E4%B8%BD%E6%B9%96%E5%BA%97&src=vetmap&coordinate=gaode&callnative=1","route_id":"r1","route_name":"第1段"},{"name":"妮娜弘顺天津宠物医院有限公司","address":"东丽大道与景福路交叉口西北240米","phone":"","category":"医疗保健服务;动物医疗场所;宠物诊所","area":"","lng":117.502039,"lat":39.18613,"amap_id":"B0LUXAN7NK","order":2,"prev_distance_km":1.055,"cumulative_distance_km":1.055,"amap_marker_url":"https://uri.amap.com/marker?position=117.502039,39.186130&name=%E5%A6%AE%E5%A8%9C%E5%BC%98%E9%A1%BA%E5%A4%A9%E6%B4%A5%E5%AE%A0%E7%89%A9%E5%8C%BB%E9%99%A2%E6%9C%89%E9%99%90%E5%85%AC%E5%8F%B8&src=vetmap&coordinate=gaode&callnative=1","route_id":"r1","route_name":"第1段"},{"name":"乖乖宠物医院","address":"万科城湖畔广场7号楼5门一层","phone":"022-24882150;13299934520","category":"医疗保健服务;动物医疗场所;宠物诊所","area":"","lng":117.493312,"lat":39.182424,"amap_id":"B0J3SHV8LI","order":3,"prev_distance_km":0.858,"cumulative_distance_km":1.913,"amap_marker_url":"https://uri.amap.com/marker?position=117.493312,39.182424&name=%E4%B9%96%E4%B9%96%E5%AE%A0%E7%89%A9%E5%8C%BB%E9%99%A2&src=vetmap&coordinate=gaode&callnative=1","route_id":"r1","route_name":"第1段"},{"name":"新欣宠物会馆(恒大绿洲店)","address":"芳樱路恒大绿洲小区西区","phone":"13702021367","category":"医疗保健服务;动物医疗场所;动物医疗场所","area":"","lng":117.468834,"lat":39.195367,"amap_id":"B0G144DJ3A","order":4,"prev_distance_km":2.554,"cumulative_distance_km":4.467,"amap_marker_url":"https://uri.amap.com/marker?position=117.468834,39.195367&name=%E6%96%B0%E6%AC%A3%E5%AE%A0%E7%89%A9%E4%BC%9A%E9%A6%86%28%E6%81%92%E5%A4%A7%E7%BB%BF%E6%B4%B2%E5%BA%97%29&src=vetmap&coordinate=gaode&callnative=1","route_id":"r1","route_name":"第1段"},{"name":"鲲栖宠物医院","address":"秀拉花园2号楼底商10门","phone":"18902098847","category":"医疗保健服务;动物医疗场所;宠物诊所","area":"","lng":117.405283,"lat":39.173946,"amap_id":"B0J31RKUCG","order":5,"prev_distance_km":5.973,"cumulative_distance_km":10.439,"amap_marker_url":"https://uri.amap.com/marker?position=117.405283,39.173946&name=%E9%B2%B2%E6%A0%96%E5%AE%A0%E7%89%A9%E5%8C%BB%E9%99%A2&src=vetmap&coordinate=gaode&callnative=1","route_id":"r1","route_name":"第1段"},{"name":"天宠宠物医院(华明镇分院)","address":"华明镇弘信道67号","phone":"13194683316;18002030199","category":"医疗保健服务;动物医疗场所;宠物诊所","area":"","lng":117.400446,"lat":39.174325,"amap_id":"B0H2DCCU86","order":6,"prev_distance_km":0.419,"cumulative_distance_km":10.859,"amap_marker_url":"https://uri.amap.com/marker?position=117.400446,39.174325&name=%E5%A4%A9%E5%AE%A0%E5%AE%A0%E7%89%A9%E5%8C%BB%E9%99%A2%28%E5%8D%8E%E6%98%8E%E9%95%87%E5%88%86%E9%99%A2%29&src=vetmap&coordinate=gaode&callnative=1","route_id":"r1","route_name":"第1段"},{"name":"弘愿宠物医院","address":"弘愿道311号","phone":"18920780690","category":"医疗保健服务;动物医疗场所;宠物诊所","area":"","lng":117.395637,"lat":39.175645,"amap_id":"B0FFHVNUUB","order":7,"prev_distance_km":0.44,"cumulative_distance_km":11.298,"amap_marker_url":"https://uri.amap.com/marker?position=117.395637,39.175645&name=%E5%BC%98%E6%84%BF%E5%AE%A0%E7%89%A9%E5%8C%BB%E9%99%A2&src=vetmap&coordinate=gaode&callnative=1","route_id":"r1","route_name":"第1段"},{"name":"康汇宠物医院","address":"华明街道弘信道香润轩8-205、206","phone":"15320147779;18222251727","category":"医疗保健服务;动物医疗场所;宠物诊所","area":"","lng":117.394628,"lat":39.174627,"amap_id":"B0L35ME67J","order":8,"prev_distance_km":0.143,"cumulative_distance_km":11.441,"amap_marker_url":"https://uri.amap.com/marker?position=117.394628,39.174627&name=%E5%BA%B7%E6%B1%87%E5%AE%A0%E7%89%A9%E5%8C%BB%E9%99%A2&src=vetmap&coordinate=gaode&callnative=1","route_id":"r1","route_name":"第1段"},{"name":"仁心宠物医院空港小动物诊疗中心","address":"中心大道与东七道交口远航商务中心C区106","phone":"15131829825;18920166151","category":"医疗保健服务;动物医疗场所;宠物诊所","area":"","lng":117.405719,"lat":39.143808,"amap_id":"B0JAYHDDS2","order":9,"prev_distance_km":3.558,"cumulative_distance_km":14.999,"amap_marker_url":"https://uri.amap.com/marker?position=117.405719,39.143808&name=%E4%BB%81%E5%BF%83%E5%AE%A0%E7%89%A9%E5%8C%BB%E9%99%A2%E7%A9%BA%E6%B8%AF%E5%B0%8F%E5%8A%A8%E7%89%A9%E8%AF%8A%E7%96%97%E4%B8%AD%E5%BF%83&src=vetmap&coordinate=gaode&callnative=1","route_id":"r1","route_name":"第1段"},{"name":"乖乖宠物医院(华明分院)","address":"映春路红山壹号院15号楼底商15号","phone":"13132052860","category":"医疗保健服务;动物医疗场所;宠物诊所","area":"华明","lng":117.380336,"lat":39.164366,"amap_id":"B0HRFM1H1E","order":10,"prev_distance_km":3.165,"cumulative_distance_km":18.164,"amap_marker_url":"https://uri.amap.com/marker?position=117.380336,39.164366&name=%E4%B9%96%E4%B9%96%E5%AE%A0%E7%89%A9%E5%8C%BB%E9%99%A2%28%E5%8D%8E%E6%98%8E%E5%88%86%E9%99%A2%29&src=vetmap&coordinate=gaode&callnative=1","route_id":"r1","route_name":"第1段"},{"name":"小动物急重症诊疗中心","address":"红山壹号院北门东南300米","phone":"","category":"医疗保健服务;动物医疗场所;宠物诊所","area":"华明","lng":117.380375,"lat":39.164475,"amap_id":"B0LD2NIGUI","order":11,"prev_distance_km":0.013,"cumulative_distance_km":18.176,"amap_marker_url":"https://uri.amap.com/marker?position=117.380375,39.164475&name=%E5%B0%8F%E5%8A%A8%E7%89%A9%E6%80%A5%E9%87%8D%E7%97%87%E8%AF%8A%E7%96%97%E4%B8%AD%E5%BF%83&src=vetmap&coordinate=gaode&callnative=1","route_id":"r1","route_name":"第1段"},{"name":"阳光宠物医院","address":"华明街道金泰丽湾东北门底商34-11号","phone":"022-24896962;18910146614","category":"医疗保健服务;动物医疗场所;宠物诊所","area":"华明","lng":117.376718,"lat":39.167593,"amap_id":"B0I6F7KPY2","order":12,"prev_distance_km":0.469,"cumulative_distance_km":18.645,"amap_marker_url":"https://uri.amap.com/marker?position=117.376718,39.167593&name=%E9%98%B3%E5%85%89%E5%AE%A0%E7%89%A9%E5%8C%BB%E9%99%A2&src=vetmap&coordinate=gaode&callnative=1","route_id":"r1","route_name":"第1段"},{"name":"蒙琦琦宠物诊所","address":"金河家园1号楼底商13号(大毕庄地铁站D口步行100米)","phone":"15222001518","category":"医疗保健服务;动物医疗场所;宠物诊所","area":"金钟路","lng":117.280209,"lat":39.204081,"amap_id":"B0I1NU8CIH","order":13,"prev_distance_km":9.255,"cumulative_distance_km":27.9,"amap_marker_url":"https://uri.amap.com/marker?position=117.280209,39.204081&name=%E8%92%99%E7%90%A6%E7%90%A6%E5%AE%A0%E7%89%A9%E8%AF%8A%E6%89%80&src=vetmap&coordinate=gaode&callnative=1","route_id":"r1","route_name":"第1段"},{"name":"南何庄宠物诊所","address":"津芦线金河家园(大毕庄地铁站D口步行270米)","phone":"","category":"医疗保健服务;动物医疗场所;宠物诊所","area":"金钟路","lng":117.278874,"lat":39.205622,"amap_id":"B0FFKD0YP6","order":14,"prev_distance_km":0.206,"cumulative_distance_km":28.106,"amap_marker_url":"https://uri.amap.com/marker?position=117.278874,39.205622&name=%E5%8D%97%E4%BD%95%E5%BA%84%E5%AE%A0%E7%89%A9%E8%AF%8A%E6%89%80&src=vetmap&coordinate=gaode&callnative=1","route_id":"r1","route_name":"第1段"},{"name":"安吉康宠物医院","address":"满江道与昆仑路交口保利玫瑰湾1期底商7-103号","phone":"15602005525","category":"医疗保健服务;动物医疗场所;宠物诊所","area":"","lng":117.264937,"lat":39.161305,"amap_id":"B0FFG0P1YY","order":15,"prev_distance_km":5.072,"cumulative_distance_km":33.178,"amap_marker_url":"https://uri.amap.com/marker?position=117.264937,39.161305&name=%E5%AE%89%E5%90%89%E5%BA%B7%E5%AE%A0%E7%89%A9%E5%8C%BB%E9%99%A2&src=vetmap&coordinate=gaode&callnative=1","route_id":"r1","route_name":"第1段"},{"name":"博善宠物诊疗中心","address":"登州路2-号华城庭苑底商","phone":"13642016698","category":"医疗保健服务;动物医疗场所;宠物诊所","area":"","lng":117.294255,"lat":39.164566,"amap_id":"B0I0C5FLCV","order":16,"prev_distance_km":2.554,"cumulative_distance_km":35.732,"amap_marker_url":"https://uri.amap.com/marker?position=117.294255,39.164566&name=%E5%8D%9A%E5%96%84%E5%AE%A0%E7%89%A9%E8%AF%8A%E7%96%97%E4%B8%AD%E5%BF%83&src=vetmap&coordinate=gaode&callnative=1","route_id":"r1","route_name":"第1段"},{"name":"它爱宠物医院","address":"舒畅嘉园","phone":"18698079554","category":"医疗保健服务;动物医疗场所;宠物诊所","area":"程林","lng":117.296358,"lat":39.128168,"amap_id":"B0JDMAOEGP","order":17,"prev_distance_km":4.051,"cumulative_distance_km":39.783,"amap_marker_url":"https://uri.amap.com/marker?position=117.296358,39.128168&name=%E5%AE%83%E7%88%B1%E5%AE%A0%E7%89%A9%E5%8C%BB%E9%99%A2&src=vetmap&coordinate=gaode&callnative=1","route_id":"r1","route_name":"第1段"},{"name":"众心宠物医院","address":"雪莲路辅路与万山道交叉口西北300米","phone":"","category":"医疗保健服务;动物医疗场所;宠物诊所","area":"程林","lng":117.296375,"lat":39.128125,"amap_id":"B0L12OVFWL","order":18,"prev_distance_km":0.005,"cumulative_distance_km":39.788,"amap_marker_url":"https://uri.amap.com/marker?position=117.296375,39.128125&name=%E4%BC%97%E5%BF%83%E5%AE%A0%E7%89%A9%E5%8C%BB%E9%99%A2&src=vetmap&coordinate=gaode&callnative=1","route_id":"r1","route_name":"第1段"},{"name":"天宠24小时宠物医院·急重证转诊中心(总院)","address":"天山南路万新大厦底商1-105至107","phone":"17622925968","category":"医疗保健服务;动物医疗场所;宠物诊所","area":"万新街","lng":117.282334,"lat":39.120484,"amap_id":"B001618J3P","order":19,"prev_distance_km":1.48,"cumulative_distance_km":41.267,"amap_marker_url":"https://uri.amap.com/marker?position=117.282334,39.120484&name=%E5%A4%A9%E5%AE%A024%E5%B0%8F%E6%97%B6%E5%AE%A0%E7%89%A9%E5%8C%BB%E9%99%A2%C2%B7%E6%80%A5%E9%87%8D%E8%AF%81%E8%BD%AC%E8%AF%8A%E4%B8%AD%E5%BF%83%28%E6%80%BB%E9%99%A2%29&src=vetmap&coordinate=gaode&callnative=1","route_id":"r1","route_name":"第1段"},{"name":"宠爱宝贝宠物诊疗中心","address":"同州南路63号","phone":"13502118921","category":"医疗保健服务;动物医疗场所;宠物诊所","area":"","lng":117.310038,"lat":39.112102,"amap_id":"B0KAASBSWT","order":20,"prev_distance_km":2.565,"cumulative_distance_km":43.833,"amap_marker_url":"https://uri.amap.com/marker?position=117.310038,39.112102&name=%E5%AE%A0%E7%88%B1%E5%AE%9D%E8%B4%9D%E5%AE%A0%E7%89%A9%E8%AF%8A%E7%96%97%E4%B8%AD%E5%BF%83&src=vetmap&coordinate=gaode&callnative=1","route_id":"r1","route_name":"第1段"},{"name":"宠奇妙宠物诊所","address":"登州南路与海山道交叉口东260米","phone":"","category":"医疗保健服务;动物医疗场所;宠物诊所","area":"","lng":117.310016,"lat":39.112041,"amap_id":"B0JA7ZWFJH","order":21,"prev_distance_km":0.007,"cumulative_distance_km":43.84,"amap_marker_url":"https://uri.amap.com/marker?position=117.310016,39.112041&name=%E5%AE%A0%E5%A5%87%E5%A6%99%E5%AE%A0%E7%89%A9%E8%AF%8A%E6%89%80&src=vetmap&coordinate=gaode&callnative=1","route_id":"r1","route_name":"第1段"},{"name":"乖乖宠物医院(东丽店)","address":"新立街道规划登州南路与规划惠山道交口处雅筑北苑25号楼-30号","phone":"15620885985","category":"医疗保健服务;动物医疗场所;宠物诊所|医疗保健服务;专科医院;专科医院","area":"程林","lng":117.30654,"lat":39.108043,"amap_id":"B0FFLLA35Q","order":22,"prev_distance_km":0.536,"cumulative_distance_km":44.376,"amap_marker_url":"https://uri.amap.com/marker?position=117.306540,39.108043&name=%E4%B9%96%E4%B9%96%E5%AE%A0%E7%89%A9%E5%8C%BB%E9%99%A2%28%E4%B8%9C%E4%B8%BD%E5%BA%97%29&src=vetmap&coordinate=gaode&callnative=1","route_id":"r1","route_name":"第1段"},{"name":"馨康宠物诊所","address":"二号桥街道二号桥附近黄岩里1号楼6门底商","phone":"15332107603","category":"医疗保健服务;动物医疗场所;宠物诊所","area":"","lng":117.300616,"lat":39.089902,"amap_id":"B0FFGI9THK","order":23,"prev_distance_km":2.081,"cumulative_distance_km":46.457,"amap_marker_url":"https://uri.amap.com/marker?position=117.300616,39.089902&name=%E9%A6%A8%E5%BA%B7%E5%AE%A0%E7%89%A9%E8%AF%8A%E6%89%80&src=vetmap&coordinate=gaode&callnative=1","route_id":"r1","route_name":"第1段"},{"name":"铭优宠物医院(先锋路店)","address":"利津路以东榕洋金城B座2-101号","phone":"18222110710","category":"医疗保健服务;动物医疗场所;宠物诊所","area":"张贵庄街","lng":117.309115,"lat":39.090491,"amap_id":"B0H69SIDKR","order":24,"prev_distance_km":0.736,"cumulative_distance_km":47.194,"amap_marker_url":"https://uri.amap.com/marker?position=117.309115,39.090491&name=%E9%93%AD%E4%BC%98%E5%AE%A0%E7%89%A9%E5%8C%BB%E9%99%A2%28%E5%85%88%E9%94%8B%E8%B7%AF%E5%BA%97%29&src=vetmap&coordinate=gaode&callnative=1","route_id":"r1","route_name":"第1段"},{"name":"动物防疫","address":"跃进路7号附近","phone":"","category":"医疗保健服务;动物医疗场所;动物医疗场所","area":"","lng":117.318682,"lat":39.096978,"amap_id":"B0FFG2I9PL","order":25,"prev_distance_km":1.096,"cumulative_distance_km":48.29,"amap_marker_url":"https://uri.amap.com/marker?position=117.318682,39.096978&name=%E5%8A%A8%E7%89%A9%E9%98%B2%E7%96%AB&src=vetmap&coordinate=gaode&callnative=1","route_id":"r1","route_name":"第1段"},{"name":"宠博士超康宠物医院","address":"华夏未来万科民和巷幼儿园南门旁","phone":"18698139689","category":"医疗保健服务;动物医疗场所;宠物诊所","area":"","lng":117.3254,"lat":39.092523,"amap_id":"B0HRK7E20A","order":26,"prev_distance_km":0.763,"cumulative_distance_km":49.052,"amap_marker_url":"https://uri.amap.com/marker?position=117.325400,39.092523&name=%E5%AE%A0%E5%8D%9A%E5%A3%AB%E8%B6%85%E5%BA%B7%E5%AE%A0%E7%89%A9%E5%8C%BB%E9%99%A2&src=vetmap&coordinate=gaode&callnative=1","route_id":"r1","route_name":"第1段"},{"name":"玖福宠物医院","address":"万科民和巷C区民和花苑22号楼配件四-103","phone":"17694968960","category":"医疗保健服务;动物医疗场所;宠物诊所","area":"","lng":117.329175,"lat":39.091825,"amap_id":"B0KDRODID6","order":27,"prev_distance_km":0.335,"cumulative_distance_km":49.387,"amap_marker_url":"https://uri.amap.com/marker?position=117.329175,39.091825&name=%E7%8E%96%E7%A6%8F%E5%AE%A0%E7%89%A9%E5%8C%BB%E9%99%A2&src=vetmap&coordinate=gaode&callnative=1","route_id":"r1","route_name":"第1段"},{"name":"窝居宠物医院","address":"一经路天合家园5-1-2","phone":"022-24980000;18622878887","category":"医疗保健服务;动物医疗场所;宠物诊所","area":"","lng":117.351075,"lat":39.079075,"amap_id":"B0KURH1RRZ","order":28,"prev_distance_km":2.363,"cumulative_distance_km":51.75,"amap_marker_url":"https://uri.amap.com/marker?position=117.351075,39.079075&name=%E7%AA%9D%E5%B1%85%E5%AE%A0%E7%89%A9%E5%8C%BB%E9%99%A2&src=vetmap&coordinate=gaode&callnative=1","route_id":"r1","route_name":"第1段"},{"name":"轩悦宠物店","address":"新明路与旌智道交叉口北140米","phone":"","category":"医疗保健服务;动物医疗场所;动物医疗场所|购物服务;专卖店;宠物用品店","area":"","lng":117.359325,"lat":39.086575,"amap_id":"B0M62DUFHU","order":29,"prev_distance_km":1.097,"cumulative_distance_km":52.847,"amap_marker_url":"https://uri.amap.com/marker?position=117.359325,39.086575&name=%E8%BD%A9%E6%82%A6%E5%AE%A0%E7%89%A9%E5%BA%97&src=vetmap&coordinate=gaode&callnative=1","route_id":"r1","route_name":"第1段"},{"name":"天宠宠物医院(新桂路店)","address":"新桂路蓝庭广场1-34号","phone":"17602695911","category":"医疗保健服务;动物医疗场所;宠物诊所","area":"","lng":117.362892,"lat":39.082704,"amap_id":"B0GRMSWRJH","order":30,"prev_distance_km":0.529,"cumulative_distance_km":53.376,"amap_marker_url":"https://uri.amap.com/marker?position=117.362892,39.082704&name=%E5%A4%A9%E5%AE%A0%E5%AE%A0%E7%89%A9%E5%8C%BB%E9%99%A2%28%E6%96%B0%E6%A1%82%E8%B7%AF%E5%BA%97%29&src=vetmap&coordinate=gaode&callnative=1","route_id":"r1","route_name":"第1段"},{"name":"世家宠物诊疗中心","address":"津塘公路697号滨海钢材城第三排座4648号","phone":"13672101559;15022785005","category":"医疗保健服务;动物医疗场所;宠物诊所","area":"","lng":117.435525,"lat":39.056616,"amap_id":"B0G2KCTTON","order":31,"prev_distance_km":6.909,"cumulative_distance_km":60.285,"amap_marker_url":"https://uri.amap.com/marker?position=117.435525,39.056616&name=%E4%B8%96%E5%AE%B6%E5%AE%A0%E7%89%A9%E8%AF%8A%E7%96%97%E4%B8%AD%E5%BF%83&src=vetmap&coordinate=gaode&callnative=1","route_id":"r1","route_name":"第1段"},{"name":"铭锐宠物医院","address":"丹霞路与大安道交叉口西北220米","phone":"18522596984","category":"医疗保健服务;动物医疗场所;宠物诊所","area":"","lng":117.436275,"lat":39.056775,"amap_id":"B0M6XHPEJZ","order":32,"prev_distance_km":0.067,"cumulative_distance_km":60.352,"amap_marker_url":"https://uri.amap.com/marker?position=117.436275,39.056775&name=%E9%93%AD%E9%94%90%E5%AE%A0%E7%89%A9%E5%8C%BB%E9%99%A2&src=vetmap&coordinate=gaode&callnative=1","route_id":"r1","route_name":"第1段"},{"name":"予安宠物医院","address":"春霞里北门底商西6号","phone":"18630994170","category":"医疗保健服务;动物医疗场所;宠物诊所","area":"无瑕","lng":117.499566,"lat":39.048096,"amap_id":"B0FFIMUGM3","order":33,"prev_distance_km":5.55,"cumulative_distance_km":65.902,"amap_marker_url":"https://uri.amap.com/marker?position=117.499566,39.048096&name=%E4%BA%88%E5%AE%89%E5%AE%A0%E7%89%A9%E5%8C%BB%E9%99%A2&src=vetmap&coordinate=gaode&callnative=1","route_id":"r1","route_name":"第1段"}]}],"rows":[{"name":"泓愿宠物医院东丽湖店","address":"东丽湖街道万科城五期商业中心阅溪苑9-108底商","phone":"13212217881","category":"医疗保健服务;动物医疗场所;宠物诊所","area":"","lng":117.508585,"lat":39.178111,"amap_id":"B0HDACY4XE","order":1,"prev_distance_km":0.0,"cumulative_distance_km":0.0,"amap_marker_url":"https://uri.amap.com/marker?position=117.508585,39.178111&name=%E6%B3%93%E6%84%BF%E5%AE%A0%E7%89%A9%E5%8C%BB%E9%99%A2%E4%B8%9C%E4%B8%BD%E6%B9%96%E5%BA%97&src=vetmap&coordinate=gaode&callnative=1","route_id":"r1","route_name":"第1段","global_order":1},{"name":"妮娜弘顺天津宠物医院有限公司","address":"东丽大道与景福路交叉口西北240米","phone":"","category":"医疗保健服务;动物医疗场所;宠物诊所","area":"","lng":117.502039,"lat":39.18613,"amap_id":"B0LUXAN7NK","order":2,"prev_distance_km":1.055,"cumulative_distance_km":1.055,"amap_marker_url":"https://uri.amap.com/marker?position=117.502039,39.186130&name=%E5%A6%AE%E5%A8%9C%E5%BC%98%E9%A1%BA%E5%A4%A9%E6%B4%A5%E5%AE%A0%E7%89%A9%E5%8C%BB%E9%99%A2%E6%9C%89%E9%99%90%E5%85%AC%E5%8F%B8&src=vetmap&coordinate=gaode&callnative=1","route_id":"r1","route_name":"第1段","global_order":2},{"name":"乖乖宠物医院","address":"万科城湖畔广场7号楼5门一层","phone":"022-24882150;13299934520","category":"医疗保健服务;动物医疗场所;宠物诊所","area":"","lng":117.493312,"lat":39.182424,"amap_id":"B0J3SHV8LI","order":3,"prev_distance_km":0.858,"cumulative_distance_km":1.913,"amap_marker_url":"https://uri.amap.com/marker?position=117.493312,39.182424&name=%E4%B9%96%E4%B9%96%E5%AE%A0%E7%89%A9%E5%8C%BB%E9%99%A2&src=vetmap&coordinate=gaode&callnative=1","route_id":"r1","route_name":"第1段","global_order":3},{"name":"新欣宠物会馆(恒大绿洲店)","address":"芳樱路恒大绿洲小区西区","phone":"13702021367","category":"医疗保健服务;动物医疗场所;动物医疗场所","area":"","lng":117.468834,"lat":39.195367,"amap_id":"B0G144DJ3A","order":4,"prev_distance_km":2.554,"cumulative_distance_km":4.467,"amap_marker_url":"https://uri.amap.com/marker?position=117.468834,39.195367&name=%E6%96%B0%E6%AC%A3%E5%AE%A0%E7%89%A9%E4%BC%9A%E9%A6%86%28%E6%81%92%E5%A4%A7%E7%BB%BF%E6%B4%B2%E5%BA%97%29&src=vetmap&coordinate=gaode&callnative=1","route_id":"r1","route_name":"第1段","global_order":4},{"name":"鲲栖宠物医院","address":"秀拉花园2号楼底商10门","phone":"18902098847","category":"医疗保健服务;动物医疗场所;宠物诊所","area":"","lng":117.405283,"lat":39.173946,"amap_id":"B0J31RKUCG","order":5,"prev_distance_km":5.973,"cumulative_distance_km":10.439,"amap_marker_url":"https://uri.amap.com/marker?position=117.405283,39.173946&name=%E9%B2%B2%E6%A0%96%E5%AE%A0%E7%89%A9%E5%8C%BB%E9%99%A2&src=vetmap&coordinate=gaode&callnative=1","route_id":"r1","route_name":"第1段","global_order":5},{"name":"天宠宠物医院(华明镇分院)","address":"华明镇弘信道67号","phone":"13194683316;18002030199","category":"医疗保健服务;动物医疗场所;宠物诊所","area":"","lng":117.400446,"lat":39.174325,"amap_id":"B0H2DCCU86","order":6,"prev_distance_km":0.419,"cumulative_distance_km":10.859,"amap_marker_url":"https://uri.amap.com/marker?position=117.400446,39.174325&name=%E5%A4%A9%E5%AE%A0%E5%AE%A0%E7%89%A9%E5%8C%BB%E9%99%A2%28%E5%8D%8E%E6%98%8E%E9%95%87%E5%88%86%E9%99%A2%29&src=vetmap&coordinate=gaode&callnative=1","route_id":"r1","route_name":"第1段","global_order":6},{"name":"弘愿宠物医院","address":"弘愿道311号","phone":"18920780690","category":"医疗保健服务;动物医疗场所;宠物诊所","area":"","lng":117.395637,"lat":39.175645,"amap_id":"B0FFHVNUUB","order":7,"prev_distance_km":0.44,"cumulative_distance_km":11.298,"amap_marker_url":"https://uri.amap.com/marker?position=117.395637,39.175645&name=%E5%BC%98%E6%84%BF%E5%AE%A0%E7%89%A9%E5%8C%BB%E9%99%A2&src=vetmap&coordinate=gaode&callnative=1","route_id":"r1","route_name":"第1段","global_order":7},{"name":"康汇宠物医院","address":"华明街道弘信道香润轩8-205、206","phone":"15320147779;18222251727","category":"医疗保健服务;动物医疗场所;宠物诊所","area":"","lng":117.394628,"lat":39.174627,"amap_id":"B0L35ME67J","order":8,"prev_distance_km":0.143,"cumulative_distance_km":11.441,"amap_marker_url":"https://uri.amap.com/marker?position=117.394628,39.174627&name=%E5%BA%B7%E6%B1%87%E5%AE%A0%E7%89%A9%E5%8C%BB%E9%99%A2&src=vetmap&coordinate=gaode&callnative=1","route_id":"r1","route_name":"第1段","global_order":8},{"name":"仁心宠物医院空港小动物诊疗中心","address":"中心大道与东七道交口远航商务中心C区106","phone":"15131829825;18920166151","category":"医疗保健服务;动物医疗场所;宠物诊所","area":"","lng":117.405719,"lat":39.143808,"amap_id":"B0JAYHDDS2","order":9,"prev_distance_km":3.558,"cumulative_distance_km":14.999,"amap_marker_url":"https://uri.amap.com/marker?position=117.405719,39.143808&name=%E4%BB%81%E5%BF%83%E5%AE%A0%E7%89%A9%E5%8C%BB%E9%99%A2%E7%A9%BA%E6%B8%AF%E5%B0%8F%E5%8A%A8%E7%89%A9%E8%AF%8A%E7%96%97%E4%B8%AD%E5%BF%83&src=vetmap&coordinate=gaode&callnative=1","route_id":"r1","route_name":"第1段","global_order":9},{"name":"乖乖宠物医院(华明分院)","address":"映春路红山壹号院15号楼底商15号","phone":"13132052860","category":"医疗保健服务;动物医疗场所;宠物诊所","area":"华明","lng":117.380336,"lat":39.164366,"amap_id":"B0HRFM1H1E","order":10,"prev_distance_km":3.165,"cumulative_distance_km":18.164,"amap_marker_url":"https://uri.amap.com/marker?position=117.380336,39.164366&name=%E4%B9%96%E4%B9%96%E5%AE%A0%E7%89%A9%E5%8C%BB%E9%99%A2%28%E5%8D%8E%E6%98%8E%E5%88%86%E9%99%A2%29&src=vetmap&coordinate=gaode&callnative=1","route_id":"r1","route_name":"第1段","global_order":10},{"name":"小动物急重症诊疗中心","address":"红山壹号院北门东南300米","phone":"","category":"医疗保健服务;动物医疗场所;宠物诊所","area":"华明","lng":117.380375,"lat":39.164475,"amap_id":"B0LD2NIGUI","order":11,"prev_distance_km":0.013,"cumulative_distance_km":18.176,"amap_marker_url":"https://uri.amap.com/marker?position=117.380375,39.164475&name=%E5%B0%8F%E5%8A%A8%E7%89%A9%E6%80%A5%E9%87%8D%E7%97%87%E8%AF%8A%E7%96%97%E4%B8%AD%E5%BF%83&src=vetmap&coordinate=gaode&callnative=1","route_id":"r1","route_name":"第1段","global_order":11},{"name":"阳光宠物医院","address":"华明街道金泰丽湾东北门底商34-11号","phone":"022-24896962;18910146614","category":"医疗保健服务;动物医疗场所;宠物诊所","area":"华明","lng":117.376718,"lat":39.167593,"amap_id":"B0I6F7KPY2","order":12,"prev_distance_km":0.469,"cumulative_distance_km":18.645,"amap_marker_url":"https://uri.amap.com/marker?position=117.376718,39.167593&name=%E9%98%B3%E5%85%89%E5%AE%A0%E7%89%A9%E5%8C%BB%E9%99%A2&src=vetmap&coordinate=gaode&callnative=1","route_id":"r1","route_name":"第1段","global_order":12},{"name":"蒙琦琦宠物诊所","address":"金河家园1号楼底商13号(大毕庄地铁站D口步行100米)","phone":"15222001518","category":"医疗保健服务;动物医疗场所;宠物诊所","area":"金钟路","lng":117.280209,"lat":39.204081,"amap_id":"B0I1NU8CIH","order":13,"prev_distance_km":9.255,"cumulative_distance_km":27.9,"amap_marker_url":"https://uri.amap.com/marker?position=117.280209,39.204081&name=%E8%92%99%E7%90%A6%E7%90%A6%E5%AE%A0%E7%89%A9%E8%AF%8A%E6%89%80&src=vetmap&coordinate=gaode&callnative=1","route_id":"r1","route_name":"第1段","global_order":13},{"name":"南何庄宠物诊所","address":"津芦线金河家园(大毕庄地铁站D口步行270米)","phone":"","category":"医疗保健服务;动物医疗场所;宠物诊所","area":"金钟路","lng":117.278874,"lat":39.205622,"amap_id":"B0FFKD0YP6","order":14,"prev_distance_km":0.206,"cumulative_distance_km":28.106,"amap_marker_url":"https://uri.amap.com/marker?position=117.278874,39.205622&name=%E5%8D%97%E4%BD%95%E5%BA%84%E5%AE%A0%E7%89%A9%E8%AF%8A%E6%89%80&src=vetmap&coordinate=gaode&callnative=1","route_id":"r1","route_name":"第1段","global_order":14},{"name":"安吉康宠物医院","address":"满江道与昆仑路交口保利玫瑰湾1期底商7-103号","phone":"15602005525","category":"医疗保健服务;动物医疗场所;宠物诊所","area":"","lng":117.264937,"lat":39.161305,"amap_id":"B0FFG0P1YY","order":15,"prev_distance_km":5.072,"cumulative_distance_km":33.178,"amap_marker_url":"https://uri.amap.com/marker?position=117.264937,39.161305&name=%E5%AE%89%E5%90%89%E5%BA%B7%E5%AE%A0%E7%89%A9%E5%8C%BB%E9%99%A2&src=vetmap&coordinate=gaode&callnative=1","route_id":"r1","route_name":"第1段","global_order":15},{"name":"博善宠物诊疗中心","address":"登州路2-号华城庭苑底商","phone":"13642016698","category":"医疗保健服务;动物医疗场所;宠物诊所","area":"","lng":117.294255,"lat":39.164566,"amap_id":"B0I0C5FLCV","order":16,"prev_distance_km":2.554,"cumulative_distance_km":35.732,"amap_marker_url":"https://uri.amap.com/marker?position=117.294255,39.164566&name=%E5%8D%9A%E5%96%84%E5%AE%A0%E7%89%A9%E8%AF%8A%E7%96%97%E4%B8%AD%E5%BF%83&src=vetmap&coordinate=gaode&callnative=1","route_id":"r1","route_name":"第1段","global_order":16},{"name":"它爱宠物医院","address":"舒畅嘉园","phone":"18698079554","category":"医疗保健服务;动物医疗场所;宠物诊所","area":"程林","lng":117.296358,"lat":39.128168,"amap_id":"B0JDMAOEGP","order":17,"prev_distance_km":4.051,"cumulative_distance_km":39.783,"amap_marker_url":"https://uri.amap.com/marker?position=117.296358,39.128168&name=%E5%AE%83%E7%88%B1%E5%AE%A0%E7%89%A9%E5%8C%BB%E9%99%A2&src=vetmap&coordinate=gaode&callnative=1","route_id":"r1","route_name":"第1段","global_order":17},{"name":"众心宠物医院","address":"雪莲路辅路与万山道交叉口西北300米","phone":"","category":"医疗保健服务;动物医疗场所;宠物诊所","area":"程林","lng":117.296375,"lat":39.128125,"amap_id":"B0L12OVFWL","order":18,"prev_distance_km":0.005,"cumulative_distance_km":39.788,"amap_marker_url":"https://uri.amap.com/marker?position=117.296375,39.128125&name=%E4%BC%97%E5%BF%83%E5%AE%A0%E7%89%A9%E5%8C%BB%E9%99%A2&src=vetmap&coordinate=gaode&callnative=1","route_id":"r1","route_name":"第1段","global_order":18},{"name":"天宠24小时宠物医院·急重证转诊中心(总院)","address":"天山南路万新大厦底商1-105至107","phone":"17622925968","category":"医疗保健服务;动物医疗场所;宠物诊所","area":"万新街","lng":117.282334,"lat":39.120484,"amap_id":"B001618J3P","order":19,"prev_distance_km":1.48,"cumulative_distance_km":41.267,"amap_marker_url":"https://uri.amap.com/marker?position=117.282334,39.120484&name=%E5%A4%A9%E5%AE%A024%E5%B0%8F%E6%97%B6%E5%AE%A0%E7%89%A9%E5%8C%BB%E9%99%A2%C2%B7%E6%80%A5%E9%87%8D%E8%AF%81%E8%BD%AC%E8%AF%8A%E4%B8%AD%E5%BF%83%28%E6%80%BB%E9%99%A2%29&src=vetmap&coordinate=gaode&callnative=1","route_id":"r1","route_name":"第1段","global_order":19},{"name":"宠爱宝贝宠物诊疗中心","address":"同州南路63号","phone":"13502118921","category":"医疗保健服务;动物医疗场所;宠物诊所","area":"","lng":117.310038,"lat":39.112102,"amap_id":"B0KAASBSWT","order":20,"prev_distance_km":2.565,"cumulative_distance_km":43.833,"amap_marker_url":"https://uri.amap.com/marker?position=117.310038,39.112102&name=%E5%AE%A0%E7%88%B1%E5%AE%9D%E8%B4%9D%E5%AE%A0%E7%89%A9%E8%AF%8A%E7%96%97%E4%B8%AD%E5%BF%83&src=vetmap&coordinate=gaode&callnative=1","route_id":"r1","route_name":"第1段","global_order":20},{"name":"宠奇妙宠物诊所","address":"登州南路与海山道交叉口东260米","phone":"","category":"医疗保健服务;动物医疗场所;宠物诊所","area":"","lng":117.310016,"lat":39.112041,"amap_id":"B0JA7ZWFJH","order":21,"prev_distance_km":0.007,"cumulative_distance_km":43.84,"amap_marker_url":"https://uri.amap.com/marker?position=117.310016,39.112041&name=%E5%AE%A0%E5%A5%87%E5%A6%99%E5%AE%A0%E7%89%A9%E8%AF%8A%E6%89%80&src=vetmap&coordinate=gaode&callnative=1","route_id":"r1","route_name":"第1段","global_order":21},{"name":"乖乖宠物医院(东丽店)","address":"新立街道规划登州南路与规划惠山道交口处雅筑北苑25号楼-30号","phone":"15620885985","category":"医疗保健服务;动物医疗场所;宠物诊所|医疗保健服务;专科医院;专科医院","area":"程林","lng":117.30654,"lat":39.108043,"amap_id":"B0FFLLA35Q","order":22,"prev_distance_km":0.536,"cumulative_distance_km":44.376,"amap_marker_url":"https://uri.amap.com/marker?position=117.306540,39.108043&name=%E4%B9%96%E4%B9%96%E5%AE%A0%E7%89%A9%E5%8C%BB%E9%99%A2%28%E4%B8%9C%E4%B8%BD%E5%BA%97%29&src=vetmap&coordinate=gaode&callnative=1","route_id":"r1","route_name":"第1段","global_order":22},{"name":"馨康宠物诊所","address":"二号桥街道二号桥附近黄岩里1号楼6门底商","phone":"15332107603","category":"医疗保健服务;动物医疗场所;宠物诊所","area":"","lng":117.300616,"lat":39.089902,"amap_id":"B0FFGI9THK","order":23,"prev_distance_km":2.081,"cumulative_distance_km":46.457,"amap_marker_url":"https://uri.amap.com/marker?position=117.300616,39.089902&name=%E9%A6%A8%E5%BA%B7%E5%AE%A0%E7%89%A9%E8%AF%8A%E6%89%80&src=vetmap&coordinate=gaode&callnative=1","route_id":"r1","route_name":"第1段","global_order":23},{"name":"铭优宠物医院(先锋路店)","address":"利津路以东榕洋金城B座2-101号","phone":"18222110710","category":"医疗保健服务;动物医疗场所;宠物诊所","area":"张贵庄街","lng":117.309115,"lat":39.090491,"amap_id":"B0H69SIDKR","order":24,"prev_distance_km":0.736,"cumulative_distance_km":47.194,"amap_marker_url":"https://uri.amap.com/marker?position=117.309115,39.090491&name=%E9%93%AD%E4%BC%98%E5%AE%A0%E7%89%A9%E5%8C%BB%E9%99%A2%28%E5%85%88%E9%94%8B%E8%B7%AF%E5%BA%97%29&src=vetmap&coordinate=gaode&callnative=1","route_id":"r1","route_name":"第1段","global_order":24},{"name":"动物防疫","address":"跃进路7号附近","phone":"","category":"医疗保健服务;动物医疗场所;动物医疗场所","area":"","lng":117.318682,"lat":39.096978,"amap_id":"B0FFG2I9PL","order":25,"prev_distance_km":1.096,"cumulative_distance_km":48.29,"amap_marker_url":"https://uri.amap.com/marker?position=117.318682,39.096978&name=%E5%8A%A8%E7%89%A9%E9%98%B2%E7%96%AB&src=vetmap&coordinate=gaode&callnative=1","route_id":"r1","route_name":"第1段","global_order":25},{"name":"宠博士超康宠物医院","address":"华夏未来万科民和巷幼儿园南门旁","phone":"18698139689","category":"医疗保健服务;动物医疗场所;宠物诊所","area":"","lng":117.3254,"lat":39.092523,"amap_id":"B0HRK7E20A","order":26,"prev_distance_km":0.763,"cumulative_distance_km":49.052,"amap_marker_url":"https://uri.amap.com/marker?position=117.325400,39.092523&name=%E5%AE%A0%E5%8D%9A%E5%A3%AB%E8%B6%85%E5%BA%B7%E5%AE%A0%E7%89%A9%E5%8C%BB%E9%99%A2&src=vetmap&coordinate=gaode&callnative=1","route_id":"r1","route_name":"第1段","global_order":26},{"name":"玖福宠物医院","address":"万科民和巷C区民和花苑22号楼配件四-103","phone":"17694968960","category":"医疗保健服务;动物医疗场所;宠物诊所","area":"","lng":117.329175,"lat":39.091825,"amap_id":"B0KDRODID6","order":27,"prev_distance_km":0.335,"cumulative_distance_km":49.387,"amap_marker_url":"https://uri.amap.com/marker?position=117.329175,39.091825&name=%E7%8E%96%E7%A6%8F%E5%AE%A0%E7%89%A9%E5%8C%BB%E9%99%A2&src=vetmap&coordinate=gaode&callnative=1","route_id":"r1","route_name":"第1段","global_order":27},{"name":"窝居宠物医院","address":"一经路天合家园5-1-2","phone":"022-24980000;18622878887","category":"医疗保健服务;动物医疗场所;宠物诊所","area":"","lng":117.351075,"lat":39.079075,"amap_id":"B0KURH1RRZ","order":28,"prev_distance_km":2.363,"cumulative_distance_km":51.75,"amap_marker_url":"https://uri.amap.com/marker?position=117.351075,39.079075&name=%E7%AA%9D%E5%B1%85%E5%AE%A0%E7%89%A9%E5%8C%BB%E9%99%A2&src=vetmap&coordinate=gaode&callnative=1","route_id":"r1","route_name":"第1段","global_order":28},{"name":"轩悦宠物店","address":"新明路与旌智道交叉口北140米","phone":"","category":"医疗保健服务;动物医疗场所;动物医疗场所|购物服务;专卖店;宠物用品店","area":"","lng":117.359325,"lat":39.086575,"amap_id":"B0M62DUFHU","order":29,"prev_distance_km":1.097,"cumulative_distance_km":52.847,"amap_marker_url":"https://uri.amap.com/marker?position=117.359325,39.086575&name=%E8%BD%A9%E6%82%A6%E5%AE%A0%E7%89%A9%E5%BA%97&src=vetmap&coordinate=gaode&callnative=1","route_id":"r1","route_name":"第1段","global_order":29},{"name":"天宠宠物医院(新桂路店)","address":"新桂路蓝庭广场1-34号","phone":"17602695911","category":"医疗保健服务;动物医疗场所;宠物诊所","area":"","lng":117.362892,"lat":39.082704,"amap_id":"B0GRMSWRJH","order":30,"prev_distance_km":0.529,"cumulative_distance_km":53.376,"amap_marker_url":"https://uri.amap.com/marker?position=117.362892,39.082704&name=%E5%A4%A9%E5%AE%A0%E5%AE%A0%E7%89%A9%E5%8C%BB%E9%99%A2%28%E6%96%B0%E6%A1%82%E8%B7%AF%E5%BA%97%29&src=vetmap&coordinate=gaode&callnative=1","route_id":"r1","route_name":"第1段","global_order":30},{"name":"世家宠物诊疗中心","address":"津塘公路697号滨海钢材城第三排座4648号","phone":"13672101559;15022785005","category":"医疗保健服务;动物医疗场所;宠物诊所","area":"","lng":117.435525,"lat":39.056616,"amap_id":"B0G2KCTTON","order":31,"prev_distance_km":6.909,"cumulative_distance_km":60.285,"amap_marker_url":"https://uri.amap.com/marker?position=117.435525,39.056616&name=%E4%B8%96%E5%AE%B6%E5%AE%A0%E7%89%A9%E8%AF%8A%E7%96%97%E4%B8%AD%E5%BF%83&src=vetmap&coordinate=gaode&callnative=1","route_id":"r1","route_name":"第1段","global_order":31},{"name":"铭锐宠物医院","address":"丹霞路与大安道交叉口西北220米","phone":"18522596984","category":"医疗保健服务;动物医疗场所;宠物诊所","area":"","lng":117.436275,"lat":39.056775,"amap_id":"B0M6XHPEJZ","order":32,"prev_distance_km":0.067,"cumulative_distance_km":60.352,"amap_marker_url":"https://uri.amap.com/marker?position=117.436275,39.056775&name=%E9%93%AD%E9%94%90%E5%AE%A0%E7%89%A9%E5%8C%BB%E9%99%A2&src=vetmap&coordinate=gaode&callnative=1","route_id":"r1","route_name":"第1段","global_order":32},{"name":"予安宠物医院","address":"春霞里北门底商西6号","phone":"18630994170","category":"医疗保健服务;动物医疗场所;宠物诊所","area":"无瑕","lng":117.499566,"lat":39.048096,"amap_id":"B0FFIMUGM3","order":33,"prev_distance_km":5.55,"cumulative_distance_km":65.902,"amap_marker_url":"https://uri.amap.com/marker?position=117.499566,39.048096&name=%E4%BA%88%E5%AE%89%E5%AE%A0%E7%89%A9%E5%8C%BB%E9%99%A2&src=vetmap&coordinate=gaode&callnative=1","route_id":"r1","route_name":"第1段","global_order":33}]}