{"summary":{"id":"d00128","province":"北京市","city":"北京市","district":"海淀区","count":69,"total_distance_km":129.54,"coordinate_system":"GCJ-02 / Amap","generated_at":"2026-05-07 20:21:17"},"rows":[{"name":"宠到家24h动物医院(安河家园店)","address":"安河家园六里南门东80米","phone":"010-62461342;13070156720","category":"医疗保健服务;动物医疗场所;宠物诊所","area":"","lng":116.133386,"lat":40.071619,"amap_id":"B0HUC7VTQU","order":1,"prev_distance_km":0.0,"cumulative_distance_km":0.0,"amap_marker_url":"https://uri.amap.com/marker?position=116.133386,40.071619&name=%E5%AE%A0%E5%88%B0%E5%AE%B624h%E5%8A%A8%E7%89%A9%E5%8C%BB%E9%99%A2%28%E5%AE%89%E6%B2%B3%E5%AE%B6%E5%9B%AD%E5%BA%97%29&src=vetmap&coordinate=gaode&callnative=1"},{"name":"美迦友爱动物医院(温泉分院)","address":"温泉镇尚水园4号楼底商1层103","phone":"010-56912605;18600902202","category":"医疗保健服务;动物医疗场所;宠物诊所","area":"","lng":116.185844,"lat":40.046142,"amap_id":"B0KUVSD10I","order":2,"prev_distance_km":5.287,"cumulative_distance_km":5.287,"amap_marker_url":"https://uri.amap.com/marker?position=116.185844,40.046142&name=%E7%BE%8E%E8%BF%A6%E5%8F%8B%E7%88%B1%E5%8A%A8%E7%89%A9%E5%8C%BB%E9%99%A2%28%E6%B8%A9%E6%B3%89%E5%88%86%E9%99%A2%29&src=vetmap&coordinate=gaode&callnative=1"},{"name":"北京美迦润动物医院","address":"上庄家园路13号院2号楼2-10","phone":"010-62462920;13120020998","category":"医疗保健服务;动物医疗场所;宠物诊所","area":"","lng":116.216075,"lat":40.097207,"amap_id":"B0IKO51MUZ","order":3,"prev_distance_km":6.234,"cumulative_distance_km":11.521,"amap_marker_url":"https://uri.amap.com/marker?position=116.216075,40.097207&name=%E5%8C%97%E4%BA%AC%E7%BE%8E%E8%BF%A6%E6%B6%A6%E5%8A%A8%E7%89%A9%E5%8C%BB%E9%99%A2&src=vetmap&coordinate=gaode&callnative=1"},{"name":"萌小它宠物医院(海淀大悦城店)","address":"大牛房二巷海淀大悦城1F层","phone":"","category":"医疗保健服务;动物医疗场所;宠物诊所","area":"","lng":116.230224,"lat":40.091898,"amap_id":"B0L6HKPP2L","order":4,"prev_distance_km":1.341,"cumulative_distance_km":12.862,"amap_marker_url":"https://uri.amap.com/marker?position=116.230224,40.091898&name=%E8%90%8C%E5%B0%8F%E5%AE%83%E5%AE%A0%E7%89%A9%E5%8C%BB%E9%99%A2%28%E6%B5%B7%E6%B7%80%E5%A4%A7%E6%82%A6%E5%9F%8E%E5%BA%97%29&src=vetmap&coordinate=gaode&callnative=1"},{"name":"美迦悦禾动物医院(永丰分院)","address":"西北旺地区永丰嘉园一区24号楼1层110-111","phone":"010-62462922;18600902271","category":"医疗保健服务;动物医疗场所;宠物诊所","area":"西北旺","lng":116.258088,"lat":40.07956,"amap_id":"B0LAJMFIYU","order":5,"prev_distance_km":2.739,"cumulative_distance_km":15.601,"amap_marker_url":"https://uri.amap.com/marker?position=116.258088,40.079560&name=%E7%BE%8E%E8%BF%A6%E6%82%A6%E7%A6%BE%E5%8A%A8%E7%89%A9%E5%8C%BB%E9%99%A2%28%E6%B0%B8%E4%B8%B0%E5%88%86%E9%99%A2%29&src=vetmap&coordinate=gaode&callnative=1"},{"name":"瑞森动物医院·24h急重症犬猫诊疗中心","address":"北京城区新谊路16号院10幢-1层B103","phone":"13366748603","category":"医疗保健服务;动物医疗场所;宠物诊所","area":"西北旺","lng":116.263357,"lat":40.083083,"amap_id":"B0KBLR680D","order":6,"prev_distance_km":0.595,"cumulative_distance_km":16.196,"amap_marker_url":"https://uri.amap.com/marker?position=116.263357,40.083083&name=%E7%91%9E%E6%A3%AE%E5%8A%A8%E7%89%A9%E5%8C%BB%E9%99%A2%C2%B724h%E6%80%A5%E9%87%8D%E7%97%87%E7%8A%AC%E7%8C%AB%E8%AF%8A%E7%96%97%E4%B8%AD%E5%BF%83&src=vetmap&coordinate=gaode&callnative=1"},{"name":"中农众和动物医院","address":"永丰路西山壹号院底商14号楼3-198","phone":"010-62875509;13146021639","category":"医疗保健服务;动物医疗场所;宠物诊所","area":"西北旺","lng":116.267596,"lat":40.038702,"amap_id":"B0FFK1MPU4","order":7,"prev_distance_km":4.948,"cumulative_distance_km":21.144,"amap_marker_url":"https://uri.amap.com/marker?position=116.267596,40.038702&name=%E4%B8%AD%E5%86%9C%E4%BC%97%E5%92%8C%E5%8A%A8%E7%89%A9%E5%8C%BB%E9%99%A2&src=vetmap&coordinate=gaode&callnative=1"},{"name":"中国农业大学动物医院大动物门诊","address":"圆明园西路2号院(中国农业大学)","phone":"010-62739168","category":"医疗保健服务;动物医疗场所;动物医疗场所","area":"马连洼","lng":116.281505,"lat":40.030444,"amap_id":"B0FFG4G9CJ","order":8,"prev_distance_km":1.498,"cumulative_distance_km":22.642,"amap_marker_url":"https://uri.amap.com/marker?position=116.281505,40.030444&name=%E4%B8%AD%E5%9B%BD%E5%86%9C%E4%B8%9A%E5%A4%A7%E5%AD%A6%E5%8A%A8%E7%89%A9%E5%8C%BB%E9%99%A2%E5%A4%A7%E5%8A%A8%E7%89%A9%E9%97%A8%E8%AF%8A&src=vetmap&coordinate=gaode&callnative=1"},{"name":"中国农业大学动物医院","address":"马连洼街道圆明园西路2号(中国农业大学)","phone":"010-62731234","category":"医疗保健服务;动物医疗场所;宠物诊所","area":"马连洼","lng":116.281647,"lat":40.030455,"amap_id":"B000A7RBZJ","order":9,"prev_distance_km":0.012,"cumulative_distance_km":22.655,"amap_marker_url":"https://uri.amap.com/marker?position=116.281647,40.030455&name=%E4%B8%AD%E5%9B%BD%E5%86%9C%E4%B8%9A%E5%A4%A7%E5%AD%A6%E5%8A%A8%E7%89%A9%E5%8C%BB%E9%99%A2&src=vetmap&coordinate=gaode&callnative=1"},{"name":"圆明园西路牧医所","address":"农大南路与圆明园西路辅路交叉口东北300米","phone":"","category":"医疗保健服务;诊所;诊所|医疗保健服务;动物医疗场所;动物医疗场所","area":"马连洼","lng":116.285775,"lat":40.022625,"amap_id":"B0K3RGXJI9","order":10,"prev_distance_km":0.939,"cumulative_distance_km":23.594,"amap_marker_url":"https://uri.amap.com/marker?position=116.285775,40.022625&name=%E5%9C%86%E6%98%8E%E5%9B%AD%E8%A5%BF%E8%B7%AF%E7%89%A7%E5%8C%BB%E6%89%80&src=vetmap&coordinate=gaode&callnative=1"},{"name":"凯恩动物医院(安杺分院)","address":"农大南路七彩华园16-5-102","phone":"010-62965123","category":"医疗保健服务;动物医疗场所;宠物诊所","area":"马连洼","lng":116.29488,"lat":40.023933,"amap_id":"B0G3V4C168","order":11,"prev_distance_km":0.789,"cumulative_distance_km":24.382,"amap_marker_url":"https://uri.amap.com/marker?position=116.294880,40.023933&name=%E5%87%AF%E6%81%A9%E5%8A%A8%E7%89%A9%E5%8C%BB%E9%99%A2%28%E5%AE%89%E6%9D%BA%E5%88%86%E9%99%A2%29&src=vetmap&coordinate=gaode&callnative=1"},{"name":"丽景缘动物医院","address":"怡美家园东南门旁","phone":"","category":"医疗保健服务;动物医疗场所;宠物诊所","area":"清河","lng":116.322936,"lat":40.039205,"amap_id":"B0IDKBE8HI","order":12,"prev_distance_km":2.931,"cumulative_distance_km":27.313,"amap_marker_url":"https://uri.amap.com/marker?position=116.322936,40.039205&name=%E4%B8%BD%E6%99%AF%E7%BC%98%E5%8A%A8%E7%89%A9%E5%8C%BB%E9%99%A2&src=vetmap&coordinate=gaode&callnative=1"},{"name":"中农大我爱我爱动物医院(海淀分院)","address":"怡美家园东南门旁","phone":"010-82833885;18500440509","category":"医疗保健服务;动物医疗场所;宠物诊所","area":"清河","lng":116.322936,"lat":40.03931,"amap_id":"B0I1FKGQSX","order":13,"prev_distance_km":0.012,"cumulative_distance_km":27.325,"amap_marker_url":"https://uri.amap.com/marker?position=116.322936,40.039310&name=%E4%B8%AD%E5%86%9C%E5%A4%A7%E6%88%91%E7%88%B1%E6%88%91%E7%88%B1%E5%8A%A8%E7%89%A9%E5%8C%BB%E9%99%A2%28%E6%B5%B7%E6%B7%80%E5%88%86%E9%99%A2%29&src=vetmap&coordinate=gaode&callnative=1"},{"name":"凯恩动物医院(安宁华庭店)","address":"安宁华庭一区13号楼1层101","phone":"010-56010987","category":"医疗保健服务;动物医疗场所;宠物诊所","area":"清河","lng":116.327622,"lat":40.046055,"amap_id":"B0FFHDDVL6","order":14,"prev_distance_km":0.849,"cumulative_distance_km":28.174,"amap_marker_url":"https://uri.amap.com/marker?position=116.327622,40.046055&name=%E5%87%AF%E6%81%A9%E5%8A%A8%E7%89%A9%E5%8C%BB%E9%99%A2%28%E5%AE%89%E5%AE%81%E5%8D%8E%E5%BA%AD%E5%BA%97%29&src=vetmap&coordinate=gaode&callnative=1"},{"name":"九莎康宠宠物药房(猫粮狗粮·猫砂猫罐头·宠物用品)","address":"北京城区悦秀路99号-2层通厦公元九九B2层通厦花卉99号商铺","phone":"13311131777","category":"医疗保健服务;动物医疗场所;动物医疗场所","area":"西三旗","lng":116.337932,"lat":40.047098,"amap_id":"B0L1NMW2T2","order":15,"prev_distance_km":0.885,"cumulative_distance_km":29.06,"amap_marker_url":"https://uri.amap.com/marker?position=116.337932,40.047098&name=%E4%B9%9D%E8%8E%8E%E5%BA%B7%E5%AE%A0%E5%AE%A0%E7%89%A9%E8%8D%AF%E6%88%BF%28%E7%8C%AB%E7%B2%AE%E7%8B%97%E7%B2%AE%C2%B7%E7%8C%AB%E7%A0%82%E7%8C%AB%E7%BD%90%E5%A4%B4%C2%B7%E5%AE%A0%E7%89%A9%E7%94%A8%E5%93%81%29&src=vetmap&coordinate=gaode&callnative=1"},{"name":"喜多萌动物医院西三旗店(24H·疑难骨科·眼科·微创)","address":"北京城区西三旗沁春家园1号楼2号楼3号楼1层102-1021室","phone":"13051828292","category":"医疗保健服务;动物医疗场所;宠物诊所","area":"西三旗","lng":116.336327,"lat":40.05815,"amap_id":"B0GK37UDAJ","order":16,"prev_distance_km":1.236,"cumulative_distance_km":30.296,"amap_marker_url":"https://uri.amap.com/marker?position=116.336327,40.058150&name=%E5%96%9C%E5%A4%9A%E8%90%8C%E5%8A%A8%E7%89%A9%E5%8C%BB%E9%99%A2%E8%A5%BF%E4%B8%89%E6%97%97%E5%BA%97%2824H%C2%B7%E7%96%91%E9%9A%BE%E9%AA%A8%E7%A7%91%C2%B7%E7%9C%BC%E7%A7%91%C2%B7%E5%BE%AE%E5%88%9B%29&src=vetmap&coordinate=gaode&callnative=1"},{"name":"优科动物医院西三旗分院","address":"北京城区建材城西二里23号楼1层商业05","phone":"18518884926","category":"医疗保健服务;动物医疗场所;宠物诊所","area":"西三旗","lng":116.356239,"lat":40.065168,"amap_id":"B0J0PZ4VSM","order":17,"prev_distance_km":1.866,"cumulative_distance_km":32.162,"amap_marker_url":"https://uri.amap.com/marker?position=116.356239,40.065168&name=%E4%BC%98%E7%A7%91%E5%8A%A8%E7%89%A9%E5%8C%BB%E9%99%A2%E8%A5%BF%E4%B8%89%E6%97%97%E5%88%86%E9%99%A2&src=vetmap&coordinate=gaode&callnative=1"},{"name":"佑爱动物医院微创外科中心·骨科·猫科·眼科(永泰分院)","address":"后屯南路26号底商1-28号","phone":"010-62943450;18610859313","category":"医疗保健服务;动物医疗场所;宠物诊所","area":"清河","lng":116.354201,"lat":40.041063,"amap_id":"B0JGBC9OYD","order":18,"prev_distance_km":2.686,"cumulative_distance_km":34.848,"amap_marker_url":"https://uri.amap.com/marker?position=116.354201,40.041063&name=%E4%BD%91%E7%88%B1%E5%8A%A8%E7%89%A9%E5%8C%BB%E9%99%A2%E5%BE%AE%E5%88%9B%E5%A4%96%E7%A7%91%E4%B8%AD%E5%BF%83%C2%B7%E9%AA%A8%E7%A7%91%C2%B7%E7%8C%AB%E7%A7%91%C2%B7%E7%9C%BC%E7%A7%91%28%E6%B0%B8%E6%B3%B0%E5%88%86%E9%99%A2%29&src=vetmap&coordinate=gaode&callnative=1"},{"name":"纳吉亚动物医院·北北分院","address":"清河永泰西里2号楼一层临街底商2-2-1至2-2-2","phone":"010-62993183","category":"医疗保健服务;动物医疗场所;宠物诊所","area":"清河","lng":116.355607,"lat":40.034389,"amap_id":"B0FFIL1VY8","order":19,"prev_distance_km":0.752,"cumulative_distance_km":35.599,"amap_marker_url":"https://uri.amap.com/marker?position=116.355607,40.034389&name=%E7%BA%B3%E5%90%89%E4%BA%9A%E5%8A%A8%E7%89%A9%E5%8C%BB%E9%99%A2%C2%B7%E5%8C%97%E5%8C%97%E5%88%86%E9%99%A2&src=vetmap&coordinate=gaode&callnative=1"},{"name":"宠宝康动物医院24小时","address":"宝盛路宝盛里4号楼1楼5号(近永泰庄东路)","phone":"010-62901512;13220116676","category":"医疗保健服务;动物医疗场所;宠物诊所","area":"永泰","lng":116.365048,"lat":40.035116,"amap_id":"B0FFFALUBO","order":20,"prev_distance_km":0.808,"cumulative_distance_km":36.407,"amap_marker_url":"https://uri.amap.com/marker?position=116.365048,40.035116&name=%E5%AE%A0%E5%AE%9D%E5%BA%B7%E5%8A%A8%E7%89%A9%E5%8C%BB%E9%99%A224%E5%B0%8F%E6%97%B6&src=vetmap&coordinate=gaode&callnative=1"},{"name":"开心爱宠国际宠物医院(暂停营业)","address":"观澳园小区北区西北门东60米","phone":"13671269702","category":"医疗保健服务;动物医疗场所;宠物诊所","area":"清河","lng":116.370807,"lat":40.0338,"amap_id":"B0FFIY0O6O","order":21,"prev_distance_km":0.512,"cumulative_distance_km":36.919,"amap_marker_url":"https://uri.amap.com/marker?position=116.370807,40.033800&name=%E5%BC%80%E5%BF%83%E7%88%B1%E5%AE%A0%E5%9B%BD%E9%99%85%E5%AE%A0%E7%89%A9%E5%8C%BB%E9%99%A2%28%E6%9A%82%E5%81%9C%E8%90%A5%E4%B8%9A%29&src=vetmap&coordinate=gaode&callnative=1"},{"name":"瑞和动物医院·犬猫疑难病·异宠","address":"北京城区清河嘉园东区4号楼1层103","phone":"13263257110;13552972582;15324032122","category":"医疗保健服务;动物医疗场所;宠物诊所","area":"清河","lng":116.348356,"lat":40.028403,"amap_id":"B0L699681M","order":22,"prev_distance_km":2.004,"cumulative_distance_km":38.922,"amap_marker_url":"https://uri.amap.com/marker?position=116.348356,40.028403&name=%E7%91%9E%E5%92%8C%E5%8A%A8%E7%89%A9%E5%8C%BB%E9%99%A2%C2%B7%E7%8A%AC%E7%8C%AB%E7%96%91%E9%9A%BE%E7%97%85%C2%B7%E5%BC%82%E5%AE%A0&src=vetmap&coordinate=gaode&callnative=1"},{"name":"宠爱国际动物医院(五彩城店)","address":"北京城区学府树北街学府树家园3号楼3-1号1层","phone":"010-89194095","category":"医疗保健服务;动物医疗场所;宠物诊所","area":"清河","lng":116.335068,"lat":40.034326,"amap_id":"B0IUUC5N0I","order":23,"prev_distance_km":1.309,"cumulative_distance_km":40.232,"amap_marker_url":"https://uri.amap.com/marker?position=116.335068,40.034326&name=%E5%AE%A0%E7%88%B1%E5%9B%BD%E9%99%85%E5%8A%A8%E7%89%A9%E5%8C%BB%E9%99%A2%28%E4%BA%94%E5%BD%A9%E5%9F%8E%E5%BA%97%29&src=vetmap&coordinate=gaode&callnative=1"},{"name":"宠物精致洗护(西二旗益民商城店)","address":"西二旗益民商城北正门旁","phone":"","category":"医疗保健服务;动物医疗场所;动物医疗场所","area":"西二旗","lng":116.313934,"lat":40.053231,"amap_id":"B0KBYZYLYL","order":24,"prev_distance_km":2.767,"cumulative_distance_km":42.998,"amap_marker_url":"https://uri.amap.com/marker?position=116.313934,40.053231&name=%E5%AE%A0%E7%89%A9%E7%B2%BE%E8%87%B4%E6%B4%97%E6%8A%A4%28%E8%A5%BF%E4%BA%8C%E6%97%97%E7%9B%8A%E6%B0%91%E5%95%86%E5%9F%8E%E5%BA%97%29&src=vetmap&coordinate=gaode&callnative=1"},{"name":"优科动物医院24小时转诊中心·急危重症·骨外科·肿瘤科·微创","address":"北京城区西二旗西路2号院85号楼1层单元08-4","phone":"15726664326","category":"医疗保健服务;动物医疗场所;宠物诊所","area":"西二旗","lng":116.313062,"lat":40.053448,"amap_id":"B0G175WGRQ","order":25,"prev_distance_km":0.078,"cumulative_distance_km":43.076,"amap_marker_url":"https://uri.amap.com/marker?position=116.313062,40.053448&name=%E4%BC%98%E7%A7%91%E5%8A%A8%E7%89%A9%E5%8C%BB%E9%99%A224%E5%B0%8F%E6%97%B6%E8%BD%AC%E8%AF%8A%E4%B8%AD%E5%BF%83%C2%B7%E6%80%A5%E5%8D%B1%E9%87%8D%E7%97%87%C2%B7%E9%AA%A8%E5%A4%96%E7%A7%91%C2%B7%E8%82%BF%E7%98%A4%E7%A7%91%C2%B7%E5%BE%AE%E5%88%9B&src=vetmap&coordinate=gaode&callnative=1"},{"name":"恒爱动物医院(双泉堡店)","address":"北京城区双泉堡125号院1号楼","phone":"010-62912123","category":"医疗保健服务;动物医疗场所;宠物诊所","area":"林萃","lng":116.356476,"lat":40.015115,"amap_id":"B000AA1GBN","order":26,"prev_distance_km":5.642,"cumulative_distance_km":48.718,"amap_marker_url":"https://uri.amap.com/marker?position=116.356476,40.015115&name=%E6%81%92%E7%88%B1%E5%8A%A8%E7%89%A9%E5%8C%BB%E9%99%A2%28%E5%8F%8C%E6%B3%89%E5%A0%A1%E5%BA%97%29&src=vetmap&coordinate=gaode&callnative=1"},{"name":"爱侣同行动物医院(花园路店)","address":"花园路甲2号同观商业中心1层","phone":"010-62019470","category":"医疗保健服务;动物医疗场所;宠物诊所","area":"牡丹园","lng":116.366029,"lat":39.979468,"amap_id":"B000A85HVM","order":27,"prev_distance_km":4.046,"cumulative_distance_km":52.765,"amap_marker_url":"https://uri.amap.com/marker?position=116.366029,39.979468&name=%E7%88%B1%E4%BE%A3%E5%90%8C%E8%A1%8C%E5%8A%A8%E7%89%A9%E5%8C%BB%E9%99%A2%28%E8%8A%B1%E5%9B%AD%E8%B7%AF%E5%BA%97%29&src=vetmap&coordinate=gaode&callnative=1"},{"name":"中农大我爱我爱动物医院CT·核磁·犬猫绝育中心(牡丹园店)","address":"北京城区北三环中路43号院北2号板楼一层","phone":"010-62043093","category":"医疗保健服务;动物医疗场所;宠物诊所","area":"马甸","lng":116.370427,"lat":39.97268,"amap_id":"B0FFI5VHTB","order":28,"prev_distance_km":0.843,"cumulative_distance_km":53.607,"amap_marker_url":"https://uri.amap.com/marker?position=116.370427,39.972680&name=%E4%B8%AD%E5%86%9C%E5%A4%A7%E6%88%91%E7%88%B1%E6%88%91%E7%88%B1%E5%8A%A8%E7%89%A9%E5%8C%BB%E9%99%A2CT%C2%B7%E6%A0%B8%E7%A3%81%C2%B7%E7%8A%AC%E7%8C%AB%E7%BB%9D%E8%82%B2%E4%B8%AD%E5%BF%83%28%E7%89%A1%E4%B8%B9%E5%9B%AD%E5%BA%97%29&src=vetmap&coordinate=gaode&callnative=1"},{"name":"中农大我爱我爱动物医院异宠·猫病(马甸店)","address":"北京城区马甸西村19号一层103二层203","phone":"010-60235688","category":"医疗保健服务;动物医疗场所;宠物诊所","area":"马甸","lng":116.375105,"lat":39.968462,"amap_id":"B0IDOH8DLF","order":29,"prev_distance_km":0.616,"cumulative_distance_km":54.223,"amap_marker_url":"https://uri.amap.com/marker?position=116.375105,39.968462&name=%E4%B8%AD%E5%86%9C%E5%A4%A7%E6%88%91%E7%88%B1%E6%88%91%E7%88%B1%E5%8A%A8%E7%89%A9%E5%8C%BB%E9%99%A2%E5%BC%82%E5%AE%A0%C2%B7%E7%8C%AB%E7%97%85%28%E9%A9%AC%E7%94%B8%E5%BA%97%29&src=vetmap&coordinate=gaode&callnative=1"},{"name":"纳吉亚猫专科动物医院博雅猫分院","address":"龙翔路1号商用楼3号底商(海鲜大卖场对面、高德大厦东侧)","phone":"010-82030889","category":"医疗保健服务;动物医疗场所;宠物诊所","area":"祁家豁子","lng":116.376879,"lat":39.98197,"amap_id":"B0FFIS45WD","order":30,"prev_distance_km":1.51,"cumulative_distance_km":55.733,"amap_marker_url":"https://uri.amap.com/marker?position=116.376879,39.981970&name=%E7%BA%B3%E5%90%89%E4%BA%9A%E7%8C%AB%E4%B8%93%E7%A7%91%E5%8A%A8%E7%89%A9%E5%8C%BB%E9%99%A2%E5%8D%9A%E9%9B%85%E7%8C%AB%E5%88%86%E9%99%A2&src=vetmap&coordinate=gaode&callnative=1"},{"name":"北京急宠动物医院","address":"龙翔路1号","phone":"","category":"医疗保健服务;动物医疗场所;宠物诊所","area":"牡丹园","lng":116.376735,"lat":39.982004,"amap_id":"B0JGTUPVFA","order":31,"prev_distance_km":0.013,"cumulative_distance_km":55.745,"amap_marker_url":"https://uri.amap.com/marker?position=116.376735,39.982004&name=%E5%8C%97%E4%BA%AC%E6%80%A5%E5%AE%A0%E5%8A%A8%E7%89%A9%E5%8C%BB%E9%99%A2&src=vetmap&coordinate=gaode&callnative=1"},{"name":"北京南山动物医院","address":"文慧园23号楼底商","phone":"010-88459488;18311287507","category":"医疗保健服务;动物医疗场所;宠物诊所","area":"小西天","lng":116.364318,"lat":39.952634,"amap_id":"B0LUZAUGYC","order":32,"prev_distance_km":3.433,"cumulative_distance_km":59.178,"amap_marker_url":"https://uri.amap.com/marker?position=116.364318,39.952634&name=%E5%8C%97%E4%BA%AC%E5%8D%97%E5%B1%B1%E5%8A%A8%E7%89%A9%E5%8C%BB%E9%99%A2&src=vetmap&coordinate=gaode&callnative=1"},{"name":"宠爱国际动物医院(远洋风景店)","address":"德胜门西大街15东门东南70米","phone":"","category":"医疗保健服务;动物医疗场所;宠物诊所","area":"西直门","lng":116.36164,"lat":39.946324,"amap_id":"B0KUD989R0","order":33,"prev_distance_km":0.738,"cumulative_distance_km":59.916,"amap_marker_url":"https://uri.amap.com/marker?position=116.361640,39.946324&name=%E5%AE%A0%E7%88%B1%E5%9B%BD%E9%99%85%E5%8A%A8%E7%89%A9%E5%8C%BB%E9%99%A2%28%E8%BF%9C%E6%B4%8B%E9%A3%8E%E6%99%AF%E5%BA%97%29&src=vetmap&coordinate=gaode&callnative=1"},{"name":"纳吉亚动物医院·内窥镜(志胜猫专科)","address":"北京城区交大东路60号28室","phone":"13521966481","category":"医疗保健服务;动物医疗场所;宠物诊所","area":"西直门","lng":116.349773,"lat":39.946568,"amap_id":"B0FFKRO68V","order":34,"prev_distance_km":1.012,"cumulative_distance_km":60.928,"amap_marker_url":"https://uri.amap.com/marker?position=116.349773,39.946568&name=%E7%BA%B3%E5%90%89%E4%BA%9A%E5%8A%A8%E7%89%A9%E5%8C%BB%E9%99%A2%C2%B7%E5%86%85%E7%AA%A5%E9%95%9C%28%E5%BF%97%E8%83%9C%E7%8C%AB%E4%B8%93%E7%A7%91%29&src=vetmap&coordinate=gaode&callnative=1"},{"name":"中农大我爱我爱动物医院·24h异宠专科医院(交大分院)","address":"交大东路60号1层60-20跃层","phone":"010-62258857;18110070760","category":"医疗保健服务;动物医疗场所;宠物诊所","area":"西直门","lng":116.349733,"lat":39.946739,"amap_id":"B0LDF9YTKD","order":35,"prev_distance_km":0.019,"cumulative_distance_km":60.948,"amap_marker_url":"https://uri.amap.com/marker?position=116.349733,39.946739&name=%E4%B8%AD%E5%86%9C%E5%A4%A7%E6%88%91%E7%88%B1%E6%88%91%E7%88%B1%E5%8A%A8%E7%89%A9%E5%8C%BB%E9%99%A2%C2%B724h%E5%BC%82%E5%AE%A0%E4%B8%93%E7%A7%91%E5%8C%BB%E9%99%A2%28%E4%BA%A4%E5%A4%A7%E5%88%86%E9%99%A2%29&src=vetmap&coordinate=gaode&callnative=1"},{"name":"北京爱牧家动物医院(西直门店)","address":"明光村小区东1门旁","phone":"010-62259221;17600328121","category":"医疗保健服务;动物医疗场所;宠物诊所","area":"西直门","lng":116.354701,"lat":39.956005,"amap_id":"B000A7OFLP","order":36,"prev_distance_km":1.114,"cumulative_distance_km":62.061,"amap_marker_url":"https://uri.amap.com/marker?position=116.354701,39.956005&name=%E5%8C%97%E4%BA%AC%E7%88%B1%E7%89%A7%E5%AE%B6%E5%8A%A8%E7%89%A9%E5%8C%BB%E9%99%A2%28%E8%A5%BF%E7%9B%B4%E9%97%A8%E5%BA%97%29&src=vetmap&coordinate=gaode&callnative=1"},{"name":"宠福鑫动物医院康乐宝分院","address":"四道口路皂君庙东里42号楼(近交大附中)","phone":"010-62118132;010-62118133","category":"医疗保健服务;动物医疗场所;宠物诊所","area":"北下关","lng":116.341894,"lat":39.962095,"amap_id":"B000A3FFBF","order":37,"prev_distance_km":1.285,"cumulative_distance_km":63.346,"amap_marker_url":"https://uri.amap.com/marker?position=116.341894,39.962095&name=%E5%AE%A0%E7%A6%8F%E9%91%AB%E5%8A%A8%E7%89%A9%E5%8C%BB%E9%99%A2%E5%BA%B7%E4%B9%90%E5%AE%9D%E5%88%86%E9%99%A2&src=vetmap&coordinate=gaode&callnative=1"},{"name":"赛那动物医院(学院南路)","address":"学院南路51号","phone":"010-62121575","category":"医疗保健服务;动物医疗场所;宠物诊所","area":"皂君庙","lng":116.337071,"lat":39.957956,"amap_id":"B000A0C9F7","order":38,"prev_distance_km":0.617,"cumulative_distance_km":63.963,"amap_marker_url":"https://uri.amap.com/marker?position=116.337071,39.957956&name=%E8%B5%9B%E9%82%A3%E5%8A%A8%E7%89%A9%E5%8C%BB%E9%99%A2%28%E5%AD%A6%E9%99%A2%E5%8D%97%E8%B7%AF%29&src=vetmap&coordinate=gaode&callnative=1"},{"name":"爱心宠物(猫粮狗粮猫砂用品批发)","address":"中关村南大街12院百欣科技楼地下一层003","phone":"13810525384","category":"医疗保健服务;动物医疗场所;动物医疗场所","area":"北下关","lng":116.32888,"lat":39.96039,"amap_id":"B0JG5U8PVN","order":39,"prev_distance_km":0.749,"cumulative_distance_km":64.712,"amap_marker_url":"https://uri.amap.com/marker?position=116.328880,39.960390&name=%E7%88%B1%E5%BF%83%E5%AE%A0%E7%89%A9%28%E7%8C%AB%E7%B2%AE%E7%8B%97%E7%B2%AE%E7%8C%AB%E7%A0%82%E7%94%A8%E5%93%81%E6%89%B9%E5%8F%91%29&src=vetmap&coordinate=gaode&callnative=1"},{"name":"悠然动物医院·泌尿专科·皮肤专科·外科中心","address":"北京城区中关村南大街乙12号院天作国际3号楼102","phone":"010-82168234;18910711315","category":"医疗保健服务;动物医疗场所;宠物诊所","area":"北下关","lng":116.324369,"lat":39.96165,"amap_id":"B0JR27JZS5","order":40,"prev_distance_km":0.409,"cumulative_distance_km":65.121,"amap_marker_url":"https://uri.amap.com/marker?position=116.324369,39.961650&name=%E6%82%A0%E7%84%B6%E5%8A%A8%E7%89%A9%E5%8C%BB%E9%99%A2%C2%B7%E6%B3%8C%E5%B0%BF%E4%B8%93%E7%A7%91%C2%B7%E7%9A%AE%E8%82%A4%E4%B8%93%E7%A7%91%C2%B7%E5%A4%96%E7%A7%91%E4%B8%AD%E5%BF%83&src=vetmap&coordinate=gaode&callnative=1"},{"name":"悦宠动物医院门诊","address":"中关村东路与双榆树北路交叉口北140米","phone":"","category":"医疗保健服务;动物医疗场所;宠物诊所","area":"","lng":116.333398,"lat":39.974363,"amap_id":"B0KUFL9NWA","order":41,"prev_distance_km":1.609,"cumulative_distance_km":66.731,"amap_marker_url":"https://uri.amap.com/marker?position=116.333398,39.974363&name=%E6%82%A6%E5%AE%A0%E5%8A%A8%E7%89%A9%E5%8C%BB%E9%99%A2%E9%97%A8%E8%AF%8A&src=vetmap&coordinate=gaode&callnative=1"},{"name":"悦宠24H动物医院(中关村总院)急诊中心·CT·眼科·猫科","address":"北京城区中关村东路101-4悦宠二十四小时动物医院","phone":"010-82120510;13521209056","category":"医疗保健服务;动物医疗场所;宠物诊所","area":"","lng":116.33339,"lat":39.974422,"amap_id":"B0H09CMXUV","order":42,"prev_distance_km":0.007,"cumulative_distance_km":66.737,"amap_marker_url":"https://uri.amap.com/marker?position=116.333390,39.974422&name=%E6%82%A6%E5%AE%A024H%E5%8A%A8%E7%89%A9%E5%8C%BB%E9%99%A2%28%E4%B8%AD%E5%85%B3%E6%9D%91%E6%80%BB%E9%99%A2%29%E6%80%A5%E8%AF%8A%E4%B8%AD%E5%BF%83%C2%B7CT%C2%B7%E7%9C%BC%E7%A7%91%C2%B7%E7%8C%AB%E7%A7%91&src=vetmap&coordinate=gaode&callnative=1"},{"name":"悦宠二十四小时动物医院","address":"中关村东路101-4","phone":"","category":"医疗保健服务;动物医疗场所;宠物诊所","area":"","lng":116.333387,"lat":39.974422,"amap_id":"B0IRAPQHNE","order":43,"prev_distance_km":0.0,"cumulative_distance_km":66.737,"amap_marker_url":"https://uri.amap.com/marker?position=116.333387,39.974422&name=%E6%82%A6%E5%AE%A0%E4%BA%8C%E5%8D%81%E5%9B%9B%E5%B0%8F%E6%97%B6%E5%8A%A8%E7%89%A9%E5%8C%BB%E9%99%A2&src=vetmap&coordinate=gaode&callnative=1"},{"name":"博兴宠物医院24小时医院","address":"北京城区北京城区知春路99号(科南路东南小区)","phone":"18611185613","category":"医疗保健服务;动物医疗场所;宠物诊所","area":"中关村","lng":116.326302,"lat":39.976694,"amap_id":"B0LKB5TFRB","order":44,"prev_distance_km":0.654,"cumulative_distance_km":67.392,"amap_marker_url":"https://uri.amap.com/marker?position=116.326302,39.976694&name=%E5%8D%9A%E5%85%B4%E5%AE%A0%E7%89%A9%E5%8C%BB%E9%99%A224%E5%B0%8F%E6%97%B6%E5%8C%BB%E9%99%A2&src=vetmap&coordinate=gaode&callnative=1"},{"name":"悦宠博爱动物医院外科·牙科·疑难骨科·内窥镜微创中心","address":"万泉庄小区11号楼一层","phone":"13124720106","category":"医疗保健服务;动物医疗场所;宠物诊所","area":"万泉河","lng":116.303481,"lat":39.968658,"amap_id":"B000A64FC9","order":45,"prev_distance_km":2.14,"cumulative_distance_km":69.532,"amap_marker_url":"https://uri.amap.com/marker?position=116.303481,39.968658&name=%E6%82%A6%E5%AE%A0%E5%8D%9A%E7%88%B1%E5%8A%A8%E7%89%A9%E5%8C%BB%E9%99%A2%E5%A4%96%E7%A7%91%C2%B7%E7%89%99%E7%A7%91%C2%B7%E7%96%91%E9%9A%BE%E9%AA%A8%E7%A7%91%C2%B7%E5%86%85%E7%AA%A5%E9%95%9C%E5%BE%AE%E5%88%9B%E4%B8%AD%E5%BF%83&src=vetmap&coordinate=gaode&callnative=1"},{"name":"宜萌宠物医院·外科·重症·老年病内科·神经科中心","address":"北京城区万柳中路10号底商","phone":"010-50980066","category":"医疗保健服务;动物医疗场所;宠物诊所","area":"万柳","lng":116.297801,"lat":39.966755,"amap_id":"B0I3CSQ5X2","order":46,"prev_distance_km":0.528,"cumulative_distance_km":70.06,"amap_marker_url":"https://uri.amap.com/marker?position=116.297801,39.966755&name=%E5%AE%9C%E8%90%8C%E5%AE%A0%E7%89%A9%E5%8C%BB%E9%99%A2%C2%B7%E5%A4%96%E7%A7%91%C2%B7%E9%87%8D%E7%97%87%C2%B7%E8%80%81%E5%B9%B4%E7%97%85%E5%86%85%E7%A7%91%C2%B7%E7%A5%9E%E7%BB%8F%E7%A7%91%E4%B8%AD%E5%BF%83&src=vetmap&coordinate=gaode&callnative=1"},{"name":"宠爱国际24小时动物医院(万柳店)","address":"万泉庄路颐园底商7号楼二层商业4区","phone":"010-89194094","category":"医疗保健服务;动物医疗场所;宠物诊所","area":"万柳","lng":116.293029,"lat":39.967367,"amap_id":"B0FFIP7BAB","order":47,"prev_distance_km":0.412,"cumulative_distance_km":70.473,"amap_marker_url":"https://uri.amap.com/marker?position=116.293029,39.967367&name=%E5%AE%A0%E7%88%B1%E5%9B%BD%E9%99%8524%E5%B0%8F%E6%97%B6%E5%8A%A8%E7%89%A9%E5%8C%BB%E9%99%A2%28%E4%B8%87%E6%9F%B3%E5%BA%97%29&src=vetmap&coordinate=gaode&callnative=1"},{"name":"同心缘世纪城宠物诊疗中心","address":"蓝靛厂东路2号院金源时代商务中心C座北侧底商","phone":"18513058186","category":"医疗保健服务;动物医疗场所;宠物诊所","area":"世纪城","lng":116.289218,"lat":39.961388,"amap_id":"B0L2LRQD9Y","order":48,"prev_distance_km":0.74,"cumulative_distance_km":71.213,"amap_marker_url":"https://uri.amap.com/marker?position=116.289218,39.961388&name=%E5%90%8C%E5%BF%83%E7%BC%98%E4%B8%96%E7%BA%AA%E5%9F%8E%E5%AE%A0%E7%89%A9%E8%AF%8A%E7%96%97%E4%B8%AD%E5%BF%83&src=vetmap&coordinate=gaode&callnative=1"},{"name":"派美特24小时宠物医院宠安安店","address":"北京城区蓝靛厂时雨园甲2号2层甲2-1-001","phone":"010-88593788;18610098709","category":"医疗保健服务;动物医疗场所;宠物诊所","area":"世纪城","lng":116.282272,"lat":39.961228,"amap_id":"B0KGRDBUO9","order":49,"prev_distance_km":0.592,"cumulative_distance_km":71.805,"amap_marker_url":"https://uri.amap.com/marker?position=116.282272,39.961228&name=%E6%B4%BE%E7%BE%8E%E7%89%B924%E5%B0%8F%E6%97%B6%E5%AE%A0%E7%89%A9%E5%8C%BB%E9%99%A2%E5%AE%A0%E5%AE%89%E5%AE%89%E5%BA%97&src=vetmap&coordinate=gaode&callnative=1"},{"name":"宠爱国际动物医院(世纪城店)","address":"北京城区远大南街远大园四区甲1号一层5号","phone":"010-89194060","category":"医疗保健服务;动物医疗场所;宠物诊所","area":"世纪城","lng":116.287395,"lat":39.954391,"amap_id":"B0FFL3O9A0","order":50,"prev_distance_km":0.877,"cumulative_distance_km":72.682,"amap_marker_url":"https://uri.amap.com/marker?position=116.287395,39.954391&name=%E5%AE%A0%E7%88%B1%E5%9B%BD%E9%99%85%E5%8A%A8%E7%89%A9%E5%8C%BB%E9%99%A2%28%E4%B8%96%E7%BA%AA%E5%9F%8E%E5%BA%97%29&src=vetmap&coordinate=gaode&callnative=1"},{"name":"北京乐荃动物医院","address":"万柳亿城中心C座103-104","phone":"010-58815969;18201529395","category":"医疗保健服务;动物医疗场所;宠物诊所","area":"万柳","lng":116.301152,"lat":39.960262,"amap_id":"B0JG1RBJKT","order":51,"prev_distance_km":1.342,"cumulative_distance_km":74.024,"amap_marker_url":"https://uri.amap.com/marker?position=116.301152,39.960262&name=%E5%8C%97%E4%BA%AC%E4%B9%90%E8%8D%83%E5%8A%A8%E7%89%A9%E5%8C%BB%E9%99%A2&src=vetmap&coordinate=gaode&callnative=1"},{"name":"北京达爱动物医院(彰化南路分院)","address":"彰化南路裕泽园小区底商(小区外)7号楼101室","phone":"010-88859567","category":"医疗保健服务;动物医疗场所;宠物诊所","area":"","lng":116.291709,"lat":39.936647,"amap_id":"B0FFJANPMB","order":52,"prev_distance_km":2.746,"cumulative_distance_km":76.77,"amap_marker_url":"https://uri.amap.com/marker?position=116.291709,39.936647&name=%E5%8C%97%E4%BA%AC%E8%BE%BE%E7%88%B1%E5%8A%A8%E7%89%A9%E5%8C%BB%E9%99%A2%28%E5%BD%B0%E5%8C%96%E5%8D%97%E8%B7%AF%E5%88%86%E9%99%A2%29&src=vetmap&coordinate=gaode&callnative=1"},{"name":"北京赛佳动物医院","address":"七贤村8号楼3门1层","phone":"010-68721909","category":"医疗保健服务;动物医疗场所;宠物诊所","area":"","lng":116.303307,"lat":39.932725,"amap_id":"B000A5EBF1","order":53,"prev_distance_km":1.081,"cumulative_distance_km":77.851,"amap_marker_url":"https://uri.amap.com/marker?position=116.303307,39.932725&name=%E5%8C%97%E4%BA%AC%E8%B5%9B%E4%BD%B3%E5%8A%A8%E7%89%A9%E5%8C%BB%E9%99%A2&src=vetmap&coordinate=gaode&callnative=1"},{"name":"西游萌宠医院24h(万寿路店)","address":"翠微中里16号楼1层","phone":"17040018666","category":"医疗保健服务;动物医疗场所;宠物诊所","area":"五棵松","lng":116.295606,"lat":39.914397,"amap_id":"B0KA7Z2U22","order":54,"prev_distance_km":2.141,"cumulative_distance_km":79.992,"amap_marker_url":"https://uri.amap.com/marker?position=116.295606,39.914397&name=%E8%A5%BF%E6%B8%B8%E8%90%8C%E5%AE%A0%E5%8C%BB%E9%99%A224h%28%E4%B8%87%E5%AF%BF%E8%B7%AF%E5%BA%97%29&src=vetmap&coordinate=gaode&callnative=1"},{"name":"美联众合动物医院(紫金分院)","address":"西翠路17号院2号楼1层商铺9","phone":"010-68154180","category":"医疗保健服务;动物医疗场所;宠物诊所","area":"五棵松","lng":116.280244,"lat":39.917434,"amap_id":"B0GKCZRQFF","order":55,"prev_distance_km":1.353,"cumulative_distance_km":81.345,"amap_marker_url":"https://uri.amap.com/marker?position=116.280244,39.917434&name=%E7%BE%8E%E8%81%94%E4%BC%97%E5%90%88%E5%8A%A8%E7%89%A9%E5%8C%BB%E9%99%A2%28%E7%B4%AB%E9%87%91%E5%88%86%E9%99%A2%29&src=vetmap&coordinate=gaode&callnative=1"},{"name":"北京新世纪动物医院","address":"西翠路17号院紫金长安2号楼2-2","phone":"010-88129929","category":"医疗保健服务;动物医疗场所;宠物诊所","area":"五棵松","lng":116.279425,"lat":39.917425,"amap_id":"B0KG4ZSI9X","order":56,"prev_distance_km":0.07,"cumulative_distance_km":81.415,"amap_marker_url":"https://uri.amap.com/marker?position=116.279425,39.917425&name=%E5%8C%97%E4%BA%AC%E6%96%B0%E4%B8%96%E7%BA%AA%E5%8A%A8%E7%89%A9%E5%8C%BB%E9%99%A2&src=vetmap&coordinate=gaode&callnative=1"},{"name":"斯诺比动物医院(中昊家园分院)","address":"阜石路甲19号院中昊家院15号楼商铺102","phone":"010-56022000;010-68159965","category":"医疗保健服务;动物医疗场所;宠物诊所","area":"","lng":116.259693,"lat":39.925396,"amap_id":"B000A9V73X","order":57,"prev_distance_km":1.902,"cumulative_distance_km":83.317,"amap_marker_url":"https://uri.amap.com/marker?position=116.259693,39.925396&name=%E6%96%AF%E8%AF%BA%E6%AF%94%E5%8A%A8%E7%89%A9%E5%8C%BB%E9%99%A2%28%E4%B8%AD%E6%98%8A%E5%AE%B6%E5%9B%AD%E5%88%86%E9%99%A2%29&src=vetmap&coordinate=gaode&callnative=1"},{"name":"新惠名宠动物医院","address":"阜石路甲19号院南区9号1层105","phone":"010-51031863","category":"医疗保健服务;动物医疗场所;宠物诊所","area":"","lng":116.258952,"lat":39.926925,"amap_id":"B0HAKOJVF5","order":58,"prev_distance_km":0.181,"cumulative_distance_km":83.498,"amap_marker_url":"https://uri.amap.com/marker?position=116.258952,39.926925&name=%E6%96%B0%E6%83%A0%E5%90%8D%E5%AE%A0%E5%8A%A8%E7%89%A9%E5%8C%BB%E9%99%A2&src=vetmap&coordinate=gaode&callnative=1"},{"name":"美联众合动物医院(田村分院)","address":"田村畅茜园景宜里1号楼底商1-7(菜篮子附近)","phone":"010-68215820","category":"医疗保健服务;动物医疗场所;宠物诊所","area":"","lng":116.249716,"lat":39.929738,"amap_id":"B0FFI74KXS","order":59,"prev_distance_km":0.847,"cumulative_distance_km":84.345,"amap_marker_url":"https://uri.amap.com/marker?position=116.249716,39.929738&name=%E7%BE%8E%E8%81%94%E4%BC%97%E5%90%88%E5%8A%A8%E7%89%A9%E5%8C%BB%E9%99%A2%28%E7%94%B0%E6%9D%91%E5%88%86%E9%99%A2%29&src=vetmap&coordinate=gaode&callnative=1"},{"name":"北京晓通动物医院(田村店)","address":"四环到五环之间田村路雪芳里小区1号楼101底商","phone":"010-88205228","category":"医疗保健服务;动物医疗场所;宠物诊所","area":"","lng":116.247645,"lat":39.929206,"amap_id":"B000A88961","order":60,"prev_distance_km":0.186,"cumulative_distance_km":84.532,"amap_marker_url":"https://uri.amap.com/marker?position=116.247645,39.929206&name=%E5%8C%97%E4%BA%AC%E6%99%93%E9%80%9A%E5%8A%A8%E7%89%A9%E5%8C%BB%E9%99%A2%28%E7%94%B0%E6%9D%91%E5%BA%97%29&src=vetmap&coordinate=gaode&callnative=1"},{"name":"同心缘宠物医疗中心","address":"西北四环125号同心缘宠物医疗中心","phone":"18610583557","category":"医疗保健服务;动物医疗场所;宠物诊所","area":"","lng":116.272375,"lat":39.940825,"amap_id":"B0HKKSIXHN","order":61,"prev_distance_km":2.473,"cumulative_distance_km":87.005,"amap_marker_url":"https://uri.amap.com/marker?position=116.272375,39.940825&name=%E5%90%8C%E5%BF%83%E7%BC%98%E5%AE%A0%E7%89%A9%E5%8C%BB%E7%96%97%E4%B8%AD%E5%BF%83&src=vetmap&coordinate=gaode&callnative=1"},{"name":"北京康宝动物诊疗中心","address":"金雅园3号楼C门南70米","phone":"18701180184","category":"医疗保健服务;动物医疗场所;宠物诊所","area":"","lng":116.277151,"lat":39.942525,"amap_id":"B0LKHNPRN7","order":62,"prev_distance_km":0.449,"cumulative_distance_km":87.453,"amap_marker_url":"https://uri.amap.com/marker?position=116.277151,39.942525&name=%E5%8C%97%E4%BA%AC%E5%BA%B7%E5%AE%9D%E5%8A%A8%E7%89%A9%E8%AF%8A%E7%96%97%E4%B8%AD%E5%BF%83&src=vetmap&coordinate=gaode&callnative=1"},{"name":"四季青镇动物防疫站","address":"闵航路11号","phone":"","category":"医疗保健服务;动物医疗场所;兽医站","area":"","lng":116.256275,"lat":39.970925,"amap_id":"B0KKG581CK","order":63,"prev_distance_km":3.625,"cumulative_distance_km":91.078,"amap_marker_url":"https://uri.amap.com/marker?position=116.256275,39.970925&name=%E5%9B%9B%E5%AD%A3%E9%9D%92%E9%95%87%E5%8A%A8%E7%89%A9%E9%98%B2%E7%96%AB%E7%AB%99&src=vetmap&coordinate=gaode&callnative=1"},{"name":"北京栖宠动物医院","address":"闵庄南路7号","phone":"18210881301","category":"医疗保健服务;动物医疗场所;宠物诊所","area":"","lng":116.247651,"lat":39.967926,"amap_id":"B0LG0H60J1","order":64,"prev_distance_km":0.807,"cumulative_distance_km":91.885,"amap_marker_url":"https://uri.amap.com/marker?position=116.247651,39.967926&name=%E5%8C%97%E4%BA%AC%E6%A0%96%E5%AE%A0%E5%8A%A8%E7%89%A9%E5%8C%BB%E9%99%A2&src=vetmap&coordinate=gaode&callnative=1"},{"name":"瑞派中山动物医院(四季青店)","address":"北京城区闵庄南路15号楼底商01","phone":"010-53057806","category":"医疗保健服务;动物医疗场所;宠物诊所","area":"","lng":116.246694,"lat":39.968577,"amap_id":"B0FFF3NW45","order":65,"prev_distance_km":0.109,"cumulative_distance_km":91.994,"amap_marker_url":"https://uri.amap.com/marker?position=116.246694,39.968577&name=%E7%91%9E%E6%B4%BE%E4%B8%AD%E5%B1%B1%E5%8A%A8%E7%89%A9%E5%8C%BB%E9%99%A2%28%E5%9B%9B%E5%AD%A3%E9%9D%92%E5%BA%97%29&src=vetmap&coordinate=gaode&callnative=1"},{"name":"瑞佳动物医院(北坞嘉园店)","address":"北坞嘉园北里公建C-1-13(茶棚地铁站出入口步行400米)","phone":"13811098125","category":"医疗保健服务;动物医疗场所;宠物诊所","area":"","lng":116.24826,"lat":39.978777,"amap_id":"B0JUAZQN29","order":66,"prev_distance_km":1.142,"cumulative_distance_km":93.136,"amap_marker_url":"https://uri.amap.com/marker?position=116.248260,39.978777&name=%E7%91%9E%E4%BD%B3%E5%8A%A8%E7%89%A9%E5%8C%BB%E9%99%A2%28%E5%8C%97%E5%9D%9E%E5%98%89%E5%9B%AD%E5%BA%97%29&src=vetmap&coordinate=gaode&callnative=1"},{"name":"瑞派·博望动物医院.肾病与血透特色专科(博望园店)","address":"羊坊店东路博望园8号","phone":"010-63973504","category":"医疗保健服务;动物医疗场所;宠物诊所","area":"公主坟","lng":116.323917,"lat":39.904926,"amap_id":"B000A7BAAC","order":67,"prev_distance_km":10.442,"cumulative_distance_km":103.578,"amap_marker_url":"https://uri.amap.com/marker?position=116.323917,39.904926&name=%E7%91%9E%E6%B4%BE%C2%B7%E5%8D%9A%E6%9C%9B%E5%8A%A8%E7%89%A9%E5%8C%BB%E9%99%A2.%E8%82%BE%E7%97%85%E4%B8%8E%E8%A1%80%E9%80%8F%E7%89%B9%E8%89%B2%E4%B8%93%E7%A7%91%28%E5%8D%9A%E6%9C%9B%E5%9B%AD%E5%BA%97%29&src=vetmap&coordinate=gaode&callnative=1"},{"name":"爱宠伴侣动物医院(馨瑞嘉园店)","address":"上庄馨瑞家园14号楼4单元103-2","phone":"13810286862;15811355709","category":"医疗保健服务;动物医疗场所;宠物诊所","area":"","lng":116.215957,"lat":40.123094,"amap_id":"B0FFHQM36M","order":68,"prev_distance_km":25.943,"cumulative_distance_km":129.521,"amap_marker_url":"https://uri.amap.com/marker?position=116.215957,40.123094&name=%E7%88%B1%E5%AE%A0%E4%BC%B4%E4%BE%A3%E5%8A%A8%E7%89%A9%E5%8C%BB%E9%99%A2%28%E9%A6%A8%E7%91%9E%E5%98%89%E5%9B%AD%E5%BA%97%29&src=vetmap&coordinate=gaode&callnative=1"},{"name":"宠物医疗美容","address":"馨瑞东路与沙阳路交叉口西北100米","phone":"","category":"医疗保健服务;动物医疗场所;宠物诊所","area":"","lng":116.215825,"lat":40.123225,"amap_id":"B0L01OGOUC","order":69,"prev_distance_km":0.018,"cumulative_distance_km":129.54,"amap_marker_url":"https://uri.amap.com/marker?position=116.215825,40.123225&name=%E5%AE%A0%E7%89%A9%E5%8C%BB%E7%96%97%E7%BE%8E%E5%AE%B9&src=vetmap&coordinate=gaode&callnative=1"}]}