{"summary":{"id":"d00170","province":"吉林省","city":"白山市","district":"靖宇县","count":7,"route_count":1,"max_route_clinics":7,"total_distance_km":3.252,"coordinate_system":"GCJ-02 / Amap","generated_at":"2026-05-08 19:40:10"},"routes":[{"id":"r1","name":"第1段","count":7,"total_distance_km":3.252,"rows":[{"name":"东兽药店","address":"七道街与矿泉北路交叉口西80米","phone":"","category":"医疗保健服务;动物医疗场所;动物医疗场所","area":"","lng":126.796225,"lat":42.398975,"amap_id":"B0KKBUGKH1","order":1,"prev_distance_km":0.0,"cumulative_distance_km":0.0,"amap_marker_url":"https://uri.amap.com/marker?position=126.796225,42.398975&name=%E4%B8%9C%E5%85%BD%E8%8D%AF%E5%BA%97&src=vetmap&coordinate=gaode&callnative=1","route_id":"r1","route_name":"第1段"},{"name":"谱正动物诊所","address":"矿泉北路与永康街交叉口东40米","phone":"","category":"医疗保健服务;动物医疗场所;宠物诊所","area":"","lng":126.803645,"lat":42.392534,"amap_id":"B0FFKU86Z8","order":2,"prev_distance_km":0.94,"cumulative_distance_km":0.94,"amap_marker_url":"https://uri.amap.com/marker?position=126.803645,42.392534&name=%E8%B0%B1%E6%AD%A3%E5%8A%A8%E7%89%A9%E8%AF%8A%E6%89%80&src=vetmap&coordinate=gaode&callnative=1","route_id":"r1","route_name":"第1段"},{"name":"爱诺宠物诊所","address":"水电豪园(靖宇大街南)","phone":"18643975216","category":"医疗保健服务;动物医疗场所;宠物诊所","area":"靖宇大街","lng":126.801946,"lat":42.384781,"amap_id":"B0FFKCY01I","order":3,"prev_distance_km":0.873,"cumulative_distance_km":1.814,"amap_marker_url":"https://uri.amap.com/marker?position=126.801946,42.384781&name=%E7%88%B1%E8%AF%BA%E5%AE%A0%E7%89%A9%E8%AF%8A%E6%89%80&src=vetmap&coordinate=gaode&callnative=1","route_id":"r1","route_name":"第1段"},{"name":"靖宇县畜牧兽医工作总站","address":"西大街南路148号","phone":"","category":"医疗保健服务;动物医疗场所;兽医站","area":"","lng":126.808181,"lat":42.384208,"amap_id":"B01B7009P1","order":4,"prev_distance_km":0.516,"cumulative_distance_km":2.33,"amap_marker_url":"https://uri.amap.com/marker?position=126.808181,42.384208&name=%E9%9D%96%E5%AE%87%E5%8E%BF%E7%95%9C%E7%89%A7%E5%85%BD%E5%8C%BB%E5%B7%A5%E4%BD%9C%E6%80%BB%E7%AB%99&src=vetmap&coordinate=gaode&callnative=1","route_id":"r1","route_name":"第1段"},{"name":"兴宇动物诊所","address":"矿泉南路与将军街交叉口北40米","phone":"13843975871","category":"医疗保健服务;动物医疗场所;宠物诊所","area":"","lng":126.808659,"lat":42.384226,"amap_id":"B0HD7OQPJV","order":5,"prev_distance_km":0.039,"cumulative_distance_km":2.369,"amap_marker_url":"https://uri.amap.com/marker?position=126.808659,42.384226&name=%E5%85%B4%E5%AE%87%E5%8A%A8%E7%89%A9%E8%AF%8A%E6%89%80&src=vetmap&coordinate=gaode&callnative=1","route_id":"r1","route_name":"第1段"},{"name":"阿柴宠物医院","address":"靖宇县人民政府对面","phone":"15584936566","category":"医疗保健服务;动物医疗场所;宠物诊所","area":"靖宇大街","lng":126.814104,"lat":42.388484,"amap_id":"B0JR97GWEP","order":6,"prev_distance_km":0.651,"cumulative_distance_km":3.02,"amap_marker_url":"https://uri.amap.com/marker?position=126.814104,42.388484&name=%E9%98%BF%E6%9F%B4%E5%AE%A0%E7%89%A9%E5%8C%BB%E9%99%A2&src=vetmap&coordinate=gaode&callnative=1","route_id":"r1","route_name":"第1段"},{"name":"德福动物医院广场分院","address":"珠江西区东北门南70米","phone":"18604394721","category":"医疗保健服务;动物医疗场所;宠物诊所","area":"","lng":126.814434,"lat":42.390552,"amap_id":"B0IUUAO14Y","order":7,"prev_distance_km":0.232,"cumulative_distance_km":3.252,"amap_marker_url":"https://uri.amap.com/marker?position=126.814434,42.390552&name=%E5%BE%B7%E7%A6%8F%E5%8A%A8%E7%89%A9%E5%8C%BB%E9%99%A2%E5%B9%BF%E5%9C%BA%E5%88%86%E9%99%A2&src=vetmap&coordinate=gaode&callnative=1","route_id":"r1","route_name":"第1段"}]}],"rows":[{"name":"东兽药店","address":"七道街与矿泉北路交叉口西80米","phone":"","category":"医疗保健服务;动物医疗场所;动物医疗场所","area":"","lng":126.796225,"lat":42.398975,"amap_id":"B0KKBUGKH1","order":1,"prev_distance_km":0.0,"cumulative_distance_km":0.0,"amap_marker_url":"https://uri.amap.com/marker?position=126.796225,42.398975&name=%E4%B8%9C%E5%85%BD%E8%8D%AF%E5%BA%97&src=vetmap&coordinate=gaode&callnative=1","route_id":"r1","route_name":"第1段","global_order":1},{"name":"谱正动物诊所","address":"矿泉北路与永康街交叉口东40米","phone":"","category":"医疗保健服务;动物医疗场所;宠物诊所","area":"","lng":126.803645,"lat":42.392534,"amap_id":"B0FFKU86Z8","order":2,"prev_distance_km":0.94,"cumulative_distance_km":0.94,"amap_marker_url":"https://uri.amap.com/marker?position=126.803645,42.392534&name=%E8%B0%B1%E6%AD%A3%E5%8A%A8%E7%89%A9%E8%AF%8A%E6%89%80&src=vetmap&coordinate=gaode&callnative=1","route_id":"r1","route_name":"第1段","global_order":2},{"name":"爱诺宠物诊所","address":"水电豪园(靖宇大街南)","phone":"18643975216","category":"医疗保健服务;动物医疗场所;宠物诊所","area":"靖宇大街","lng":126.801946,"lat":42.384781,"amap_id":"B0FFKCY01I","order":3,"prev_distance_km":0.873,"cumulative_distance_km":1.814,"amap_marker_url":"https://uri.amap.com/marker?position=126.801946,42.384781&name=%E7%88%B1%E8%AF%BA%E5%AE%A0%E7%89%A9%E8%AF%8A%E6%89%80&src=vetmap&coordinate=gaode&callnative=1","route_id":"r1","route_name":"第1段","global_order":3},{"name":"靖宇县畜牧兽医工作总站","address":"西大街南路148号","phone":"","category":"医疗保健服务;动物医疗场所;兽医站","area":"","lng":126.808181,"lat":42.384208,"amap_id":"B01B7009P1","order":4,"prev_distance_km":0.516,"cumulative_distance_km":2.33,"amap_marker_url":"https://uri.amap.com/marker?position=126.808181,42.384208&name=%E9%9D%96%E5%AE%87%E5%8E%BF%E7%95%9C%E7%89%A7%E5%85%BD%E5%8C%BB%E5%B7%A5%E4%BD%9C%E6%80%BB%E7%AB%99&src=vetmap&coordinate=gaode&callnative=1","route_id":"r1","route_name":"第1段","global_order":4},{"name":"兴宇动物诊所","address":"矿泉南路与将军街交叉口北40米","phone":"13843975871","category":"医疗保健服务;动物医疗场所;宠物诊所","area":"","lng":126.808659,"lat":42.384226,"amap_id":"B0HD7OQPJV","order":5,"prev_distance_km":0.039,"cumulative_distance_km":2.369,"amap_marker_url":"https://uri.amap.com/marker?position=126.808659,42.384226&name=%E5%85%B4%E5%AE%87%E5%8A%A8%E7%89%A9%E8%AF%8A%E6%89%80&src=vetmap&coordinate=gaode&callnative=1","route_id":"r1","route_name":"第1段","global_order":5},{"name":"阿柴宠物医院","address":"靖宇县人民政府对面","phone":"15584936566","category":"医疗保健服务;动物医疗场所;宠物诊所","area":"靖宇大街","lng":126.814104,"lat":42.388484,"amap_id":"B0JR97GWEP","order":6,"prev_distance_km":0.651,"cumulative_distance_km":3.02,"amap_marker_url":"https://uri.amap.com/marker?position=126.814104,42.388484&name=%E9%98%BF%E6%9F%B4%E5%AE%A0%E7%89%A9%E5%8C%BB%E9%99%A2&src=vetmap&coordinate=gaode&callnative=1","route_id":"r1","route_name":"第1段","global_order":6},{"name":"德福动物医院广场分院","address":"珠江西区东北门南70米","phone":"18604394721","category":"医疗保健服务;动物医疗场所;宠物诊所","area":"","lng":126.814434,"lat":42.390552,"amap_id":"B0IUUAO14Y","order":7,"prev_distance_km":0.232,"cumulative_distance_km":3.252,"amap_marker_url":"https://uri.amap.com/marker?position=126.814434,42.390552&name=%E5%BE%B7%E7%A6%8F%E5%8A%A8%E7%89%A9%E5%8C%BB%E9%99%A2%E5%B9%BF%E5%9C%BA%E5%88%86%E9%99%A2&src=vetmap&coordinate=gaode&callnative=1","route_id":"r1","route_name":"第1段","global_order":7}]}