{"summary":{"id":"d00139","province":"吉林省","city":"吉林市","district":"舒兰市","count":7,"route_count":1,"max_route_clinics":7,"total_distance_km":68.467,"coordinate_system":"GCJ-02 / Amap","generated_at":"2026-05-07 21:26:31"},"routes":[{"id":"r1","name":"第1段","count":7,"total_distance_km":68.467,"rows":[{"name":"兽医诊所","address":"东开段与新金段交叉口西80米","phone":"","category":"医疗保健服务;动物医疗场所;兽医站","area":"","lng":127.212036,"lat":44.426739,"amap_id":"B0I6BUS421","order":1,"prev_distance_km":0.0,"cumulative_distance_km":0.0,"amap_marker_url":"https://uri.amap.com/marker?position=127.212036,44.426739&name=%E5%85%BD%E5%8C%BB%E8%AF%8A%E6%89%80&src=vetmap&coordinate=gaode&callnative=1","route_id":"r1","route_name":"第1段"},{"name":"舒兰市爱康宠物医院(急诊中心)","address":"铁东街道市府大街1366-a号","phone":"0432-68706999;17045300001;17377633360","category":"医疗保健服务;动物医疗场所;宠物诊所","area":"","lng":126.964029,"lat":44.411719,"amap_id":"B0FFH03RG6","order":2,"prev_distance_km":19.767,"cumulative_distance_km":19.767,"amap_marker_url":"https://uri.amap.com/marker?position=126.964029,44.411719&name=%E8%88%92%E5%85%B0%E5%B8%82%E7%88%B1%E5%BA%B7%E5%AE%A0%E7%89%A9%E5%8C%BB%E9%99%A2%28%E6%80%A5%E8%AF%8A%E4%B8%AD%E5%BF%83%29&src=vetmap&coordinate=gaode&callnative=1","route_id":"r1","route_name":"第1段"},{"name":"车大夫兽药店","address":"一道街645号原舒兰市南城街1179号","phone":"13578503095","category":"医疗保健服务;动物医疗场所;动物医疗场所","area":"南城","lng":126.952813,"lat":44.406127,"amap_id":"B0K2350XRS","order":3,"prev_distance_km":1.086,"cumulative_distance_km":20.854,"amap_marker_url":"https://uri.amap.com/marker?position=126.952813,44.406127&name=%E8%BD%A6%E5%A4%A7%E5%A4%AB%E5%85%BD%E8%8D%AF%E5%BA%97&src=vetmap&coordinate=gaode&callnative=1","route_id":"r1","route_name":"第1段"},{"name":"贝贝动物医院","address":"人民大路与一道街交叉口西南40米","phone":"0432-66636665;17643234324","category":"医疗保健服务;动物医疗场所;宠物诊所","area":"北城","lng":126.951645,"lat":44.412911,"amap_id":"B0I0KC0LCB","order":4,"prev_distance_km":0.76,"cumulative_distance_km":21.614,"amap_marker_url":"https://uri.amap.com/marker?position=126.951645,44.412911&name=%E8%B4%9D%E8%B4%9D%E5%8A%A8%E7%89%A9%E5%8C%BB%E9%99%A2&src=vetmap&coordinate=gaode&callnative=1","route_id":"r1","route_name":"第1段"},{"name":"大一卫动物医院","address":"舒兰大街与园丁路交叉口西北60米","phone":"15643228039","category":"医疗保健服务;动物医疗场所;动物医疗场所","area":"北城","lng":126.945904,"lat":44.417576,"amap_id":"B0IA3MPZOG","order":5,"prev_distance_km":0.691,"cumulative_distance_km":22.304,"amap_marker_url":"https://uri.amap.com/marker?position=126.945904,44.417576&name=%E5%A4%A7%E4%B8%80%E5%8D%AB%E5%8A%A8%E7%89%A9%E5%8C%BB%E9%99%A2&src=vetmap&coordinate=gaode&callnative=1","route_id":"r1","route_name":"第1段"},{"name":"恒佳科信兽药店","address":"森淼装饰装潢西侧","phone":"","category":"医疗保健服务;动物医疗场所;动物医疗场所","area":"","lng":126.522875,"lat":44.377825,"amap_id":"B0LRS1577C","order":6,"prev_distance_km":33.899,"cumulative_distance_km":56.203,"amap_marker_url":"https://uri.amap.com/marker?position=126.522875,44.377825&name=%E6%81%92%E4%BD%B3%E7%A7%91%E4%BF%A1%E5%85%BD%E8%8D%AF%E5%BA%97&src=vetmap&coordinate=gaode&callnative=1","route_id":"r1","route_name":"第1段"},{"name":"琦丽动物诊所","address":"202国道与002乡道交叉口北320米","phone":"13644325059","category":"医疗保健服务;动物医疗场所;宠物诊所","area":"","lng":126.523566,"lat":44.488115,"amap_id":"B0FFFZTSM7","order":7,"prev_distance_km":12.264,"cumulative_distance_km":68.467,"amap_marker_url":"https://uri.amap.com/marker?position=126.523566,44.488115&name=%E7%90%A6%E4%B8%BD%E5%8A%A8%E7%89%A9%E8%AF%8A%E6%89%80&src=vetmap&coordinate=gaode&callnative=1","route_id":"r1","route_name":"第1段"}]}],"rows":[{"name":"兽医诊所","address":"东开段与新金段交叉口西80米","phone":"","category":"医疗保健服务;动物医疗场所;兽医站","area":"","lng":127.212036,"lat":44.426739,"amap_id":"B0I6BUS421","order":1,"prev_distance_km":0.0,"cumulative_distance_km":0.0,"amap_marker_url":"https://uri.amap.com/marker?position=127.212036,44.426739&name=%E5%85%BD%E5%8C%BB%E8%AF%8A%E6%89%80&src=vetmap&coordinate=gaode&callnative=1","route_id":"r1","route_name":"第1段","global_order":1},{"name":"舒兰市爱康宠物医院(急诊中心)","address":"铁东街道市府大街1366-a号","phone":"0432-68706999;17045300001;17377633360","category":"医疗保健服务;动物医疗场所;宠物诊所","area":"","lng":126.964029,"lat":44.411719,"amap_id":"B0FFH03RG6","order":2,"prev_distance_km":19.767,"cumulative_distance_km":19.767,"amap_marker_url":"https://uri.amap.com/marker?position=126.964029,44.411719&name=%E8%88%92%E5%85%B0%E5%B8%82%E7%88%B1%E5%BA%B7%E5%AE%A0%E7%89%A9%E5%8C%BB%E9%99%A2%28%E6%80%A5%E8%AF%8A%E4%B8%AD%E5%BF%83%29&src=vetmap&coordinate=gaode&callnative=1","route_id":"r1","route_name":"第1段","global_order":2},{"name":"车大夫兽药店","address":"一道街645号原舒兰市南城街1179号","phone":"13578503095","category":"医疗保健服务;动物医疗场所;动物医疗场所","area":"南城","lng":126.952813,"lat":44.406127,"amap_id":"B0K2350XRS","order":3,"prev_distance_km":1.086,"cumulative_distance_km":20.854,"amap_marker_url":"https://uri.amap.com/marker?position=126.952813,44.406127&name=%E8%BD%A6%E5%A4%A7%E5%A4%AB%E5%85%BD%E8%8D%AF%E5%BA%97&src=vetmap&coordinate=gaode&callnative=1","route_id":"r1","route_name":"第1段","global_order":3},{"name":"贝贝动物医院","address":"人民大路与一道街交叉口西南40米","phone":"0432-66636665;17643234324","category":"医疗保健服务;动物医疗场所;宠物诊所","area":"北城","lng":126.951645,"lat":44.412911,"amap_id":"B0I0KC0LCB","order":4,"prev_distance_km":0.76,"cumulative_distance_km":21.614,"amap_marker_url":"https://uri.amap.com/marker?position=126.951645,44.412911&name=%E8%B4%9D%E8%B4%9D%E5%8A%A8%E7%89%A9%E5%8C%BB%E9%99%A2&src=vetmap&coordinate=gaode&callnative=1","route_id":"r1","route_name":"第1段","global_order":4},{"name":"大一卫动物医院","address":"舒兰大街与园丁路交叉口西北60米","phone":"15643228039","category":"医疗保健服务;动物医疗场所;动物医疗场所","area":"北城","lng":126.945904,"lat":44.417576,"amap_id":"B0IA3MPZOG","order":5,"prev_distance_km":0.691,"cumulative_distance_km":22.304,"amap_marker_url":"https://uri.amap.com/marker?position=126.945904,44.417576&name=%E5%A4%A7%E4%B8%80%E5%8D%AB%E5%8A%A8%E7%89%A9%E5%8C%BB%E9%99%A2&src=vetmap&coordinate=gaode&callnative=1","route_id":"r1","route_name":"第1段","global_order":5},{"name":"恒佳科信兽药店","address":"森淼装饰装潢西侧","phone":"","category":"医疗保健服务;动物医疗场所;动物医疗场所","area":"","lng":126.522875,"lat":44.377825,"amap_id":"B0LRS1577C","order":6,"prev_distance_km":33.899,"cumulative_distance_km":56.203,"amap_marker_url":"https://uri.amap.com/marker?position=126.522875,44.377825&name=%E6%81%92%E4%BD%B3%E7%A7%91%E4%BF%A1%E5%85%BD%E8%8D%AF%E5%BA%97&src=vetmap&coordinate=gaode&callnative=1","route_id":"r1","route_name":"第1段","global_order":6},{"name":"琦丽动物诊所","address":"202国道与002乡道交叉口北320米","phone":"13644325059","category":"医疗保健服务;动物医疗场所;宠物诊所","area":"","lng":126.523566,"lat":44.488115,"amap_id":"B0FFFZTSM7","order":7,"prev_distance_km":12.264,"cumulative_distance_km":68.467,"amap_marker_url":"https://uri.amap.com/marker?position=126.523566,44.488115&name=%E7%90%A6%E4%B8%BD%E5%8A%A8%E7%89%A9%E8%AF%8A%E6%89%80&src=vetmap&coordinate=gaode&callnative=1","route_id":"r1","route_name":"第1段","global_order":7}]}