{"summary":{"id":"d00164","province":"吉林省","city":"白城市","district":"通榆县","count":23,"route_count":1,"max_route_clinics":23,"total_distance_km":207.956,"coordinate_system":"GCJ-02 / Amap","generated_at":"2026-05-08 19:40:10"},"routes":[{"id":"r1","name":"第1段","count":23,"total_distance_km":207.956,"rows":[{"name":"兴牧兽医诊所","address":"牵手歌厅(府前路)","phone":"","category":"医疗保健服务;动物医疗场所;兽医站","area":"","lng":122.357756,"lat":45.045887,"amap_id":"B01B400DBP","order":1,"prev_distance_km":0.0,"cumulative_distance_km":0.0,"amap_marker_url":"https://uri.amap.com/marker?position=122.357756,45.045887&name=%E5%85%B4%E7%89%A7%E5%85%BD%E5%8C%BB%E8%AF%8A%E6%89%80&src=vetmap&coordinate=gaode&callnative=1","route_id":"r1","route_name":"第1段"},{"name":"小吴兽医所","address":"府前路与110县道交叉口西320米","phone":"","category":"医疗保健服务;动物医疗场所;兽医站","area":"","lng":122.355481,"lat":45.045411,"amap_id":"B0I0HZSEH1","order":2,"prev_distance_km":0.186,"cumulative_distance_km":0.186,"amap_marker_url":"https://uri.amap.com/marker?position=122.355481,45.045411&name=%E5%B0%8F%E5%90%B4%E5%85%BD%E5%8C%BB%E6%89%80&src=vetmap&coordinate=gaode&callnative=1","route_id":"r1","route_name":"第1段"},{"name":"刘满强兽医诊所","address":"同发牧场刘满强兽医诊所","phone":"","category":"医疗保健服务;动物医疗场所;兽医站","area":"","lng":122.154652,"lat":44.885209,"amap_id":"B0FFHWJMDZ","order":3,"prev_distance_km":23.811,"cumulative_distance_km":23.998,"amap_marker_url":"https://uri.amap.com/marker?position=122.154652,44.885209&name=%E5%88%98%E6%BB%A1%E5%BC%BA%E5%85%BD%E5%8C%BB%E8%AF%8A%E6%89%80&src=vetmap&coordinate=gaode&callnative=1","route_id":"r1","route_name":"第1段"},{"name":"济牲源兽药","address":"同发畜牧场有限公司西侧170米","phone":"","category":"购物服务;购物相关场所;购物相关场所|医疗保健服务;动物医疗场所;动物医疗场所","area":"","lng":122.155825,"lat":44.880775,"amap_id":"B0LKZ9G7X2","order":4,"prev_distance_km":0.502,"cumulative_distance_km":24.499,"amap_marker_url":"https://uri.amap.com/marker?position=122.155825,44.880775&name=%E6%B5%8E%E7%89%B2%E6%BA%90%E5%85%BD%E8%8D%AF&src=vetmap&coordinate=gaode&callnative=1","route_id":"r1","route_name":"第1段"},{"name":"敖继平兽药","address":"同康医药有限公司西侧50米","phone":"","category":"购物服务;购物相关场所;购物相关场所|医疗保健服务;动物医疗场所;动物医疗场所","area":"","lng":122.156675,"lat":44.880875,"amap_id":"B0L2B7LBXI","order":5,"prev_distance_km":0.068,"cumulative_distance_km":24.567,"amap_marker_url":"https://uri.amap.com/marker?position=122.156675,44.880875&name=%E6%95%96%E7%BB%A7%E5%B9%B3%E5%85%BD%E8%8D%AF&src=vetmap&coordinate=gaode&callnative=1","route_id":"r1","route_name":"第1段"},{"name":"方克民兽医诊所","address":"兴隆山镇","phone":"","category":"医疗保健服务;动物医疗场所;兽医站","area":"","lng":122.440077,"lat":44.834138,"amap_id":"B0IBGUII6X","order":6,"prev_distance_km":22.935,"cumulative_distance_km":47.502,"amap_marker_url":"https://uri.amap.com/marker?position=122.440077,44.834138&name=%E6%96%B9%E5%85%8B%E6%B0%91%E5%85%BD%E5%8C%BB%E8%AF%8A%E6%89%80&src=vetmap&coordinate=gaode&callnative=1","route_id":"r1","route_name":"第1段"},{"name":"德康动物医院有限公司","address":"兴隆山镇林茂村村民委员会西北侧150米","phone":"","category":"医疗保健服务;动物医疗场所;宠物诊所","area":"","lng":122.43849,"lat":44.828513,"amap_id":"B0KUD96KBR","order":7,"prev_distance_km":0.638,"cumulative_distance_km":48.14,"amap_marker_url":"https://uri.amap.com/marker?position=122.438490,44.828513&name=%E5%BE%B7%E5%BA%B7%E5%8A%A8%E7%89%A9%E5%8C%BB%E9%99%A2%E6%9C%89%E9%99%90%E5%85%AC%E5%8F%B8&src=vetmap&coordinate=gaode&callnative=1","route_id":"r1","route_name":"第1段"},{"name":"吴军伟兽医诊所","address":"宋辉日杂农机东侧90米","phone":"","category":"医疗保健服务;动物医疗场所;兽医站","area":"","lng":122.328242,"lat":44.598531,"amap_id":"B0HG0SYQ99","order":8,"prev_distance_km":27.016,"cumulative_distance_km":75.156,"amap_marker_url":"https://uri.amap.com/marker?position=122.328242,44.598531&name=%E5%90%B4%E5%86%9B%E4%BC%9F%E5%85%BD%E5%8C%BB%E8%AF%8A%E6%89%80&src=vetmap&coordinate=gaode&callnative=1","route_id":"r1","route_name":"第1段"},{"name":"兽医诊所","address":"瞻榆东路与116县道交叉口东20米","phone":"","category":"医疗保健服务;动物医疗场所;兽医站","area":"","lng":122.652395,"lat":44.512251,"amap_id":"B0J3H7R642","order":9,"prev_distance_km":27.417,"cumulative_distance_km":102.573,"amap_marker_url":"https://uri.amap.com/marker?position=122.652395,44.512251&name=%E5%85%BD%E5%8C%BB%E8%AF%8A%E6%89%80&src=vetmap&coordinate=gaode&callnative=1","route_id":"r1","route_name":"第1段"},{"name":"通榆县动物检疫申报点","address":"中国石油加油站西北侧70米","phone":"","category":"医疗保健服务;动物医疗场所;动物医疗场所","area":"","lng":122.662781,"lat":44.513371,"amap_id":"B01B40MTNC","order":10,"prev_distance_km":0.833,"cumulative_distance_km":103.406,"amap_marker_url":"https://uri.amap.com/marker?position=122.662781,44.513371&name=%E9%80%9A%E6%A6%86%E5%8E%BF%E5%8A%A8%E7%89%A9%E6%A3%80%E7%96%AB%E7%94%B3%E6%8A%A5%E7%82%B9&src=vetmap&coordinate=gaode&callnative=1","route_id":"r1","route_name":"第1段"},{"name":"徐方庭兽医诊所","address":"富兴街与092乡道交叉口西北60米","phone":"","category":"医疗保健服务;动物医疗场所;宠物诊所","area":"","lng":122.889863,"lat":44.582223,"amap_id":"B0KGVZZJXR","order":11,"prev_distance_km":19.556,"cumulative_distance_km":122.962,"amap_marker_url":"https://uri.amap.com/marker?position=122.889863,44.582223&name=%E5%BE%90%E6%96%B9%E5%BA%AD%E5%85%BD%E5%8C%BB%E8%AF%8A%E6%89%80&src=vetmap&coordinate=gaode&callnative=1","route_id":"r1","route_name":"第1段"},{"name":"畜康兽医诊所","address":"新华镇卫生院北200米","phone":"18243625123","category":"医疗保健服务;动物医疗场所;兽医站","area":"","lng":122.889875,"lat":44.582175,"amap_id":"B0KGVAETQ9","order":12,"prev_distance_km":0.005,"cumulative_distance_km":122.968,"amap_marker_url":"https://uri.amap.com/marker?position=122.889875,44.582175&name=%E7%95%9C%E5%BA%B7%E5%85%BD%E5%8C%BB%E8%AF%8A%E6%89%80&src=vetmap&coordinate=gaode&callnative=1","route_id":"r1","route_name":"第1段"},{"name":"祥泰兽医诊所","address":"092乡道与富兴街交叉口东140米","phone":"13180608856","category":"医疗保健服务;动物医疗场所;兽医站","area":"","lng":122.891765,"lat":44.582049,"amap_id":"B0K6PUPMQ4","order":13,"prev_distance_km":0.15,"cumulative_distance_km":123.118,"amap_marker_url":"https://uri.amap.com/marker?position=122.891765,44.582049&name=%E7%A5%A5%E6%B3%B0%E5%85%BD%E5%8C%BB%E8%AF%8A%E6%89%80&src=vetmap&coordinate=gaode&callnative=1","route_id":"r1","route_name":"第1段"},{"name":"通榆县苏公坨乡王维学兽医诊所","address":"苏公坨乡苏公坨村苏公坨屯","phone":"","category":"医疗保健服务;动物医疗场所;兽医站","area":"","lng":123.327311,"lat":44.680949,"amap_id":"B0L3PUGAD1","order":14,"prev_distance_km":36.177,"cumulative_distance_km":159.295,"amap_marker_url":"https://uri.amap.com/marker?position=123.327311,44.680949&name=%E9%80%9A%E6%A6%86%E5%8E%BF%E8%8B%8F%E5%85%AC%E5%9D%A8%E4%B9%A1%E7%8E%8B%E7%BB%B4%E5%AD%A6%E5%85%BD%E5%8C%BB%E8%AF%8A%E6%89%80&src=vetmap&coordinate=gaode&callnative=1","route_id":"r1","route_name":"第1段"},{"name":"宏达兽医诊所","address":"开通大路1112号","phone":"13843640102;13943453645","category":"医疗保健服务;动物医疗场所;兽医站","area":"","lng":123.089479,"lat":44.805901,"amap_id":"B01B4009LS","order":15,"prev_distance_km":23.364,"cumulative_distance_km":182.659,"amap_marker_url":"https://uri.amap.com/marker?position=123.089479,44.805901&name=%E5%AE%8F%E8%BE%BE%E5%85%BD%E5%8C%BB%E8%AF%8A%E6%89%80&src=vetmap&coordinate=gaode&callnative=1","route_id":"r1","route_name":"第1段"},{"name":"恒德宠物医院","address":"妇幼保健院西80米","phone":"15114442444","category":"医疗保健服务;动物医疗场所;宠物诊所","area":"","lng":123.088026,"lat":44.806232,"amap_id":"B01B400D31","order":16,"prev_distance_km":0.12,"cumulative_distance_km":182.779,"amap_marker_url":"https://uri.amap.com/marker?position=123.088026,44.806232&name=%E6%81%92%E5%BE%B7%E5%AE%A0%E7%89%A9%E5%8C%BB%E9%99%A2&src=vetmap&coordinate=gaode&callnative=1","route_id":"r1","route_name":"第1段"},{"name":"中牧兽医","address":"开通镇双杰超市道北鲜果行楼下","phone":"13089365365;15543944188","category":"医疗保健服务;动物医疗场所;宠物诊所","area":"繁荣北街","lng":123.087514,"lat":44.806284,"amap_id":"B0G1RS2TDM","order":17,"prev_distance_km":0.041,"cumulative_distance_km":182.82,"amap_marker_url":"https://uri.amap.com/marker?position=123.087514,44.806284&name=%E4%B8%AD%E7%89%A7%E5%85%BD%E5%8C%BB&src=vetmap&coordinate=gaode&callnative=1","route_id":"r1","route_name":"第1段"},{"name":"中兴兽药店","address":"开通镇商业城楼下","phone":"0436-4226441;0436-4228455","category":"医疗保健服务;动物医疗场所;兽医站","area":"开通西路","lng":123.083086,"lat":44.806022,"amap_id":"B01B400DCE","order":18,"prev_distance_km":0.351,"cumulative_distance_km":183.17,"amap_marker_url":"https://uri.amap.com/marker?position=123.083086,44.806022&name=%E4%B8%AD%E5%85%B4%E5%85%BD%E8%8D%AF%E5%BA%97&src=vetmap&coordinate=gaode&callnative=1","route_id":"r1","route_name":"第1段"},{"name":"马大夫宠物医院","address":"民主路1028号","phone":"15043686108","category":"医疗保健服务;动物医疗场所;宠物诊所","area":"繁荣北街","lng":123.088272,"lat":44.812512,"amap_id":"B0FFHC8YZ0","order":19,"prev_distance_km":0.83,"cumulative_distance_km":184.0,"amap_marker_url":"https://uri.amap.com/marker?position=123.088272,44.812512&name=%E9%A9%AC%E5%A4%A7%E5%A4%AB%E5%AE%A0%E7%89%A9%E5%8C%BB%E9%99%A2&src=vetmap&coordinate=gaode&callnative=1","route_id":"r1","route_name":"第1段"},{"name":"道格恺特宠物医院","address":"兴华街育才路(中房辽源开发楼)东至西第7门","phone":"13614466932","category":"医疗保健服务;动物医疗场所;宠物诊所","area":"繁荣北街","lng":123.082219,"lat":44.81674,"amap_id":"B0K6PAX0OJ","order":20,"prev_distance_km":0.67,"cumulative_distance_km":184.67,"amap_marker_url":"https://uri.amap.com/marker?position=123.082219,44.816740&name=%E9%81%93%E6%A0%BC%E6%81%BA%E7%89%B9%E5%AE%A0%E7%89%A9%E5%8C%BB%E9%99%A2&src=vetmap&coordinate=gaode&callnative=1","route_id":"r1","route_name":"第1段"},{"name":"通榆县动物疫病预防控制中心","address":"开通镇西育才路1249号","phone":"0436-4233343","category":"医疗保健服务;动物医疗场所;动物医疗场所","area":"","lng":123.060601,"lat":44.81483,"amap_id":"B0FFI6BIS2","order":21,"prev_distance_km":1.718,"cumulative_distance_km":186.388,"amap_marker_url":"https://uri.amap.com/marker?position=123.060601,44.814830&name=%E9%80%9A%E6%A6%86%E5%8E%BF%E5%8A%A8%E7%89%A9%E7%96%AB%E7%97%85%E9%A2%84%E9%98%B2%E6%8E%A7%E5%88%B6%E4%B8%AD%E5%BF%83&src=vetmap&coordinate=gaode&callnative=1","route_id":"r1","route_name":"第1段"},{"name":"王忠福兽医诊所","address":"519省道与097乡道交叉口西100米","phone":"","category":"医疗保健服务;动物医疗场所;兽医站","area":"","lng":122.823074,"lat":44.906777,"amap_id":"B0FFHXO21I","order":22,"prev_distance_km":21.331,"cumulative_distance_km":207.72,"amap_marker_url":"https://uri.amap.com/marker?position=122.823074,44.906777&name=%E7%8E%8B%E5%BF%A0%E7%A6%8F%E5%85%BD%E5%8C%BB%E8%AF%8A%E6%89%80&src=vetmap&coordinate=gaode&callnative=1","route_id":"r1","route_name":"第1段"},{"name":"雪峰兽药诊所","address":"四井子","phone":"","category":"医疗保健服务;动物医疗场所;兽医站","area":"","lng":122.820087,"lat":44.906577,"amap_id":"B0KDZRQKCV","order":23,"prev_distance_km":0.236,"cumulative_distance_km":207.956,"amap_marker_url":"https://uri.amap.com/marker?position=122.820087,44.906577&name=%E9%9B%AA%E5%B3%B0%E5%85%BD%E8%8D%AF%E8%AF%8A%E6%89%80&src=vetmap&coordinate=gaode&callnative=1","route_id":"r1","route_name":"第1段"}]}],"rows":[{"name":"兴牧兽医诊所","address":"牵手歌厅(府前路)","phone":"","category":"医疗保健服务;动物医疗场所;兽医站","area":"","lng":122.357756,"lat":45.045887,"amap_id":"B01B400DBP","order":1,"prev_distance_km":0.0,"cumulative_distance_km":0.0,"amap_marker_url":"https://uri.amap.com/marker?position=122.357756,45.045887&name=%E5%85%B4%E7%89%A7%E5%85%BD%E5%8C%BB%E8%AF%8A%E6%89%80&src=vetmap&coordinate=gaode&callnative=1","route_id":"r1","route_name":"第1段","global_order":1},{"name":"小吴兽医所","address":"府前路与110县道交叉口西320米","phone":"","category":"医疗保健服务;动物医疗场所;兽医站","area":"","lng":122.355481,"lat":45.045411,"amap_id":"B0I0HZSEH1","order":2,"prev_distance_km":0.186,"cumulative_distance_km":0.186,"amap_marker_url":"https://uri.amap.com/marker?position=122.355481,45.045411&name=%E5%B0%8F%E5%90%B4%E5%85%BD%E5%8C%BB%E6%89%80&src=vetmap&coordinate=gaode&callnative=1","route_id":"r1","route_name":"第1段","global_order":2},{"name":"刘满强兽医诊所","address":"同发牧场刘满强兽医诊所","phone":"","category":"医疗保健服务;动物医疗场所;兽医站","area":"","lng":122.154652,"lat":44.885209,"amap_id":"B0FFHWJMDZ","order":3,"prev_distance_km":23.811,"cumulative_distance_km":23.998,"amap_marker_url":"https://uri.amap.com/marker?position=122.154652,44.885209&name=%E5%88%98%E6%BB%A1%E5%BC%BA%E5%85%BD%E5%8C%BB%E8%AF%8A%E6%89%80&src=vetmap&coordinate=gaode&callnative=1","route_id":"r1","route_name":"第1段","global_order":3},{"name":"济牲源兽药","address":"同发畜牧场有限公司西侧170米","phone":"","category":"购物服务;购物相关场所;购物相关场所|医疗保健服务;动物医疗场所;动物医疗场所","area":"","lng":122.155825,"lat":44.880775,"amap_id":"B0LKZ9G7X2","order":4,"prev_distance_km":0.502,"cumulative_distance_km":24.499,"amap_marker_url":"https://uri.amap.com/marker?position=122.155825,44.880775&name=%E6%B5%8E%E7%89%B2%E6%BA%90%E5%85%BD%E8%8D%AF&src=vetmap&coordinate=gaode&callnative=1","route_id":"r1","route_name":"第1段","global_order":4},{"name":"敖继平兽药","address":"同康医药有限公司西侧50米","phone":"","category":"购物服务;购物相关场所;购物相关场所|医疗保健服务;动物医疗场所;动物医疗场所","area":"","lng":122.156675,"lat":44.880875,"amap_id":"B0L2B7LBXI","order":5,"prev_distance_km":0.068,"cumulative_distance_km":24.567,"amap_marker_url":"https://uri.amap.com/marker?position=122.156675,44.880875&name=%E6%95%96%E7%BB%A7%E5%B9%B3%E5%85%BD%E8%8D%AF&src=vetmap&coordinate=gaode&callnative=1","route_id":"r1","route_name":"第1段","global_order":5},{"name":"方克民兽医诊所","address":"兴隆山镇","phone":"","category":"医疗保健服务;动物医疗场所;兽医站","area":"","lng":122.440077,"lat":44.834138,"amap_id":"B0IBGUII6X","order":6,"prev_distance_km":22.935,"cumulative_distance_km":47.502,"amap_marker_url":"https://uri.amap.com/marker?position=122.440077,44.834138&name=%E6%96%B9%E5%85%8B%E6%B0%91%E5%85%BD%E5%8C%BB%E8%AF%8A%E6%89%80&src=vetmap&coordinate=gaode&callnative=1","route_id":"r1","route_name":"第1段","global_order":6},{"name":"德康动物医院有限公司","address":"兴隆山镇林茂村村民委员会西北侧150米","phone":"","category":"医疗保健服务;动物医疗场所;宠物诊所","area":"","lng":122.43849,"lat":44.828513,"amap_id":"B0KUD96KBR","order":7,"prev_distance_km":0.638,"cumulative_distance_km":48.14,"amap_marker_url":"https://uri.amap.com/marker?position=122.438490,44.828513&name=%E5%BE%B7%E5%BA%B7%E5%8A%A8%E7%89%A9%E5%8C%BB%E9%99%A2%E6%9C%89%E9%99%90%E5%85%AC%E5%8F%B8&src=vetmap&coordinate=gaode&callnative=1","route_id":"r1","route_name":"第1段","global_order":7},{"name":"吴军伟兽医诊所","address":"宋辉日杂农机东侧90米","phone":"","category":"医疗保健服务;动物医疗场所;兽医站","area":"","lng":122.328242,"lat":44.598531,"amap_id":"B0HG0SYQ99","order":8,"prev_distance_km":27.016,"cumulative_distance_km":75.156,"amap_marker_url":"https://uri.amap.com/marker?position=122.328242,44.598531&name=%E5%90%B4%E5%86%9B%E4%BC%9F%E5%85%BD%E5%8C%BB%E8%AF%8A%E6%89%80&src=vetmap&coordinate=gaode&callnative=1","route_id":"r1","route_name":"第1段","global_order":8},{"name":"兽医诊所","address":"瞻榆东路与116县道交叉口东20米","phone":"","category":"医疗保健服务;动物医疗场所;兽医站","area":"","lng":122.652395,"lat":44.512251,"amap_id":"B0J3H7R642","order":9,"prev_distance_km":27.417,"cumulative_distance_km":102.573,"amap_marker_url":"https://uri.amap.com/marker?position=122.652395,44.512251&name=%E5%85%BD%E5%8C%BB%E8%AF%8A%E6%89%80&src=vetmap&coordinate=gaode&callnative=1","route_id":"r1","route_name":"第1段","global_order":9},{"name":"通榆县动物检疫申报点","address":"中国石油加油站西北侧70米","phone":"","category":"医疗保健服务;动物医疗场所;动物医疗场所","area":"","lng":122.662781,"lat":44.513371,"amap_id":"B01B40MTNC","order":10,"prev_distance_km":0.833,"cumulative_distance_km":103.406,"amap_marker_url":"https://uri.amap.com/marker?position=122.662781,44.513371&name=%E9%80%9A%E6%A6%86%E5%8E%BF%E5%8A%A8%E7%89%A9%E6%A3%80%E7%96%AB%E7%94%B3%E6%8A%A5%E7%82%B9&src=vetmap&coordinate=gaode&callnative=1","route_id":"r1","route_name":"第1段","global_order":10},{"name":"徐方庭兽医诊所","address":"富兴街与092乡道交叉口西北60米","phone":"","category":"医疗保健服务;动物医疗场所;宠物诊所","area":"","lng":122.889863,"lat":44.582223,"amap_id":"B0KGVZZJXR","order":11,"prev_distance_km":19.556,"cumulative_distance_km":122.962,"amap_marker_url":"https://uri.amap.com/marker?position=122.889863,44.582223&name=%E5%BE%90%E6%96%B9%E5%BA%AD%E5%85%BD%E5%8C%BB%E8%AF%8A%E6%89%80&src=vetmap&coordinate=gaode&callnative=1","route_id":"r1","route_name":"第1段","global_order":11},{"name":"畜康兽医诊所","address":"新华镇卫生院北200米","phone":"18243625123","category":"医疗保健服务;动物医疗场所;兽医站","area":"","lng":122.889875,"lat":44.582175,"amap_id":"B0KGVAETQ9","order":12,"prev_distance_km":0.005,"cumulative_distance_km":122.968,"amap_marker_url":"https://uri.amap.com/marker?position=122.889875,44.582175&name=%E7%95%9C%E5%BA%B7%E5%85%BD%E5%8C%BB%E8%AF%8A%E6%89%80&src=vetmap&coordinate=gaode&callnative=1","route_id":"r1","route_name":"第1段","global_order":12},{"name":"祥泰兽医诊所","address":"092乡道与富兴街交叉口东140米","phone":"13180608856","category":"医疗保健服务;动物医疗场所;兽医站","area":"","lng":122.891765,"lat":44.582049,"amap_id":"B0K6PUPMQ4","order":13,"prev_distance_km":0.15,"cumulative_distance_km":123.118,"amap_marker_url":"https://uri.amap.com/marker?position=122.891765,44.582049&name=%E7%A5%A5%E6%B3%B0%E5%85%BD%E5%8C%BB%E8%AF%8A%E6%89%80&src=vetmap&coordinate=gaode&callnative=1","route_id":"r1","route_name":"第1段","global_order":13},{"name":"通榆县苏公坨乡王维学兽医诊所","address":"苏公坨乡苏公坨村苏公坨屯","phone":"","category":"医疗保健服务;动物医疗场所;兽医站","area":"","lng":123.327311,"lat":44.680949,"amap_id":"B0L3PUGAD1","order":14,"prev_distance_km":36.177,"cumulative_distance_km":159.295,"amap_marker_url":"https://uri.amap.com/marker?position=123.327311,44.680949&name=%E9%80%9A%E6%A6%86%E5%8E%BF%E8%8B%8F%E5%85%AC%E5%9D%A8%E4%B9%A1%E7%8E%8B%E7%BB%B4%E5%AD%A6%E5%85%BD%E5%8C%BB%E8%AF%8A%E6%89%80&src=vetmap&coordinate=gaode&callnative=1","route_id":"r1","route_name":"第1段","global_order":14},{"name":"宏达兽医诊所","address":"开通大路1112号","phone":"13843640102;13943453645","category":"医疗保健服务;动物医疗场所;兽医站","area":"","lng":123.089479,"lat":44.805901,"amap_id":"B01B4009LS","order":15,"prev_distance_km":23.364,"cumulative_distance_km":182.659,"amap_marker_url":"https://uri.amap.com/marker?position=123.089479,44.805901&name=%E5%AE%8F%E8%BE%BE%E5%85%BD%E5%8C%BB%E8%AF%8A%E6%89%80&src=vetmap&coordinate=gaode&callnative=1","route_id":"r1","route_name":"第1段","global_order":15},{"name":"恒德宠物医院","address":"妇幼保健院西80米","phone":"15114442444","category":"医疗保健服务;动物医疗场所;宠物诊所","area":"","lng":123.088026,"lat":44.806232,"amap_id":"B01B400D31","order":16,"prev_distance_km":0.12,"cumulative_distance_km":182.779,"amap_marker_url":"https://uri.amap.com/marker?position=123.088026,44.806232&name=%E6%81%92%E5%BE%B7%E5%AE%A0%E7%89%A9%E5%8C%BB%E9%99%A2&src=vetmap&coordinate=gaode&callnative=1","route_id":"r1","route_name":"第1段","global_order":16},{"name":"中牧兽医","address":"开通镇双杰超市道北鲜果行楼下","phone":"13089365365;15543944188","category":"医疗保健服务;动物医疗场所;宠物诊所","area":"繁荣北街","lng":123.087514,"lat":44.806284,"amap_id":"B0G1RS2TDM","order":17,"prev_distance_km":0.041,"cumulative_distance_km":182.82,"amap_marker_url":"https://uri.amap.com/marker?position=123.087514,44.806284&name=%E4%B8%AD%E7%89%A7%E5%85%BD%E5%8C%BB&src=vetmap&coordinate=gaode&callnative=1","route_id":"r1","route_name":"第1段","global_order":17},{"name":"中兴兽药店","address":"开通镇商业城楼下","phone":"0436-4226441;0436-4228455","category":"医疗保健服务;动物医疗场所;兽医站","area":"开通西路","lng":123.083086,"lat":44.806022,"amap_id":"B01B400DCE","order":18,"prev_distance_km":0.351,"cumulative_distance_km":183.17,"amap_marker_url":"https://uri.amap.com/marker?position=123.083086,44.806022&name=%E4%B8%AD%E5%85%B4%E5%85%BD%E8%8D%AF%E5%BA%97&src=vetmap&coordinate=gaode&callnative=1","route_id":"r1","route_name":"第1段","global_order":18},{"name":"马大夫宠物医院","address":"民主路1028号","phone":"15043686108","category":"医疗保健服务;动物医疗场所;宠物诊所","area":"繁荣北街","lng":123.088272,"lat":44.812512,"amap_id":"B0FFHC8YZ0","order":19,"prev_distance_km":0.83,"cumulative_distance_km":184.0,"amap_marker_url":"https://uri.amap.com/marker?position=123.088272,44.812512&name=%E9%A9%AC%E5%A4%A7%E5%A4%AB%E5%AE%A0%E7%89%A9%E5%8C%BB%E9%99%A2&src=vetmap&coordinate=gaode&callnative=1","route_id":"r1","route_name":"第1段","global_order":19},{"name":"道格恺特宠物医院","address":"兴华街育才路(中房辽源开发楼)东至西第7门","phone":"13614466932","category":"医疗保健服务;动物医疗场所;宠物诊所","area":"繁荣北街","lng":123.082219,"lat":44.81674,"amap_id":"B0K6PAX0OJ","order":20,"prev_distance_km":0.67,"cumulative_distance_km":184.67,"amap_marker_url":"https://uri.amap.com/marker?position=123.082219,44.816740&name=%E9%81%93%E6%A0%BC%E6%81%BA%E7%89%B9%E5%AE%A0%E7%89%A9%E5%8C%BB%E9%99%A2&src=vetmap&coordinate=gaode&callnative=1","route_id":"r1","route_name":"第1段","global_order":20},{"name":"通榆县动物疫病预防控制中心","address":"开通镇西育才路1249号","phone":"0436-4233343","category":"医疗保健服务;动物医疗场所;动物医疗场所","area":"","lng":123.060601,"lat":44.81483,"amap_id":"B0FFI6BIS2","order":21,"prev_distance_km":1.718,"cumulative_distance_km":186.388,"amap_marker_url":"https://uri.amap.com/marker?position=123.060601,44.814830&name=%E9%80%9A%E6%A6%86%E5%8E%BF%E5%8A%A8%E7%89%A9%E7%96%AB%E7%97%85%E9%A2%84%E9%98%B2%E6%8E%A7%E5%88%B6%E4%B8%AD%E5%BF%83&src=vetmap&coordinate=gaode&callnative=1","route_id":"r1","route_name":"第1段","global_order":21},{"name":"王忠福兽医诊所","address":"519省道与097乡道交叉口西100米","phone":"","category":"医疗保健服务;动物医疗场所;兽医站","area":"","lng":122.823074,"lat":44.906777,"amap_id":"B0FFHXO21I","order":22,"prev_distance_km":21.331,"cumulative_distance_km":207.72,"amap_marker_url":"https://uri.amap.com/marker?position=122.823074,44.906777&name=%E7%8E%8B%E5%BF%A0%E7%A6%8F%E5%85%BD%E5%8C%BB%E8%AF%8A%E6%89%80&src=vetmap&coordinate=gaode&callnative=1","route_id":"r1","route_name":"第1段","global_order":22},{"name":"雪峰兽药诊所","address":"四井子","phone":"","category":"医疗保健服务;动物医疗场所;兽医站","area":"","lng":122.820087,"lat":44.906577,"amap_id":"B0KDZRQKCV","order":23,"prev_distance_km":0.236,"cumulative_distance_km":207.956,"amap_marker_url":"https://uri.amap.com/marker?position=122.820087,44.906577&name=%E9%9B%AA%E5%B3%B0%E5%85%BD%E8%8D%AF%E8%AF%8A%E6%89%80&src=vetmap&coordinate=gaode&callnative=1","route_id":"r1","route_name":"第1段","global_order":23}]}