{"summary":{"id":"d00108","province":"内蒙古自治区","city":"锡林郭勒盟","district":"正蓝旗","count":7,"route_count":1,"max_route_clinics":7,"total_distance_km":103.487,"coordinate_system":"GCJ-02 / Amap","generated_at":"2026-05-07 21:26:21"},"routes":[{"id":"r1","name":"第1段","count":7,"total_distance_km":103.487,"rows":[{"name":"上都镇兽医站兽药门诊","address":"腾飞路与乃日音希热街交叉口西北200米","phone":"","category":"医疗保健服务;动物医疗场所;兽医站","area":"","lng":115.987407,"lat":42.24244,"amap_id":"B0FFF4D4UV","order":1,"prev_distance_km":0.0,"cumulative_distance_km":0.0,"amap_marker_url":"https://uri.amap.com/marker?position=115.987407,42.242440&name=%E4%B8%8A%E9%83%BD%E9%95%87%E5%85%BD%E5%8C%BB%E7%AB%99%E5%85%BD%E8%8D%AF%E9%97%A8%E8%AF%8A&src=vetmap&coordinate=gaode&callnative=1","route_id":"r1","route_name":"第1段"},{"name":"兽药店","address":"乃日音希热街与沃日特北路交叉口西280米","phone":"","category":"医疗保健服务;动物医疗场所;动物医疗场所","area":"","lng":115.993874,"lat":42.243333,"amap_id":"B0LDXXI3XW","order":2,"prev_distance_km":0.542,"cumulative_distance_km":0.542,"amap_marker_url":"https://uri.amap.com/marker?position=115.993874,42.243333&name=%E5%85%BD%E8%8D%AF%E5%BA%97&src=vetmap&coordinate=gaode&callnative=1","route_id":"r1","route_name":"第1段"},{"name":"海日动物诊所","address":"广场南街与沃日特南路交叉口西南200米","phone":"13384790810","category":"医疗保健服务;动物医疗场所;宠物诊所","area":"","lng":115.997997,"lat":42.240272,"amap_id":"B0FFICVICN","order":3,"prev_distance_km":0.481,"cumulative_distance_km":1.022,"amap_marker_url":"https://uri.amap.com/marker?position=115.997997,42.240272&name=%E6%B5%B7%E6%97%A5%E5%8A%A8%E7%89%A9%E8%AF%8A%E6%89%80&src=vetmap&coordinate=gaode&callnative=1","route_id":"r1","route_name":"第1段"},{"name":"怡佳宠物诊疗所","address":"正蓝旗蒙幼胡同","phone":"","category":"医疗保健服务;动物医疗场所;宠物诊所","area":"","lng":116.001799,"lat":42.249944,"amap_id":"B0HRV9ASDQ","order":4,"prev_distance_km":1.12,"cumulative_distance_km":2.142,"amap_marker_url":"https://uri.amap.com/marker?position=116.001799,42.249944&name=%E6%80%A1%E4%BD%B3%E5%AE%A0%E7%89%A9%E8%AF%8A%E7%96%97%E6%89%80&src=vetmap&coordinate=gaode&callnative=1","route_id":"r1","route_name":"第1段"},{"name":"康达兽药店","address":"正蓝旗永宏建材装饰(侍郎城路北)","phone":"","category":"医疗保健服务;动物医疗场所;动物医疗场所","area":"","lng":116.005428,"lat":42.254055,"amap_id":"B0FFFWTD9M","order":5,"prev_distance_km":0.546,"cumulative_distance_km":2.688,"amap_marker_url":"https://uri.amap.com/marker?position=116.005428,42.254055&name=%E5%BA%B7%E8%BE%BE%E5%85%BD%E8%8D%AF%E5%BA%97&src=vetmap&coordinate=gaode&callnative=1","route_id":"r1","route_name":"第1段"},{"name":"阿如冉兽药店","address":"致腾农用车修理配件西南侧","phone":"","category":"医疗保健服务;动物医疗场所;动物医疗场所","area":"","lng":115.959996,"lat":42.6837,"amap_id":"B0KBJHAXUL","order":6,"prev_distance_km":47.92,"cumulative_distance_km":50.608,"amap_marker_url":"https://uri.amap.com/marker?position=115.959996,42.683700&name=%E9%98%BF%E5%A6%82%E5%86%89%E5%85%BD%E8%8D%AF%E5%BA%97&src=vetmap&coordinate=gaode&callnative=1","route_id":"r1","route_name":"第1段"},{"name":"阿都钦兽药店","address":"中国油联(扎格斯台加油站)北侧150米","phone":"","category":"医疗保健服务;动物医疗场所;动物医疗场所","area":"","lng":115.427675,"lat":42.955175,"amap_id":"B0LGP1RHJ2","order":7,"prev_distance_km":52.88,"cumulative_distance_km":103.487,"amap_marker_url":"https://uri.amap.com/marker?position=115.427675,42.955175&name=%E9%98%BF%E9%83%BD%E9%92%A6%E5%85%BD%E8%8D%AF%E5%BA%97&src=vetmap&coordinate=gaode&callnative=1","route_id":"r1","route_name":"第1段"}]}],"rows":[{"name":"上都镇兽医站兽药门诊","address":"腾飞路与乃日音希热街交叉口西北200米","phone":"","category":"医疗保健服务;动物医疗场所;兽医站","area":"","lng":115.987407,"lat":42.24244,"amap_id":"B0FFF4D4UV","order":1,"prev_distance_km":0.0,"cumulative_distance_km":0.0,"amap_marker_url":"https://uri.amap.com/marker?position=115.987407,42.242440&name=%E4%B8%8A%E9%83%BD%E9%95%87%E5%85%BD%E5%8C%BB%E7%AB%99%E5%85%BD%E8%8D%AF%E9%97%A8%E8%AF%8A&src=vetmap&coordinate=gaode&callnative=1","route_id":"r1","route_name":"第1段","global_order":1},{"name":"兽药店","address":"乃日音希热街与沃日特北路交叉口西280米","phone":"","category":"医疗保健服务;动物医疗场所;动物医疗场所","area":"","lng":115.993874,"lat":42.243333,"amap_id":"B0LDXXI3XW","order":2,"prev_distance_km":0.542,"cumulative_distance_km":0.542,"amap_marker_url":"https://uri.amap.com/marker?position=115.993874,42.243333&name=%E5%85%BD%E8%8D%AF%E5%BA%97&src=vetmap&coordinate=gaode&callnative=1","route_id":"r1","route_name":"第1段","global_order":2},{"name":"海日动物诊所","address":"广场南街与沃日特南路交叉口西南200米","phone":"13384790810","category":"医疗保健服务;动物医疗场所;宠物诊所","area":"","lng":115.997997,"lat":42.240272,"amap_id":"B0FFICVICN","order":3,"prev_distance_km":0.481,"cumulative_distance_km":1.022,"amap_marker_url":"https://uri.amap.com/marker?position=115.997997,42.240272&name=%E6%B5%B7%E6%97%A5%E5%8A%A8%E7%89%A9%E8%AF%8A%E6%89%80&src=vetmap&coordinate=gaode&callnative=1","route_id":"r1","route_name":"第1段","global_order":3},{"name":"怡佳宠物诊疗所","address":"正蓝旗蒙幼胡同","phone":"","category":"医疗保健服务;动物医疗场所;宠物诊所","area":"","lng":116.001799,"lat":42.249944,"amap_id":"B0HRV9ASDQ","order":4,"prev_distance_km":1.12,"cumulative_distance_km":2.142,"amap_marker_url":"https://uri.amap.com/marker?position=116.001799,42.249944&name=%E6%80%A1%E4%BD%B3%E5%AE%A0%E7%89%A9%E8%AF%8A%E7%96%97%E6%89%80&src=vetmap&coordinate=gaode&callnative=1","route_id":"r1","route_name":"第1段","global_order":4},{"name":"康达兽药店","address":"正蓝旗永宏建材装饰(侍郎城路北)","phone":"","category":"医疗保健服务;动物医疗场所;动物医疗场所","area":"","lng":116.005428,"lat":42.254055,"amap_id":"B0FFFWTD9M","order":5,"prev_distance_km":0.546,"cumulative_distance_km":2.688,"amap_marker_url":"https://uri.amap.com/marker?position=116.005428,42.254055&name=%E5%BA%B7%E8%BE%BE%E5%85%BD%E8%8D%AF%E5%BA%97&src=vetmap&coordinate=gaode&callnative=1","route_id":"r1","route_name":"第1段","global_order":5},{"name":"阿如冉兽药店","address":"致腾农用车修理配件西南侧","phone":"","category":"医疗保健服务;动物医疗场所;动物医疗场所","area":"","lng":115.959996,"lat":42.6837,"amap_id":"B0KBJHAXUL","order":6,"prev_distance_km":47.92,"cumulative_distance_km":50.608,"amap_marker_url":"https://uri.amap.com/marker?position=115.959996,42.683700&name=%E9%98%BF%E5%A6%82%E5%86%89%E5%85%BD%E8%8D%AF%E5%BA%97&src=vetmap&coordinate=gaode&callnative=1","route_id":"r1","route_name":"第1段","global_order":6},{"name":"阿都钦兽药店","address":"中国油联(扎格斯台加油站)北侧150米","phone":"","category":"医疗保健服务;动物医疗场所;动物医疗场所","area":"","lng":115.427675,"lat":42.955175,"amap_id":"B0LGP1RHJ2","order":7,"prev_distance_km":52.88,"cumulative_distance_km":103.487,"amap_marker_url":"https://uri.amap.com/marker?position=115.427675,42.955175&name=%E9%98%BF%E9%83%BD%E9%92%A6%E5%85%BD%E8%8D%AF%E5%BA%97&src=vetmap&coordinate=gaode&callnative=1","route_id":"r1","route_name":"第1段","global_order":7}]}