{"summary":{"id":"d00158","province":"吉林省","city":"松原市","district":"宁江区","count":29,"total_distance_km":20.879,"coordinate_system":"GCJ-02 / Amap","generated_at":"2026-05-07 19:55:54"},"rows":[{"name":"宏明动物诊所","address":"江北测井小学斜对面(工农路906号)","phone":"15844855208","category":"医疗保健服务;动物医疗场所;宠物诊所","area":"","lng":124.820207,"lat":45.196412,"amap_id":"B0FFI6QCU6","order":1,"prev_distance_km":0.0,"cumulative_distance_km":0.0,"amap_marker_url":"https://uri.amap.com/marker?position=124.820207,45.196412&name=%E5%AE%8F%E6%98%8E%E5%8A%A8%E7%89%A9%E8%AF%8A%E6%89%80&src=vetmap&coordinate=gaode&callnative=1"},{"name":"牧专宠物医院江北分院","address":"和平路55号草根超市建业小区店旁","phone":"0438-3033525;15590486996","category":"医疗保健服务;动物医疗场所;宠物诊所","area":"","lng":124.813519,"lat":45.181133,"amap_id":"B0JDUR25NQ","order":2,"prev_distance_km":1.778,"cumulative_distance_km":1.778,"amap_marker_url":"https://uri.amap.com/marker?position=124.813519,45.181133&name=%E7%89%A7%E4%B8%93%E5%AE%A0%E7%89%A9%E5%8C%BB%E9%99%A2%E6%B1%9F%E5%8C%97%E5%88%86%E9%99%A2&src=vetmap&coordinate=gaode&callnative=1"},{"name":"博爱宠物诊所","address":"团结街新城西路341号","phone":"13069051666;15844814440","category":"医疗保健服务;动物医疗场所;宠物诊所","area":"江北","lng":124.816741,"lat":45.176883,"amap_id":"B0GUGUZQGW","order":3,"prev_distance_km":0.536,"cumulative_distance_km":2.314,"amap_marker_url":"https://uri.amap.com/marker?position=124.816741,45.176883&name=%E5%8D%9A%E7%88%B1%E5%AE%A0%E7%89%A9%E8%AF%8A%E6%89%80&src=vetmap&coordinate=gaode&callnative=1"},{"name":"我的宝贝宠物医院江北分院","address":"和平路729号","phone":"0438-3130044","category":"医疗保健服务;动物医疗场所;宠物诊所","area":"","lng":124.822686,"lat":45.181559,"amap_id":"B0GD3U16IZ","order":4,"prev_distance_km":0.698,"cumulative_distance_km":3.012,"amap_marker_url":"https://uri.amap.com/marker?position=124.822686,45.181559&name=%E6%88%91%E7%9A%84%E5%AE%9D%E8%B4%9D%E5%AE%A0%E7%89%A9%E5%8C%BB%E9%99%A2%E6%B1%9F%E5%8C%97%E5%88%86%E9%99%A2&src=vetmap&coordinate=gaode&callnative=1"},{"name":"爱心宠物医院小动物诊疗中心","address":"维也纳花园北门西70米","phone":"15944264443","category":"医疗保健服务;动物医疗场所;宠物诊所","area":"新城东路","lng":124.833476,"lat":45.181403,"amap_id":"B0JDAS9V7W","order":5,"prev_distance_km":0.846,"cumulative_distance_km":3.858,"amap_marker_url":"https://uri.amap.com/marker?position=124.833476,45.181403&name=%E7%88%B1%E5%BF%83%E5%AE%A0%E7%89%A9%E5%8C%BB%E9%99%A2%E5%B0%8F%E5%8A%A8%E7%89%A9%E8%AF%8A%E7%96%97%E4%B8%AD%E5%BF%83&src=vetmap&coordinate=gaode&callnative=1"},{"name":"宁江区动物疫病预防控制中心","address":"新风街与新城东路交叉口西北40米","phone":"","category":"医疗保健服务;动物医疗场所;动物医疗场所","area":"新城东路","lng":124.83605,"lat":45.178828,"amap_id":"B0GR670A5S","order":6,"prev_distance_km":0.35,"cumulative_distance_km":4.208,"amap_marker_url":"https://uri.amap.com/marker?position=124.836050,45.178828&name=%E5%AE%81%E6%B1%9F%E5%8C%BA%E5%8A%A8%E7%89%A9%E7%96%AB%E7%97%85%E9%A2%84%E9%98%B2%E6%8E%A7%E5%88%B6%E4%B8%AD%E5%BF%83&src=vetmap&coordinate=gaode&callnative=1"},{"name":"佳丽动物诊所","address":"新城东路与伯都讷大街交叉口西南60米","phone":"","category":"医疗保健服务;动物医疗场所;宠物诊所","area":"新城东路","lng":124.837711,"lat":45.178469,"amap_id":"B0K11CGV1V","order":7,"prev_distance_km":0.136,"cumulative_distance_km":4.344,"amap_marker_url":"https://uri.amap.com/marker?position=124.837711,45.178469&name=%E4%BD%B3%E4%B8%BD%E5%8A%A8%E7%89%A9%E8%AF%8A%E6%89%80&src=vetmap&coordinate=gaode&callnative=1"},{"name":"老王头动物诊所","address":"新城东路1066号","phone":"13843866669","category":"医疗保健服务;动物医疗场所;宠物诊所","area":"文化路","lng":124.83397,"lat":45.177567,"amap_id":"B01B60MVQF","order":8,"prev_distance_km":0.31,"cumulative_distance_km":4.654,"amap_marker_url":"https://uri.amap.com/marker?position=124.833970,45.177567&name=%E8%80%81%E7%8E%8B%E5%A4%B4%E5%8A%A8%E7%89%A9%E8%AF%8A%E6%89%80&src=vetmap&coordinate=gaode&callnative=1"},{"name":"刘良动物诊所","address":"新城东路1006号","phone":"13843824846","category":"医疗保健服务;动物医疗场所;宠物诊所","area":"新城东路","lng":124.83342,"lat":45.177495,"amap_id":"B01B60MSSV","order":9,"prev_distance_km":0.044,"cumulative_distance_km":4.698,"amap_marker_url":"https://uri.amap.com/marker?position=124.833420,45.177495&name=%E5%88%98%E8%89%AF%E5%8A%A8%E7%89%A9%E8%AF%8A%E6%89%80&src=vetmap&coordinate=gaode&callnative=1"},{"name":"瑞宠动物医院","address":"东镇国际城B10号楼","phone":"18104385359","category":"医疗保健服务;动物医疗场所;宠物诊所","area":"文化路","lng":124.838268,"lat":45.172103,"amap_id":"B0K0LCTW8K","order":10,"prev_distance_km":0.71,"cumulative_distance_km":5.408,"amap_marker_url":"https://uri.amap.com/marker?position=124.838268,45.172103&name=%E7%91%9E%E5%AE%A0%E5%8A%A8%E7%89%A9%E5%8C%BB%E9%99%A2&src=vetmap&coordinate=gaode&callnative=1"},{"name":"玉明动物诊所(东镇城市广场店)","address":"吉祥路与昌盛街交叉口北40米","phone":"","category":"医疗保健服务;动物医疗场所;宠物诊所","area":"","lng":124.84217,"lat":45.17086,"amap_id":"B0JD6D18EQ","order":11,"prev_distance_km":0.336,"cumulative_distance_km":5.744,"amap_marker_url":"https://uri.amap.com/marker?position=124.842170,45.170860&name=%E7%8E%89%E6%98%8E%E5%8A%A8%E7%89%A9%E8%AF%8A%E6%89%80%28%E4%B8%9C%E9%95%87%E5%9F%8E%E5%B8%82%E5%B9%BF%E5%9C%BA%E5%BA%97%29&src=vetmap&coordinate=gaode&callnative=1"},{"name":"松原市重逢宠物善终服务中心","address":"临江花园小区162-6号","phone":"15043841119;18743897174","category":"医疗保健服务;动物医疗场所;宠物诊所","area":"文化路","lng":124.832279,"lat":45.169242,"amap_id":"B0K3FSI6CP","order":12,"prev_distance_km":0.796,"cumulative_distance_km":6.54,"amap_marker_url":"https://uri.amap.com/marker?position=124.832279,45.169242&name=%E6%9D%BE%E5%8E%9F%E5%B8%82%E9%87%8D%E9%80%A2%E5%AE%A0%E7%89%A9%E5%96%84%E7%BB%88%E6%9C%8D%E5%8A%A1%E4%B8%AD%E5%BF%83&src=vetmap&coordinate=gaode&callnative=1"},{"name":"瑞康宠物医院(文化路店)","address":"文化路1001号","phone":"0438-2123777","category":"医疗保健服务;动物医疗场所;宠物诊所","area":"文化路","lng":124.829549,"lat":45.172047,"amap_id":"B0LR71JEK0","order":13,"prev_distance_km":0.378,"cumulative_distance_km":6.918,"amap_marker_url":"https://uri.amap.com/marker?position=124.829549,45.172047&name=%E7%91%9E%E5%BA%B7%E5%AE%A0%E7%89%A9%E5%8C%BB%E9%99%A2%28%E6%96%87%E5%8C%96%E8%B7%AF%E5%BA%97%29&src=vetmap&coordinate=gaode&callnative=1"},{"name":"德宠宠物医院·骨科·牙科","address":"恒大影城步行街130号","phone":"15774353535","category":"医疗保健服务;动物医疗场所;宠物诊所","area":"","lng":124.807276,"lat":45.150964,"amap_id":"B0JUUHM74W","order":14,"prev_distance_km":2.923,"cumulative_distance_km":9.841,"amap_marker_url":"https://uri.amap.com/marker?position=124.807276,45.150964&name=%E5%BE%B7%E5%AE%A0%E5%AE%A0%E7%89%A9%E5%8C%BB%E9%99%A2%C2%B7%E9%AA%A8%E7%A7%91%C2%B7%E7%89%99%E7%A7%91&src=vetmap&coordinate=gaode&callnative=1"},{"name":"晨希宠物医院","address":"创业大街2507号","phone":"15584560120","category":"医疗保健服务;动物医疗场所;宠物诊所","area":"","lng":124.800495,"lat":45.149779,"amap_id":"B0KAZHCM7A","order":15,"prev_distance_km":0.548,"cumulative_distance_km":10.389,"amap_marker_url":"https://uri.amap.com/marker?position=124.800495,45.149779&name=%E6%99%A8%E5%B8%8C%E5%AE%A0%E7%89%A9%E5%8C%BB%E9%99%A2&src=vetmap&coordinate=gaode&callnative=1"},{"name":"爱你宝贝动物诊所","address":"青年大街4108号","phone":"15843859399","category":"医疗保健服务;动物医疗场所;宠物诊所","area":"","lng":124.807172,"lat":45.143621,"amap_id":"B0FFHD32RW","order":16,"prev_distance_km":0.862,"cumulative_distance_km":11.251,"amap_marker_url":"https://uri.amap.com/marker?position=124.807172,45.143621&name=%E7%88%B1%E4%BD%A0%E5%AE%9D%E8%B4%9D%E5%8A%A8%E7%89%A9%E8%AF%8A%E6%89%80&src=vetmap&coordinate=gaode&callnative=1"},{"name":"老田动物医院","address":"松江大街1791号","phone":"13596924930","category":"医疗保健服务;动物医疗场所;宠物诊所","area":"松江大街","lng":124.821764,"lat":45.136029,"amap_id":"B0FFG6PT8H","order":17,"prev_distance_km":1.422,"cumulative_distance_km":12.673,"amap_marker_url":"https://uri.amap.com/marker?position=124.821764,45.136029&name=%E8%80%81%E7%94%B0%E5%8A%A8%E7%89%A9%E5%8C%BB%E9%99%A2&src=vetmap&coordinate=gaode&callnative=1"},{"name":"牧专动物医院(江南店)","address":"松原大路1666号","phone":"0438-6252886","category":"医疗保健服务;动物医疗场所;宠物诊所","area":"镜湖","lng":124.808707,"lat":45.133823,"amap_id":"B0FFFVC4N5","order":18,"prev_distance_km":1.053,"cumulative_distance_km":13.726,"amap_marker_url":"https://uri.amap.com/marker?position=124.808707,45.133823&name=%E7%89%A7%E4%B8%93%E5%8A%A8%E7%89%A9%E5%8C%BB%E9%99%A2%28%E6%B1%9F%E5%8D%97%E5%BA%97%29&src=vetmap&coordinate=gaode&callnative=1"},{"name":"我的宝贝宠物医院(建华路)","address":"建华路17号","phone":"0438-6100044","category":"医疗保健服务;动物医疗场所;宠物诊所","area":"","lng":124.810841,"lat":45.113633,"amap_id":"B01B60MO5V","order":19,"prev_distance_km":2.251,"cumulative_distance_km":15.978,"amap_marker_url":"https://uri.amap.com/marker?position=124.810841,45.113633&name=%E6%88%91%E7%9A%84%E5%AE%9D%E8%B4%9D%E5%AE%A0%E7%89%A9%E5%8C%BB%E9%99%A2%28%E5%BB%BA%E5%8D%8E%E8%B7%AF%29&src=vetmap&coordinate=gaode&callnative=1"},{"name":"牧宠堂动物医院","address":"建华路111号","phone":"15943888179","category":"医疗保健服务;动物医疗场所;宠物诊所","area":"","lng":124.811431,"lat":45.112676,"amap_id":"B0FFKH857V","order":20,"prev_distance_km":0.116,"cumulative_distance_km":16.094,"amap_marker_url":"https://uri.amap.com/marker?position=124.811431,45.112676&name=%E7%89%A7%E5%AE%A0%E5%A0%82%E5%8A%A8%E7%89%A9%E5%8C%BB%E9%99%A2&src=vetmap&coordinate=gaode&callnative=1"},{"name":"康顺动物医院(建华路)·医保定点","address":"建华路建华小区3号楼1门","phone":"13943883122","category":"医疗保健服务;动物医疗场所;宠物诊所","area":"","lng":124.811894,"lat":45.113212,"amap_id":"B01B60MO7D","order":21,"prev_distance_km":0.07,"cumulative_distance_km":16.163,"amap_marker_url":"https://uri.amap.com/marker?position=124.811894,45.113212&name=%E5%BA%B7%E9%A1%BA%E5%8A%A8%E7%89%A9%E5%8C%BB%E9%99%A2%28%E5%BB%BA%E5%8D%8E%E8%B7%AF%29%C2%B7%E5%8C%BB%E4%BF%9D%E5%AE%9A%E7%82%B9&src=vetmap&coordinate=gaode&callnative=1"},{"name":"德宠动物诊所·中兽医","address":"万丰华府15号楼115号","phone":"15526990001","category":"医疗保健服务;动物医疗场所;宠物诊所","area":"","lng":124.815187,"lat":45.118907,"amap_id":"B0LDTZ68I3","order":22,"prev_distance_km":0.684,"cumulative_distance_km":16.847,"amap_marker_url":"https://uri.amap.com/marker?position=124.815187,45.118907&name=%E5%BE%B7%E5%AE%A0%E5%8A%A8%E7%89%A9%E8%AF%8A%E6%89%80%C2%B7%E4%B8%AD%E5%85%BD%E5%8C%BB&src=vetmap&coordinate=gaode&callnative=1"},{"name":"时光宠物服务馆","address":"源江西路与昆江街交叉口西北40米","phone":"","category":"医疗保健服务;动物医疗场所;动物医疗场所|购物服务;专卖店;专营店","area":"","lng":124.820075,"lat":45.121325,"amap_id":"B0M6XMOFDL","order":23,"prev_distance_km":0.468,"cumulative_distance_km":17.316,"amap_marker_url":"https://uri.amap.com/marker?position=124.820075,45.121325&name=%E6%97%B6%E5%85%89%E5%AE%A0%E7%89%A9%E6%9C%8D%E5%8A%A1%E9%A6%86&src=vetmap&coordinate=gaode&callnative=1"},{"name":"松原市动物疫病预防控制中心","address":"迎春路77号","phone":"","category":"医疗保健服务;动物医疗场所;动物医疗场所","area":"","lng":124.822658,"lat":45.124684,"amap_id":"B0FFGXHPTH","order":24,"prev_distance_km":0.425,"cumulative_distance_km":17.741,"amap_marker_url":"https://uri.amap.com/marker?position=124.822658,45.124684&name=%E6%9D%BE%E5%8E%9F%E5%B8%82%E5%8A%A8%E7%89%A9%E7%96%AB%E7%97%85%E9%A2%84%E9%98%B2%E6%8E%A7%E5%88%B6%E4%B8%AD%E5%BF%83&src=vetmap&coordinate=gaode&callnative=1"},{"name":"我的宝贝宠物医院(博翔路)","address":"乌兰大街1999号","phone":"0438-2120044","category":"医疗保健服务;动物医疗场所;宠物诊所","area":"松原大路","lng":124.831735,"lat":45.126964,"amap_id":"B0KDPD3IKB","order":25,"prev_distance_km":0.756,"cumulative_distance_km":18.497,"amap_marker_url":"https://uri.amap.com/marker?position=124.831735,45.126964&name=%E6%88%91%E7%9A%84%E5%AE%9D%E8%B4%9D%E5%AE%A0%E7%89%A9%E5%8C%BB%E9%99%A2%28%E5%8D%9A%E7%BF%94%E8%B7%AF%29&src=vetmap&coordinate=gaode&callnative=1"},{"name":"我的宝贝宠物医院24小时急诊医院(博翔路)","address":"乌兰大街1993号","phone":"0438-2120044","category":"医疗保健服务;动物医疗场所;宠物诊所","area":"松原大路","lng":124.831732,"lat":45.126976,"amap_id":"B0FFHM6AD1","order":26,"prev_distance_km":0.001,"cumulative_distance_km":18.498,"amap_marker_url":"https://uri.amap.com/marker?position=124.831732,45.126976&name=%E6%88%91%E7%9A%84%E5%AE%9D%E8%B4%9D%E5%AE%A0%E7%89%A9%E5%8C%BB%E9%99%A224%E5%B0%8F%E6%97%B6%E6%80%A5%E8%AF%8A%E5%8C%BB%E9%99%A2%28%E5%8D%9A%E7%BF%94%E8%B7%AF%29&src=vetmap&coordinate=gaode&callnative=1"},{"name":"万宝宠物医院","address":"亚泰澜熙郡南门西80米","phone":"18444179911","category":"医疗保健服务;动物医疗场所;宠物诊所","area":"","lng":124.840452,"lat":45.128441,"amap_id":"B0FFJP2U7Z","order":27,"prev_distance_km":0.703,"cumulative_distance_km":19.201,"amap_marker_url":"https://uri.amap.com/marker?position=124.840452,45.128441&name=%E4%B8%87%E5%AE%9D%E5%AE%A0%E7%89%A9%E5%8C%BB%E9%99%A2&src=vetmap&coordinate=gaode&callnative=1"},{"name":"兴源宠物医院","address":"奥林匹克花园西门东北80米","phone":"0438-2110996;15844852233","category":"医疗保健服务;动物医疗场所;宠物诊所","area":"松原大路","lng":124.842051,"lat":45.123772,"amap_id":"B0FFKG9Y1U","order":28,"prev_distance_km":0.534,"cumulative_distance_km":19.735,"amap_marker_url":"https://uri.amap.com/marker?position=124.842051,45.123772&name=%E5%85%B4%E6%BA%90%E5%AE%A0%E7%89%A9%E5%8C%BB%E9%99%A2&src=vetmap&coordinate=gaode&callnative=1"},{"name":"德宠动物医院·眼科·异宠","address":"飞达城A5","phone":"15774353535","category":"医疗保健服务;动物医疗场所;宠物诊所","area":"","lng":124.855133,"lat":45.128315,"amap_id":"B0HGXSXPRW","order":29,"prev_distance_km":1.144,"cumulative_distance_km":20.879,"amap_marker_url":"https://uri.amap.com/marker?position=124.855133,45.128315&name=%E5%BE%B7%E5%AE%A0%E5%8A%A8%E7%89%A9%E5%8C%BB%E9%99%A2%C2%B7%E7%9C%BC%E7%A7%91%C2%B7%E5%BC%82%E5%AE%A0&src=vetmap&coordinate=gaode&callnative=1"}]}