{"summary":{"id":"d00172","province":"吉林省","city":"辽源市","district":"东辽县","count":8,"route_count":1,"max_route_clinics":8,"total_distance_km":80.506,"coordinate_system":"GCJ-02 / Amap","generated_at":"2026-05-07 21:26:32"},"routes":[{"id":"r1","name":"第1段","count":8,"total_distance_km":80.506,"rows":[{"name":"洺鉴牧康兽药","address":"辽河源镇宴平小街农村信用社北侧50米","phone":"13630773123","category":"医疗保健服务;动物医疗场所;动物医疗场所","area":"","lng":125.481204,"lat":42.953354,"amap_id":"B0L2UCEX4L","order":1,"prev_distance_km":0.0,"cumulative_distance_km":0.0,"amap_marker_url":"https://uri.amap.com/marker?position=125.481204,42.953354&name=%E6%B4%BA%E9%89%B4%E7%89%A7%E5%BA%B7%E5%85%BD%E8%8D%AF&src=vetmap&coordinate=gaode&callnative=1","route_id":"r1","route_name":"第1段"},{"name":"姜兽医兽药商店","address":"辽河源镇045县道","phone":"13766013200","category":"医疗保健服务;动物医疗场所;兽医站","area":"","lng":125.480834,"lat":42.953403,"amap_id":"B0KB3SZOXN","order":2,"prev_distance_km":0.031,"cumulative_distance_km":0.031,"amap_marker_url":"https://uri.amap.com/marker?position=125.480834,42.953403&name=%E5%A7%9C%E5%85%BD%E5%8C%BB%E5%85%BD%E8%8D%AF%E5%95%86%E5%BA%97&src=vetmap&coordinate=gaode&callnative=1","route_id":"r1","route_name":"第1段"},{"name":"项鑫兽药店","address":"辽河源镇","phone":"","category":"医疗保健服务;动物医疗场所;动物医疗场所","area":"","lng":125.386061,"lat":42.865435,"amap_id":"B0K2UH1AUH","order":3,"prev_distance_km":12.46,"cumulative_distance_km":12.491,"amap_marker_url":"https://uri.amap.com/marker?position=125.386061,42.865435&name=%E9%A1%B9%E9%91%AB%E5%85%BD%E8%8D%AF%E5%BA%97&src=vetmap&coordinate=gaode&callnative=1","route_id":"r1","route_name":"第1段"},{"name":"宠物诊疗","address":"045县道与036乡道交叉口东240米","phone":"","category":"医疗保健服务;动物医疗场所;宠物诊所","area":"","lng":125.279839,"lat":42.794484,"amap_id":"B0LKKLOCHZ","order":4,"prev_distance_km":11.716,"cumulative_distance_km":24.207,"amap_marker_url":"https://uri.amap.com/marker?position=125.279839,42.794484&name=%E5%AE%A0%E7%89%A9%E8%AF%8A%E7%96%97&src=vetmap&coordinate=gaode&callnative=1","route_id":"r1","route_name":"第1段"},{"name":"董宏超兽药店","address":"安恕小学北侧140米","phone":"","category":"医疗保健服务;动物医疗场所;动物医疗场所","area":"","lng":125.049118,"lat":42.811884,"amap_id":"B0JBX5YKEK","order":5,"prev_distance_km":18.922,"cumulative_distance_km":43.129,"amap_marker_url":"https://uri.amap.com/marker?position=125.049118,42.811884&name=%E8%91%A3%E5%AE%8F%E8%B6%85%E5%85%BD%E8%8D%AF%E5%BA%97&src=vetmap&coordinate=gaode&callnative=1","route_id":"r1","route_name":"第1段"},{"name":"孟家兽药商店","address":"东交大街与龙兴路交叉口北20米","phone":"","category":"购物服务;购物相关场所;购物相关场所|医疗保健服务;动物医疗场所;动物医疗场所","area":"","lng":125.003381,"lat":42.923624,"amap_id":"B0KRM1SAHN","order":6,"prev_distance_km":12.972,"cumulative_distance_km":56.101,"amap_marker_url":"https://uri.amap.com/marker?position=125.003381,42.923624&name=%E5%AD%9F%E5%AE%B6%E5%85%BD%E8%8D%AF%E5%95%86%E5%BA%97&src=vetmap&coordinate=gaode&callnative=1","route_id":"r1","route_name":"第1段"},{"name":"维特宠物医院","address":"站前广场农业银行对面中桥委安慈综合楼(丘号4523)","phone":"13196264521;15304373369;15844770083","category":"医疗保健服务;动物医疗场所;宠物诊所","area":"","lng":125.000611,"lat":42.925024,"amap_id":"B0M6F126HB","order":7,"prev_distance_km":0.274,"cumulative_distance_km":56.375,"amap_marker_url":"https://uri.amap.com/marker?position=125.000611,42.925024&name=%E7%BB%B4%E7%89%B9%E5%AE%A0%E7%89%A9%E5%8C%BB%E9%99%A2&src=vetmap&coordinate=gaode&callnative=1","route_id":"r1","route_name":"第1段"},{"name":"益发兽药店","address":"065县道与041乡道交叉口西南460米","phone":"","category":"医疗保健服务;动物医疗场所;动物医疗场所","area":"","lng":124.982325,"lat":43.141625,"amap_id":"B0LKAD8UGO","order":8,"prev_distance_km":24.131,"cumulative_distance_km":80.506,"amap_marker_url":"https://uri.amap.com/marker?position=124.982325,43.141625&name=%E7%9B%8A%E5%8F%91%E5%85%BD%E8%8D%AF%E5%BA%97&src=vetmap&coordinate=gaode&callnative=1","route_id":"r1","route_name":"第1段"}]}],"rows":[{"name":"洺鉴牧康兽药","address":"辽河源镇宴平小街农村信用社北侧50米","phone":"13630773123","category":"医疗保健服务;动物医疗场所;动物医疗场所","area":"","lng":125.481204,"lat":42.953354,"amap_id":"B0L2UCEX4L","order":1,"prev_distance_km":0.0,"cumulative_distance_km":0.0,"amap_marker_url":"https://uri.amap.com/marker?position=125.481204,42.953354&name=%E6%B4%BA%E9%89%B4%E7%89%A7%E5%BA%B7%E5%85%BD%E8%8D%AF&src=vetmap&coordinate=gaode&callnative=1","route_id":"r1","route_name":"第1段","global_order":1},{"name":"姜兽医兽药商店","address":"辽河源镇045县道","phone":"13766013200","category":"医疗保健服务;动物医疗场所;兽医站","area":"","lng":125.480834,"lat":42.953403,"amap_id":"B0KB3SZOXN","order":2,"prev_distance_km":0.031,"cumulative_distance_km":0.031,"amap_marker_url":"https://uri.amap.com/marker?position=125.480834,42.953403&name=%E5%A7%9C%E5%85%BD%E5%8C%BB%E5%85%BD%E8%8D%AF%E5%95%86%E5%BA%97&src=vetmap&coordinate=gaode&callnative=1","route_id":"r1","route_name":"第1段","global_order":2},{"name":"项鑫兽药店","address":"辽河源镇","phone":"","category":"医疗保健服务;动物医疗场所;动物医疗场所","area":"","lng":125.386061,"lat":42.865435,"amap_id":"B0K2UH1AUH","order":3,"prev_distance_km":12.46,"cumulative_distance_km":12.491,"amap_marker_url":"https://uri.amap.com/marker?position=125.386061,42.865435&name=%E9%A1%B9%E9%91%AB%E5%85%BD%E8%8D%AF%E5%BA%97&src=vetmap&coordinate=gaode&callnative=1","route_id":"r1","route_name":"第1段","global_order":3},{"name":"宠物诊疗","address":"045县道与036乡道交叉口东240米","phone":"","category":"医疗保健服务;动物医疗场所;宠物诊所","area":"","lng":125.279839,"lat":42.794484,"amap_id":"B0LKKLOCHZ","order":4,"prev_distance_km":11.716,"cumulative_distance_km":24.207,"amap_marker_url":"https://uri.amap.com/marker?position=125.279839,42.794484&name=%E5%AE%A0%E7%89%A9%E8%AF%8A%E7%96%97&src=vetmap&coordinate=gaode&callnative=1","route_id":"r1","route_name":"第1段","global_order":4},{"name":"董宏超兽药店","address":"安恕小学北侧140米","phone":"","category":"医疗保健服务;动物医疗场所;动物医疗场所","area":"","lng":125.049118,"lat":42.811884,"amap_id":"B0JBX5YKEK","order":5,"prev_distance_km":18.922,"cumulative_distance_km":43.129,"amap_marker_url":"https://uri.amap.com/marker?position=125.049118,42.811884&name=%E8%91%A3%E5%AE%8F%E8%B6%85%E5%85%BD%E8%8D%AF%E5%BA%97&src=vetmap&coordinate=gaode&callnative=1","route_id":"r1","route_name":"第1段","global_order":5},{"name":"孟家兽药商店","address":"东交大街与龙兴路交叉口北20米","phone":"","category":"购物服务;购物相关场所;购物相关场所|医疗保健服务;动物医疗场所;动物医疗场所","area":"","lng":125.003381,"lat":42.923624,"amap_id":"B0KRM1SAHN","order":6,"prev_distance_km":12.972,"cumulative_distance_km":56.101,"amap_marker_url":"https://uri.amap.com/marker?position=125.003381,42.923624&name=%E5%AD%9F%E5%AE%B6%E5%85%BD%E8%8D%AF%E5%95%86%E5%BA%97&src=vetmap&coordinate=gaode&callnative=1","route_id":"r1","route_name":"第1段","global_order":6},{"name":"维特宠物医院","address":"站前广场农业银行对面中桥委安慈综合楼(丘号4523)","phone":"13196264521;15304373369;15844770083","category":"医疗保健服务;动物医疗场所;宠物诊所","area":"","lng":125.000611,"lat":42.925024,"amap_id":"B0M6F126HB","order":7,"prev_distance_km":0.274,"cumulative_distance_km":56.375,"amap_marker_url":"https://uri.amap.com/marker?position=125.000611,42.925024&name=%E7%BB%B4%E7%89%B9%E5%AE%A0%E7%89%A9%E5%8C%BB%E9%99%A2&src=vetmap&coordinate=gaode&callnative=1","route_id":"r1","route_name":"第1段","global_order":7},{"name":"益发兽药店","address":"065县道与041乡道交叉口西南460米","phone":"","category":"医疗保健服务;动物医疗场所;动物医疗场所","area":"","lng":124.982325,"lat":43.141625,"amap_id":"B0LKAD8UGO","order":8,"prev_distance_km":24.131,"cumulative_distance_km":80.506,"amap_marker_url":"https://uri.amap.com/marker?position=124.982325,43.141625&name=%E7%9B%8A%E5%8F%91%E5%85%BD%E8%8D%AF%E5%BA%97&src=vetmap&coordinate=gaode&callnative=1","route_id":"r1","route_name":"第1段","global_order":8}]}