{"summary":{"id":"d00103","province":"内蒙古自治区","city":"鄂尔多斯市","district":"鄂托克旗","count":11,"route_count":1,"max_route_clinics":11,"total_distance_km":242.303,"coordinate_system":"GCJ-02 / Amap","generated_at":"2026-05-07 21:26:21"},"routes":[{"id":"r1","name":"第1段","count":11,"total_distance_km":242.303,"rows":[{"name":"兽康兽药门诊","address":"沙井信用社东侧","phone":"13847778422","category":"医疗保健服务;动物医疗场所;兽医站","area":"","lng":108.418502,"lat":39.428075,"amap_id":"B0HAFCV48Y","order":1,"prev_distance_km":0.0,"cumulative_distance_km":0.0,"amap_marker_url":"https://uri.amap.com/marker?position=108.418502,39.428075&name=%E5%85%BD%E5%BA%B7%E5%85%BD%E8%8D%AF%E9%97%A8%E8%AF%8A&src=vetmap&coordinate=gaode&callnative=1","route_id":"r1","route_name":"第1段"},{"name":"乌兰镇兽医院","address":"乌兰镇苏里格街与绕城路交叉口西南角","phone":"13604775453","category":"医疗保健服务;动物医疗场所;兽医站","area":"","lng":108.015571,"lat":39.08649,"amap_id":"B0K3MZTLOB","order":2,"prev_distance_km":51.441,"cumulative_distance_km":51.441,"amap_marker_url":"https://uri.amap.com/marker?position=108.015571,39.086490&name=%E4%B9%8C%E5%85%B0%E9%95%87%E5%85%BD%E5%8C%BB%E9%99%A2&src=vetmap&coordinate=gaode&callnative=1","route_id":"r1","route_name":"第1段"},{"name":"吴海龙兽药店","address":"乌兰镇乌仁都西街凯荣幸福名筑南门","phone":"","category":"医疗保健服务;动物医疗场所;动物医疗场所","area":"","lng":107.998196,"lat":39.08424,"amap_id":"B0JRC60HQD","order":3,"prev_distance_km":1.52,"cumulative_distance_km":52.962,"amap_marker_url":"https://uri.amap.com/marker?position=107.998196,39.084240&name=%E5%90%B4%E6%B5%B7%E9%BE%99%E5%85%BD%E8%8D%AF%E5%BA%97&src=vetmap&coordinate=gaode&callnative=1","route_id":"r1","route_name":"第1段"},{"name":"暖宠宠物医院","address":"王府花园2期北门21号楼十号底商","phone":"15134912122","category":"医疗保健服务;动物医疗场所;宠物诊所","area":"","lng":107.979079,"lat":39.098903,"amap_id":"B0LDF7NX8Z","order":4,"prev_distance_km":2.32,"cumulative_distance_km":55.281,"amap_marker_url":"https://uri.amap.com/marker?position=107.979079,39.098903&name=%E6%9A%96%E5%AE%A0%E5%AE%A0%E7%89%A9%E5%8C%BB%E9%99%A2&src=vetmap&coordinate=gaode&callnative=1","route_id":"r1","route_name":"第1段"},{"name":"恩和泰兽医服务站","address":"阿尔寨街与桃力民路交叉口西北160米","phone":"","category":"医疗保健服务;动物医疗场所;兽医站","area":"","lng":107.977356,"lat":39.104969,"amap_id":"B0JBPL9JOB","order":5,"prev_distance_km":0.691,"cumulative_distance_km":55.972,"amap_marker_url":"https://uri.amap.com/marker?position=107.977356,39.104969&name=%E6%81%A9%E5%92%8C%E6%B3%B0%E5%85%BD%E5%8C%BB%E6%9C%8D%E5%8A%A1%E7%AB%99&src=vetmap&coordinate=gaode&callnative=1","route_id":"r1","route_name":"第1段"},{"name":"邓忠明兽药店","address":"鄂托克旗查布恐龙博物馆东北侧60米","phone":"","category":"医疗保健服务;动物医疗场所;动物医疗场所","area":"","lng":107.398025,"lat":38.894975,"amap_id":"B0L3ASQS8Y","order":6,"prev_distance_km":55.24,"cumulative_distance_km":111.212,"amap_marker_url":"https://uri.amap.com/marker?position=107.398025,38.894975&name=%E9%82%93%E5%BF%A0%E6%98%8E%E5%85%BD%E8%8D%AF%E5%BA%97&src=vetmap&coordinate=gaode&callnative=1","route_id":"r1","route_name":"第1段"},{"name":"玖帛顺兽药店","address":"赛乌素","phone":"15947177774;16774777666","category":"医疗保健服务;动物医疗场所;动物医疗场所","area":"","lng":107.282844,"lat":39.080923,"amap_id":"B0I3FLV7F6","order":7,"prev_distance_km":22.948,"cumulative_distance_km":134.161,"amap_marker_url":"https://uri.amap.com/marker?position=107.282844,39.080923&name=%E7%8E%96%E5%B8%9B%E9%A1%BA%E5%85%BD%E8%8D%AF%E5%BA%97&src=vetmap&coordinate=gaode&callnative=1","route_id":"r1","route_name":"第1段"},{"name":"牧兴兽药店","address":"棋盘井镇乌珠尔路与鑫通街交叉路口北二十米处","phone":"15149696888","category":"医疗保健服务;动物医疗场所;动物医疗场所","area":"","lng":107.059075,"lat":39.390511,"amap_id":"B0J1LHMGC1","order":8,"prev_distance_km":39.452,"cumulative_distance_km":173.613,"amap_marker_url":"https://uri.amap.com/marker?position=107.059075,39.390511&name=%E7%89%A7%E5%85%B4%E5%85%BD%E8%8D%AF%E5%BA%97&src=vetmap&coordinate=gaode&callnative=1","route_id":"r1","route_name":"第1段"},{"name":"QQ宠物生活馆(宠物诊所)(天誉·天城店)","address":"天誉天城一期西南2门西北420米","phone":"13310302847","category":"医疗保健服务;动物医疗场所;宠物诊所","area":"","lng":107.014563,"lat":39.386722,"amap_id":"B0IGKLITVN","order":9,"prev_distance_km":3.848,"cumulative_distance_km":177.461,"amap_marker_url":"https://uri.amap.com/marker?position=107.014563,39.386722&name=QQ%E5%AE%A0%E7%89%A9%E7%94%9F%E6%B4%BB%E9%A6%86%28%E5%AE%A0%E7%89%A9%E8%AF%8A%E6%89%80%29%28%E5%A4%A9%E8%AA%89%C2%B7%E5%A4%A9%E5%9F%8E%E5%BA%97%29&src=vetmap&coordinate=gaode&callnative=1","route_id":"r1","route_name":"第1段"},{"name":"乐康兽药店","address":"110国道与616县道交叉口东南40米","phone":"","category":"医疗保健服务;动物医疗场所;动物医疗场所","area":"","lng":106.756525,"lat":39.919725,"amap_id":"B0L0Z7FSLD","order":10,"prev_distance_km":63.25,"cumulative_distance_km":240.712,"amap_marker_url":"https://uri.amap.com/marker?position=106.756525,39.919725&name=%E4%B9%90%E5%BA%B7%E5%85%BD%E8%8D%AF%E5%BA%97&src=vetmap&coordinate=gaode&callnative=1","route_id":"r1","route_name":"第1段"},{"name":"晓东兽药店","address":"蒙西镇碱柜村旧卫生院南100米","phone":"","category":"医疗保健服务;动物医疗场所;动物医疗场所","area":"","lng":106.758764,"lat":39.93393,"amap_id":"B0L3LRQMGE","order":11,"prev_distance_km":1.591,"cumulative_distance_km":242.303,"amap_marker_url":"https://uri.amap.com/marker?position=106.758764,39.933930&name=%E6%99%93%E4%B8%9C%E5%85%BD%E8%8D%AF%E5%BA%97&src=vetmap&coordinate=gaode&callnative=1","route_id":"r1","route_name":"第1段"}]}],"rows":[{"name":"兽康兽药门诊","address":"沙井信用社东侧","phone":"13847778422","category":"医疗保健服务;动物医疗场所;兽医站","area":"","lng":108.418502,"lat":39.428075,"amap_id":"B0HAFCV48Y","order":1,"prev_distance_km":0.0,"cumulative_distance_km":0.0,"amap_marker_url":"https://uri.amap.com/marker?position=108.418502,39.428075&name=%E5%85%BD%E5%BA%B7%E5%85%BD%E8%8D%AF%E9%97%A8%E8%AF%8A&src=vetmap&coordinate=gaode&callnative=1","route_id":"r1","route_name":"第1段","global_order":1},{"name":"乌兰镇兽医院","address":"乌兰镇苏里格街与绕城路交叉口西南角","phone":"13604775453","category":"医疗保健服务;动物医疗场所;兽医站","area":"","lng":108.015571,"lat":39.08649,"amap_id":"B0K3MZTLOB","order":2,"prev_distance_km":51.441,"cumulative_distance_km":51.441,"amap_marker_url":"https://uri.amap.com/marker?position=108.015571,39.086490&name=%E4%B9%8C%E5%85%B0%E9%95%87%E5%85%BD%E5%8C%BB%E9%99%A2&src=vetmap&coordinate=gaode&callnative=1","route_id":"r1","route_name":"第1段","global_order":2},{"name":"吴海龙兽药店","address":"乌兰镇乌仁都西街凯荣幸福名筑南门","phone":"","category":"医疗保健服务;动物医疗场所;动物医疗场所","area":"","lng":107.998196,"lat":39.08424,"amap_id":"B0JRC60HQD","order":3,"prev_distance_km":1.52,"cumulative_distance_km":52.962,"amap_marker_url":"https://uri.amap.com/marker?position=107.998196,39.084240&name=%E5%90%B4%E6%B5%B7%E9%BE%99%E5%85%BD%E8%8D%AF%E5%BA%97&src=vetmap&coordinate=gaode&callnative=1","route_id":"r1","route_name":"第1段","global_order":3},{"name":"暖宠宠物医院","address":"王府花园2期北门21号楼十号底商","phone":"15134912122","category":"医疗保健服务;动物医疗场所;宠物诊所","area":"","lng":107.979079,"lat":39.098903,"amap_id":"B0LDF7NX8Z","order":4,"prev_distance_km":2.32,"cumulative_distance_km":55.281,"amap_marker_url":"https://uri.amap.com/marker?position=107.979079,39.098903&name=%E6%9A%96%E5%AE%A0%E5%AE%A0%E7%89%A9%E5%8C%BB%E9%99%A2&src=vetmap&coordinate=gaode&callnative=1","route_id":"r1","route_name":"第1段","global_order":4},{"name":"恩和泰兽医服务站","address":"阿尔寨街与桃力民路交叉口西北160米","phone":"","category":"医疗保健服务;动物医疗场所;兽医站","area":"","lng":107.977356,"lat":39.104969,"amap_id":"B0JBPL9JOB","order":5,"prev_distance_km":0.691,"cumulative_distance_km":55.972,"amap_marker_url":"https://uri.amap.com/marker?position=107.977356,39.104969&name=%E6%81%A9%E5%92%8C%E6%B3%B0%E5%85%BD%E5%8C%BB%E6%9C%8D%E5%8A%A1%E7%AB%99&src=vetmap&coordinate=gaode&callnative=1","route_id":"r1","route_name":"第1段","global_order":5},{"name":"邓忠明兽药店","address":"鄂托克旗查布恐龙博物馆东北侧60米","phone":"","category":"医疗保健服务;动物医疗场所;动物医疗场所","area":"","lng":107.398025,"lat":38.894975,"amap_id":"B0L3ASQS8Y","order":6,"prev_distance_km":55.24,"cumulative_distance_km":111.212,"amap_marker_url":"https://uri.amap.com/marker?position=107.398025,38.894975&name=%E9%82%93%E5%BF%A0%E6%98%8E%E5%85%BD%E8%8D%AF%E5%BA%97&src=vetmap&coordinate=gaode&callnative=1","route_id":"r1","route_name":"第1段","global_order":6},{"name":"玖帛顺兽药店","address":"赛乌素","phone":"15947177774;16774777666","category":"医疗保健服务;动物医疗场所;动物医疗场所","area":"","lng":107.282844,"lat":39.080923,"amap_id":"B0I3FLV7F6","order":7,"prev_distance_km":22.948,"cumulative_distance_km":134.161,"amap_marker_url":"https://uri.amap.com/marker?position=107.282844,39.080923&name=%E7%8E%96%E5%B8%9B%E9%A1%BA%E5%85%BD%E8%8D%AF%E5%BA%97&src=vetmap&coordinate=gaode&callnative=1","route_id":"r1","route_name":"第1段","global_order":7},{"name":"牧兴兽药店","address":"棋盘井镇乌珠尔路与鑫通街交叉路口北二十米处","phone":"15149696888","category":"医疗保健服务;动物医疗场所;动物医疗场所","area":"","lng":107.059075,"lat":39.390511,"amap_id":"B0J1LHMGC1","order":8,"prev_distance_km":39.452,"cumulative_distance_km":173.613,"amap_marker_url":"https://uri.amap.com/marker?position=107.059075,39.390511&name=%E7%89%A7%E5%85%B4%E5%85%BD%E8%8D%AF%E5%BA%97&src=vetmap&coordinate=gaode&callnative=1","route_id":"r1","route_name":"第1段","global_order":8},{"name":"QQ宠物生活馆(宠物诊所)(天誉·天城店)","address":"天誉天城一期西南2门西北420米","phone":"13310302847","category":"医疗保健服务;动物医疗场所;宠物诊所","area":"","lng":107.014563,"lat":39.386722,"amap_id":"B0IGKLITVN","order":9,"prev_distance_km":3.848,"cumulative_distance_km":177.461,"amap_marker_url":"https://uri.amap.com/marker?position=107.014563,39.386722&name=QQ%E5%AE%A0%E7%89%A9%E7%94%9F%E6%B4%BB%E9%A6%86%28%E5%AE%A0%E7%89%A9%E8%AF%8A%E6%89%80%29%28%E5%A4%A9%E8%AA%89%C2%B7%E5%A4%A9%E5%9F%8E%E5%BA%97%29&src=vetmap&coordinate=gaode&callnative=1","route_id":"r1","route_name":"第1段","global_order":9},{"name":"乐康兽药店","address":"110国道与616县道交叉口东南40米","phone":"","category":"医疗保健服务;动物医疗场所;动物医疗场所","area":"","lng":106.756525,"lat":39.919725,"amap_id":"B0L0Z7FSLD","order":10,"prev_distance_km":63.25,"cumulative_distance_km":240.712,"amap_marker_url":"https://uri.amap.com/marker?position=106.756525,39.919725&name=%E4%B9%90%E5%BA%B7%E5%85%BD%E8%8D%AF%E5%BA%97&src=vetmap&coordinate=gaode&callnative=1","route_id":"r1","route_name":"第1段","global_order":10},{"name":"晓东兽药店","address":"蒙西镇碱柜村旧卫生院南100米","phone":"","category":"医疗保健服务;动物医疗场所;动物医疗场所","area":"","lng":106.758764,"lat":39.93393,"amap_id":"B0L3LRQMGE","order":11,"prev_distance_km":1.591,"cumulative_distance_km":242.303,"amap_marker_url":"https://uri.amap.com/marker?position=106.758764,39.933930&name=%E6%99%93%E4%B8%9C%E5%85%BD%E8%8D%AF%E5%BA%97&src=vetmap&coordinate=gaode&callnative=1","route_id":"r1","route_name":"第1段","global_order":11}]}