{"summary":{"id":"d00148","province":"吉林省","city":"延边朝鲜族自治州","district":"和龙市","count":8,"route_count":1,"max_route_clinics":8,"total_distance_km":18.305,"coordinate_system":"GCJ-02 / Amap","generated_at":"2026-05-08 19:40:09"},"routes":[{"id":"r1","name":"第1段","count":8,"total_distance_km":18.305,"rows":[{"name":"安淇动物诊所","address":"长春路1-17-4","phone":"","category":"医疗保健服务;动物医疗场所;宠物诊所","area":"","lng":128.997121,"lat":42.537389,"amap_id":"B0LA3MESHG","order":1,"prev_distance_km":0.0,"cumulative_distance_km":0.0,"amap_marker_url":"https://uri.amap.com/marker?position=128.997121,42.537389&name=%E5%AE%89%E6%B7%87%E5%8A%A8%E7%89%A9%E8%AF%8A%E6%89%80&src=vetmap&coordinate=gaode&callnative=1","route_id":"r1","route_name":"第1段"},{"name":"老亢动物诊疗所","address":"和龙大街与泉水路交叉口东北20米","phone":"","category":"医疗保健服务;动物医疗场所;宠物诊所","area":"民慧","lng":129.00416,"lat":42.537473,"amap_id":"B0JKBBKHF4","order":2,"prev_distance_km":0.577,"cumulative_distance_km":0.577,"amap_marker_url":"https://uri.amap.com/marker?position=129.004160,42.537473&name=%E8%80%81%E4%BA%A2%E5%8A%A8%E7%89%A9%E8%AF%8A%E7%96%97%E6%89%80&src=vetmap&coordinate=gaode&callnative=1","route_id":"r1","route_name":"第1段"},{"name":"老赵综合兽药店","address":"民安街与益民路交叉口东北40米","phone":"","category":"医疗保健服务;动物医疗场所;动物医疗场所","area":"民慧","lng":129.005779,"lat":42.536907,"amap_id":"B0HRP74WAJ","order":3,"prev_distance_km":0.147,"cumulative_distance_km":0.724,"amap_marker_url":"https://uri.amap.com/marker?position=129.005779,42.536907&name=%E8%80%81%E8%B5%B5%E7%BB%BC%E5%90%88%E5%85%BD%E8%8D%AF%E5%BA%97&src=vetmap&coordinate=gaode&callnative=1","route_id":"r1","route_name":"第1段"},{"name":"延城动物医院","address":"长春路与民安街交叉口西南40米","phone":"15943324407","category":"医疗保健服务;动物医疗场所;宠物诊所","area":"民慧","lng":129.005375,"lat":42.537825,"amap_id":"B0FFJYKTPD","order":4,"prev_distance_km":0.107,"cumulative_distance_km":0.831,"amap_marker_url":"https://uri.amap.com/marker?position=129.005375,42.537825&name=%E5%BB%B6%E5%9F%8E%E5%8A%A8%E7%89%A9%E5%8C%BB%E9%99%A2&src=vetmap&coordinate=gaode&callnative=1","route_id":"r1","route_name":"第1段"},{"name":"德荣动物诊所","address":"长春路与和龙大街交叉口东60米","phone":"15943321073","category":"医疗保健服务;动物医疗场所;宠物诊所","area":"","lng":129.004694,"lat":42.538287,"amap_id":"B0FFMHE5OJ","order":5,"prev_distance_km":0.076,"cumulative_distance_km":0.907,"amap_marker_url":"https://uri.amap.com/marker?position=129.004694,42.538287&name=%E5%BE%B7%E8%8D%A3%E5%8A%A8%E7%89%A9%E8%AF%8A%E6%89%80&src=vetmap&coordinate=gaode&callnative=1","route_id":"r1","route_name":"第1段"},{"name":"宠诺动物医院","address":"人民大街与腾飞广场交叉口北60米","phone":"18043358583","category":"医疗保健服务;动物医疗场所;宠物诊所","area":"","lng":129.009367,"lat":42.546717,"amap_id":"B0JG1LO89A","order":6,"prev_distance_km":1.013,"cumulative_distance_km":1.919,"amap_marker_url":"https://uri.amap.com/marker?position=129.009367,42.546717&name=%E5%AE%A0%E8%AF%BA%E5%8A%A8%E7%89%A9%E5%8C%BB%E9%99%A2&src=vetmap&coordinate=gaode&callnative=1","route_id":"r1","route_name":"第1段"},{"name":"吉林省和龙市动物检疫站","address":"誉文街21号","phone":"","category":"医疗保健服务;动物医疗场所;动物医疗场所","area":"","lng":129.014258,"lat":42.54923,"amap_id":"B05990MVOR","order":7,"prev_distance_km":0.488,"cumulative_distance_km":2.408,"amap_marker_url":"https://uri.amap.com/marker?position=129.014258,42.549230&name=%E5%90%89%E6%9E%97%E7%9C%81%E5%92%8C%E9%BE%99%E5%B8%82%E5%8A%A8%E7%89%A9%E6%A3%80%E7%96%AB%E7%AB%99&src=vetmap&coordinate=gaode&callnative=1","route_id":"r1","route_name":"第1段"},{"name":"老丁兽药店","address":"八家子林业局街道东南侧130米","phone":"","category":"医疗保健服务;动物医疗场所;动物医疗场所","area":"","lng":129.116421,"lat":42.67083,"amap_id":"B0LGHCTOI3","order":8,"prev_distance_km":15.897,"cumulative_distance_km":18.305,"amap_marker_url":"https://uri.amap.com/marker?position=129.116421,42.670830&name=%E8%80%81%E4%B8%81%E5%85%BD%E8%8D%AF%E5%BA%97&src=vetmap&coordinate=gaode&callnative=1","route_id":"r1","route_name":"第1段"}]}],"rows":[{"name":"安淇动物诊所","address":"长春路1-17-4","phone":"","category":"医疗保健服务;动物医疗场所;宠物诊所","area":"","lng":128.997121,"lat":42.537389,"amap_id":"B0LA3MESHG","order":1,"prev_distance_km":0.0,"cumulative_distance_km":0.0,"amap_marker_url":"https://uri.amap.com/marker?position=128.997121,42.537389&name=%E5%AE%89%E6%B7%87%E5%8A%A8%E7%89%A9%E8%AF%8A%E6%89%80&src=vetmap&coordinate=gaode&callnative=1","route_id":"r1","route_name":"第1段","global_order":1},{"name":"老亢动物诊疗所","address":"和龙大街与泉水路交叉口东北20米","phone":"","category":"医疗保健服务;动物医疗场所;宠物诊所","area":"民慧","lng":129.00416,"lat":42.537473,"amap_id":"B0JKBBKHF4","order":2,"prev_distance_km":0.577,"cumulative_distance_km":0.577,"amap_marker_url":"https://uri.amap.com/marker?position=129.004160,42.537473&name=%E8%80%81%E4%BA%A2%E5%8A%A8%E7%89%A9%E8%AF%8A%E7%96%97%E6%89%80&src=vetmap&coordinate=gaode&callnative=1","route_id":"r1","route_name":"第1段","global_order":2},{"name":"老赵综合兽药店","address":"民安街与益民路交叉口东北40米","phone":"","category":"医疗保健服务;动物医疗场所;动物医疗场所","area":"民慧","lng":129.005779,"lat":42.536907,"amap_id":"B0HRP74WAJ","order":3,"prev_distance_km":0.147,"cumulative_distance_km":0.724,"amap_marker_url":"https://uri.amap.com/marker?position=129.005779,42.536907&name=%E8%80%81%E8%B5%B5%E7%BB%BC%E5%90%88%E5%85%BD%E8%8D%AF%E5%BA%97&src=vetmap&coordinate=gaode&callnative=1","route_id":"r1","route_name":"第1段","global_order":3},{"name":"延城动物医院","address":"长春路与民安街交叉口西南40米","phone":"15943324407","category":"医疗保健服务;动物医疗场所;宠物诊所","area":"民慧","lng":129.005375,"lat":42.537825,"amap_id":"B0FFJYKTPD","order":4,"prev_distance_km":0.107,"cumulative_distance_km":0.831,"amap_marker_url":"https://uri.amap.com/marker?position=129.005375,42.537825&name=%E5%BB%B6%E5%9F%8E%E5%8A%A8%E7%89%A9%E5%8C%BB%E9%99%A2&src=vetmap&coordinate=gaode&callnative=1","route_id":"r1","route_name":"第1段","global_order":4},{"name":"德荣动物诊所","address":"长春路与和龙大街交叉口东60米","phone":"15943321073","category":"医疗保健服务;动物医疗场所;宠物诊所","area":"","lng":129.004694,"lat":42.538287,"amap_id":"B0FFMHE5OJ","order":5,"prev_distance_km":0.076,"cumulative_distance_km":0.907,"amap_marker_url":"https://uri.amap.com/marker?position=129.004694,42.538287&name=%E5%BE%B7%E8%8D%A3%E5%8A%A8%E7%89%A9%E8%AF%8A%E6%89%80&src=vetmap&coordinate=gaode&callnative=1","route_id":"r1","route_name":"第1段","global_order":5},{"name":"宠诺动物医院","address":"人民大街与腾飞广场交叉口北60米","phone":"18043358583","category":"医疗保健服务;动物医疗场所;宠物诊所","area":"","lng":129.009367,"lat":42.546717,"amap_id":"B0JG1LO89A","order":6,"prev_distance_km":1.013,"cumulative_distance_km":1.919,"amap_marker_url":"https://uri.amap.com/marker?position=129.009367,42.546717&name=%E5%AE%A0%E8%AF%BA%E5%8A%A8%E7%89%A9%E5%8C%BB%E9%99%A2&src=vetmap&coordinate=gaode&callnative=1","route_id":"r1","route_name":"第1段","global_order":6},{"name":"吉林省和龙市动物检疫站","address":"誉文街21号","phone":"","category":"医疗保健服务;动物医疗场所;动物医疗场所","area":"","lng":129.014258,"lat":42.54923,"amap_id":"B05990MVOR","order":7,"prev_distance_km":0.488,"cumulative_distance_km":2.408,"amap_marker_url":"https://uri.amap.com/marker?position=129.014258,42.549230&name=%E5%90%89%E6%9E%97%E7%9C%81%E5%92%8C%E9%BE%99%E5%B8%82%E5%8A%A8%E7%89%A9%E6%A3%80%E7%96%AB%E7%AB%99&src=vetmap&coordinate=gaode&callnative=1","route_id":"r1","route_name":"第1段","global_order":7},{"name":"老丁兽药店","address":"八家子林业局街道东南侧130米","phone":"","category":"医疗保健服务;动物医疗场所;动物医疗场所","area":"","lng":129.116421,"lat":42.67083,"amap_id":"B0LGHCTOI3","order":8,"prev_distance_km":15.897,"cumulative_distance_km":18.305,"amap_marker_url":"https://uri.amap.com/marker?position=129.116421,42.670830&name=%E8%80%81%E4%B8%81%E5%85%BD%E8%8D%AF%E5%BA%97&src=vetmap&coordinate=gaode&callnative=1","route_id":"r1","route_name":"第1段","global_order":8}]}