{"summary":{"id":"d00292","province":"安徽省","city":"阜阳市","district":"界首市","count":22,"route_count":1,"max_route_clinics":22,"total_distance_km":64.774,"coordinate_system":"GCJ-02 / Amap","generated_at":"2026-05-07 21:27:13"},"routes":[{"id":"r1","name":"第1段","count":22,"total_distance_km":64.774,"rows":[{"name":"动物保健","address":"417省道与002乡道交叉口西南20米","phone":"","category":"医疗保健服务;动物医疗场所;动物医疗场所","area":"","lng":115.417866,"lat":33.426683,"amap_id":"B0J19PWMMS","order":1,"prev_distance_km":0.0,"cumulative_distance_km":0.0,"amap_marker_url":"https://uri.amap.com/marker?position=115.417866,33.426683&name=%E5%8A%A8%E7%89%A9%E4%BF%9D%E5%81%A5&src=vetmap&coordinate=gaode&callnative=1","route_id":"r1","route_name":"第1段"},{"name":"宠爱宠物医院(光武店)","address":"永平路与006县道交叉口西80米","phone":"18755883116","category":"医疗保健服务;动物医疗场所;宠物诊所","area":"","lng":115.379475,"lat":33.378475,"amap_id":"B0K0GXEKSE","order":2,"prev_distance_km":6.437,"cumulative_distance_km":6.437,"amap_marker_url":"https://uri.amap.com/marker?position=115.379475,33.378475&name=%E5%AE%A0%E7%88%B1%E5%AE%A0%E7%89%A9%E5%8C%BB%E9%99%A2%28%E5%85%89%E6%AD%A6%E5%BA%97%29&src=vetmap&coordinate=gaode&callnative=1","route_id":"r1","route_name":"第1段"},{"name":"光武动物门诊","address":"建武路与永平路交叉口西140米","phone":"13855828692;13866225988","category":"医疗保健服务;动物医疗场所;宠物诊所","area":"","lng":115.36945,"lat":33.379201,"amap_id":"B0JU6ZS888","order":3,"prev_distance_km":0.934,"cumulative_distance_km":7.371,"amap_marker_url":"https://uri.amap.com/marker?position=115.369450,33.379201&name=%E5%85%89%E6%AD%A6%E5%8A%A8%E7%89%A9%E9%97%A8%E8%AF%8A&src=vetmap&coordinate=gaode&callnative=1","route_id":"r1","route_name":"第1段"},{"name":"光武镇动物防治门诊","address":"光武派出所西150米路南","phone":"13675675352;13805679968","category":"医疗保健服务;动物医疗场所;兽医站","area":"","lng":115.361852,"lat":33.375155,"amap_id":"B0GU7RH7UD","order":4,"prev_distance_km":0.837,"cumulative_distance_km":8.208,"amap_marker_url":"https://uri.amap.com/marker?position=115.361852,33.375155&name=%E5%85%89%E6%AD%A6%E9%95%87%E5%8A%A8%E7%89%A9%E9%98%B2%E6%B2%BB%E9%97%A8%E8%AF%8A&src=vetmap&coordinate=gaode&callnative=1","route_id":"r1","route_name":"第1段"},{"name":"康愈动物门诊部","address":"中原路四巷与中原路交叉口北140米","phone":"","category":"医疗保健服务;动物医疗场所;宠物诊所","area":"","lng":115.356721,"lat":33.266358,"amap_id":"B0IAXH1VWX","order":5,"prev_distance_km":12.107,"cumulative_distance_km":20.315,"amap_marker_url":"https://uri.amap.com/marker?position=115.356721,33.266358&name=%E5%BA%B7%E6%84%88%E5%8A%A8%E7%89%A9%E9%97%A8%E8%AF%8A%E9%83%A8&src=vetmap&coordinate=gaode&callnative=1","route_id":"r1","route_name":"第1段"},{"name":"动物防疫防治门诊(中原路店)","address":"中原路与界光路交叉口西60米","phone":"13605679171","category":"医疗保健服务;动物医疗场所;宠物诊所","area":"","lng":115.357775,"lat":33.264451,"amap_id":"B0FFHM4R3B","order":6,"prev_distance_km":0.234,"cumulative_distance_km":20.549,"amap_marker_url":"https://uri.amap.com/marker?position=115.357775,33.264451&name=%E5%8A%A8%E7%89%A9%E9%98%B2%E7%96%AB%E9%98%B2%E6%B2%BB%E9%97%A8%E8%AF%8A%28%E4%B8%AD%E5%8E%9F%E8%B7%AF%E5%BA%97%29&src=vetmap&coordinate=gaode&callnative=1","route_id":"r1","route_name":"第1段"},{"name":"动物医院","address":"中原路与界光路交叉口西80米","phone":"","category":"医疗保健服务;动物医疗场所;宠物诊所","area":"","lng":115.357623,"lat":33.264435,"amap_id":"B0FFKS07GU","order":7,"prev_distance_km":0.014,"cumulative_distance_km":20.563,"amap_marker_url":"https://uri.amap.com/marker?position=115.357623,33.264435&name=%E5%8A%A8%E7%89%A9%E5%8C%BB%E9%99%A2&src=vetmap&coordinate=gaode&callnative=1","route_id":"r1","route_name":"第1段"},{"name":"动物疫控中心","address":"中原路与界光路交叉口西80米","phone":"","category":"医疗保健服务;动物医疗场所;动物医疗场所","area":"","lng":115.3575,"lat":33.264547,"amap_id":"B0K1VDMQX3","order":8,"prev_distance_km":0.017,"cumulative_distance_km":20.58,"amap_marker_url":"https://uri.amap.com/marker?position=115.357500,33.264547&name=%E5%8A%A8%E7%89%A9%E7%96%AB%E6%8E%A7%E4%B8%AD%E5%BF%83&src=vetmap&coordinate=gaode&callnative=1","route_id":"r1","route_name":"第1段"},{"name":"一心宠物诊疗","address":"人民西路859号","phone":"19965811272","category":"医疗保健服务;动物医疗场所;宠物诊所","area":"","lng":115.348584,"lat":33.263489,"amap_id":"B0H3J56PFB","order":9,"prev_distance_km":0.837,"cumulative_distance_km":21.417,"amap_marker_url":"https://uri.amap.com/marker?position=115.348584,33.263489&name=%E4%B8%80%E5%BF%83%E5%AE%A0%E7%89%A9%E8%AF%8A%E7%96%97&src=vetmap&coordinate=gaode&callnative=1","route_id":"r1","route_name":"第1段"},{"name":"颖南动物防疫","address":"牛行街与卫民街交叉口西40米","phone":"","category":"医疗保健服务;动物医疗场所;动物医疗场所","area":"","lng":115.353921,"lat":33.252372,"amap_id":"B0LR7ZIH7A","order":10,"prev_distance_km":1.332,"cumulative_distance_km":22.749,"amap_marker_url":"https://uri.amap.com/marker?position=115.353921,33.252372&name=%E9%A2%96%E5%8D%97%E5%8A%A8%E7%89%A9%E9%98%B2%E7%96%AB&src=vetmap&coordinate=gaode&callnative=1","route_id":"r1","route_name":"第1段"},{"name":"宠爱宠物医院(东顺河街店)","address":"东顺河街256号","phone":"13966572727","category":"医疗保健服务;动物医疗场所;宠物诊所","area":"","lng":115.367571,"lat":33.251267,"amap_id":"B0FFHLJW0Q","order":11,"prev_distance_km":1.275,"cumulative_distance_km":24.025,"amap_marker_url":"https://uri.amap.com/marker?position=115.367571,33.251267&name=%E5%AE%A0%E7%88%B1%E5%AE%A0%E7%89%A9%E5%8C%BB%E9%99%A2%28%E4%B8%9C%E9%A1%BA%E6%B2%B3%E8%A1%97%E5%BA%97%29&src=vetmap&coordinate=gaode&callnative=1","route_id":"r1","route_name":"第1段"},{"name":"万宝宠物医院","address":"中原路与文昌路交叉口西180米","phone":"","category":"医疗保健服务;动物医疗场所;宠物诊所","area":"","lng":115.370777,"lat":33.260857,"amap_id":"B0KKSS42T9","order":12,"prev_distance_km":1.107,"cumulative_distance_km":25.132,"amap_marker_url":"https://uri.amap.com/marker?position=115.370777,33.260857&name=%E4%B8%87%E5%AE%9D%E5%AE%A0%E7%89%A9%E5%8C%BB%E9%99%A2&src=vetmap&coordinate=gaode&callnative=1","route_id":"r1","route_name":"第1段"},{"name":"金爪爪宠物会所","address":"东城街道文昌路中段470号","phone":"18110592667","category":"医疗保健服务;动物医疗场所;动物医疗场所","area":"","lng":115.372428,"lat":33.260071,"amap_id":"B0LKF9URN9","order":13,"prev_distance_km":0.177,"cumulative_distance_km":25.308,"amap_marker_url":"https://uri.amap.com/marker?position=115.372428,33.260071&name=%E9%87%91%E7%88%AA%E7%88%AA%E5%AE%A0%E7%89%A9%E4%BC%9A%E6%89%80&src=vetmap&coordinate=gaode&callnative=1","route_id":"r1","route_name":"第1段"},{"name":"宠爱宠物医院(花千树店)","address":"东一路s4-157号","phone":"15855854855","category":"医疗保健服务;动物医疗场所;宠物诊所","area":"","lng":115.388191,"lat":33.26007,"amap_id":"B0LRMCXSBA","order":14,"prev_distance_km":1.466,"cumulative_distance_km":26.774,"amap_marker_url":"https://uri.amap.com/marker?position=115.388191,33.260070&name=%E5%AE%A0%E7%88%B1%E5%AE%A0%E7%89%A9%E5%8C%BB%E9%99%A2%28%E8%8A%B1%E5%8D%83%E6%A0%91%E5%BA%97%29&src=vetmap&coordinate=gaode&callnative=1","route_id":"r1","route_name":"第1段"},{"name":"睿佳宠物医院·骨科·心脏超声(界首店)","address":"东城人民路137号","phone":"19016120120","category":"医疗保健服务;动物医疗场所;宠物诊所","area":"","lng":115.383421,"lat":33.254367,"amap_id":"B0J3TZJQIM","order":15,"prev_distance_km":0.774,"cumulative_distance_km":27.548,"amap_marker_url":"https://uri.amap.com/marker?position=115.383421,33.254367&name=%E7%9D%BF%E4%BD%B3%E5%AE%A0%E7%89%A9%E5%8C%BB%E9%99%A2%C2%B7%E9%AA%A8%E7%A7%91%C2%B7%E5%BF%83%E8%84%8F%E8%B6%85%E5%A3%B0%28%E7%95%8C%E9%A6%96%E5%BA%97%29&src=vetmap&coordinate=gaode&callnative=1","route_id":"r1","route_name":"第1段"},{"name":"睿佳宠物医院·骨科·心脏超声(界首店)","address":"东城人民路137号","phone":"19016120120","category":"医疗保健服务;动物医疗场所;宠物诊所","area":"","lng":115.383669,"lat":33.254286,"amap_id":"B0LGNLMWIQ","order":16,"prev_distance_km":0.025,"cumulative_distance_km":27.573,"amap_marker_url":"https://uri.amap.com/marker?position=115.383669,33.254286&name=%E7%9D%BF%E4%BD%B3%E5%AE%A0%E7%89%A9%E5%8C%BB%E9%99%A2%C2%B7%E9%AA%A8%E7%A7%91%C2%B7%E5%BF%83%E8%84%8F%E8%B6%85%E5%A3%B0%28%E7%95%8C%E9%A6%96%E5%BA%97%29&src=vetmap&coordinate=gaode&callnative=1","route_id":"r1","route_name":"第1段"},{"name":"萌吧宠物店诊所(东旭华庭店)","address":"东旭华庭东门门面778号","phone":"19955889993","category":"医疗保健服务;动物医疗场所;宠物诊所","area":"","lng":115.389664,"lat":33.247621,"amap_id":"B0JG45D7NY","order":17,"prev_distance_km":0.927,"cumulative_distance_km":28.5,"amap_marker_url":"https://uri.amap.com/marker?position=115.389664,33.247621&name=%E8%90%8C%E5%90%A7%E5%AE%A0%E7%89%A9%E5%BA%97%E8%AF%8A%E6%89%80%28%E4%B8%9C%E6%97%AD%E5%8D%8E%E5%BA%AD%E5%BA%97%29&src=vetmap&coordinate=gaode&callnative=1","route_id":"r1","route_name":"第1段"},{"name":"动物防疫","address":"421省道与朝阳路交叉口南140米","phone":"","category":"医疗保健服务;动物医疗场所;动物医疗场所","area":"","lng":115.446868,"lat":33.089715,"amap_id":"B0J06UPK2R","order":18,"prev_distance_km":18.348,"cumulative_distance_km":46.848,"amap_marker_url":"https://uri.amap.com/marker?position=115.446868,33.089715&name=%E5%8A%A8%E7%89%A9%E9%98%B2%E7%96%AB&src=vetmap&coordinate=gaode&callnative=1","route_id":"r1","route_name":"第1段"},{"name":"王集镇畜牧服务站","address":"文化路与阳光路交叉口西北300米","phone":"","category":"医疗保健服务;动物医疗场所;动物医疗场所","area":"","lng":115.345247,"lat":33.131794,"amap_id":"B0LAKXLZL1","order":19,"prev_distance_km":10.558,"cumulative_distance_km":57.406,"amap_marker_url":"https://uri.amap.com/marker?position=115.345247,33.131794&name=%E7%8E%8B%E9%9B%86%E9%95%87%E7%95%9C%E7%89%A7%E6%9C%8D%E5%8A%A1%E7%AB%99&src=vetmap&coordinate=gaode&callnative=1","route_id":"r1","route_name":"第1段"},{"name":"砖集镇畜牧兽医站","address":"砖高路与前进南街交叉口东40米","phone":"13855861661","category":"医疗保健服务;动物医疗场所;兽医站","area":"","lng":115.309977,"lat":33.107689,"amap_id":"B0HKBCZ6KP","order":20,"prev_distance_km":4.24,"cumulative_distance_km":61.646,"amap_marker_url":"https://uri.amap.com/marker?position=115.309977,33.107689&name=%E7%A0%96%E9%9B%86%E9%95%87%E7%95%9C%E7%89%A7%E5%85%BD%E5%8C%BB%E7%AB%99&src=vetmap&coordinate=gaode&callnative=1","route_id":"r1","route_name":"第1段"},{"name":"宠安康宠物诊所(砖集店)","address":"砖集镇农贸街11号1户","phone":"17856587760","category":"医疗保健服务;动物医疗场所;宠物诊所","area":"","lng":115.310215,"lat":33.106987,"amap_id":"B0L3OHYF5F","order":21,"prev_distance_km":0.081,"cumulative_distance_km":61.727,"amap_marker_url":"https://uri.amap.com/marker?position=115.310215,33.106987&name=%E5%AE%A0%E5%AE%89%E5%BA%B7%E5%AE%A0%E7%89%A9%E8%AF%8A%E6%89%80%28%E7%A0%96%E9%9B%86%E5%BA%97%29&src=vetmap&coordinate=gaode&callnative=1","route_id":"r1","route_name":"第1段"},{"name":"黄庄兽医站","address":"102省道与白鹭大道交叉口西320米","phone":"13675676313","category":"医疗保健服务;动物医疗场所;兽医站","area":"","lng":115.277676,"lat":33.109811,"amap_id":"B0GUYX4SKT","order":22,"prev_distance_km":3.047,"cumulative_distance_km":64.774,"amap_marker_url":"https://uri.amap.com/marker?position=115.277676,33.109811&name=%E9%BB%84%E5%BA%84%E5%85%BD%E5%8C%BB%E7%AB%99&src=vetmap&coordinate=gaode&callnative=1","route_id":"r1","route_name":"第1段"}]}],"rows":[{"name":"动物保健","address":"417省道与002乡道交叉口西南20米","phone":"","category":"医疗保健服务;动物医疗场所;动物医疗场所","area":"","lng":115.417866,"lat":33.426683,"amap_id":"B0J19PWMMS","order":1,"prev_distance_km":0.0,"cumulative_distance_km":0.0,"amap_marker_url":"https://uri.amap.com/marker?position=115.417866,33.426683&name=%E5%8A%A8%E7%89%A9%E4%BF%9D%E5%81%A5&src=vetmap&coordinate=gaode&callnative=1","route_id":"r1","route_name":"第1段","global_order":1},{"name":"宠爱宠物医院(光武店)","address":"永平路与006县道交叉口西80米","phone":"18755883116","category":"医疗保健服务;动物医疗场所;宠物诊所","area":"","lng":115.379475,"lat":33.378475,"amap_id":"B0K0GXEKSE","order":2,"prev_distance_km":6.437,"cumulative_distance_km":6.437,"amap_marker_url":"https://uri.amap.com/marker?position=115.379475,33.378475&name=%E5%AE%A0%E7%88%B1%E5%AE%A0%E7%89%A9%E5%8C%BB%E9%99%A2%28%E5%85%89%E6%AD%A6%E5%BA%97%29&src=vetmap&coordinate=gaode&callnative=1","route_id":"r1","route_name":"第1段","global_order":2},{"name":"光武动物门诊","address":"建武路与永平路交叉口西140米","phone":"13855828692;13866225988","category":"医疗保健服务;动物医疗场所;宠物诊所","area":"","lng":115.36945,"lat":33.379201,"amap_id":"B0JU6ZS888","order":3,"prev_distance_km":0.934,"cumulative_distance_km":7.371,"amap_marker_url":"https://uri.amap.com/marker?position=115.369450,33.379201&name=%E5%85%89%E6%AD%A6%E5%8A%A8%E7%89%A9%E9%97%A8%E8%AF%8A&src=vetmap&coordinate=gaode&callnative=1","route_id":"r1","route_name":"第1段","global_order":3},{"name":"光武镇动物防治门诊","address":"光武派出所西150米路南","phone":"13675675352;13805679968","category":"医疗保健服务;动物医疗场所;兽医站","area":"","lng":115.361852,"lat":33.375155,"amap_id":"B0GU7RH7UD","order":4,"prev_distance_km":0.837,"cumulative_distance_km":8.208,"amap_marker_url":"https://uri.amap.com/marker?position=115.361852,33.375155&name=%E5%85%89%E6%AD%A6%E9%95%87%E5%8A%A8%E7%89%A9%E9%98%B2%E6%B2%BB%E9%97%A8%E8%AF%8A&src=vetmap&coordinate=gaode&callnative=1","route_id":"r1","route_name":"第1段","global_order":4},{"name":"康愈动物门诊部","address":"中原路四巷与中原路交叉口北140米","phone":"","category":"医疗保健服务;动物医疗场所;宠物诊所","area":"","lng":115.356721,"lat":33.266358,"amap_id":"B0IAXH1VWX","order":5,"prev_distance_km":12.107,"cumulative_distance_km":20.315,"amap_marker_url":"https://uri.amap.com/marker?position=115.356721,33.266358&name=%E5%BA%B7%E6%84%88%E5%8A%A8%E7%89%A9%E9%97%A8%E8%AF%8A%E9%83%A8&src=vetmap&coordinate=gaode&callnative=1","route_id":"r1","route_name":"第1段","global_order":5},{"name":"动物防疫防治门诊(中原路店)","address":"中原路与界光路交叉口西60米","phone":"13605679171","category":"医疗保健服务;动物医疗场所;宠物诊所","area":"","lng":115.357775,"lat":33.264451,"amap_id":"B0FFHM4R3B","order":6,"prev_distance_km":0.234,"cumulative_distance_km":20.549,"amap_marker_url":"https://uri.amap.com/marker?position=115.357775,33.264451&name=%E5%8A%A8%E7%89%A9%E9%98%B2%E7%96%AB%E9%98%B2%E6%B2%BB%E9%97%A8%E8%AF%8A%28%E4%B8%AD%E5%8E%9F%E8%B7%AF%E5%BA%97%29&src=vetmap&coordinate=gaode&callnative=1","route_id":"r1","route_name":"第1段","global_order":6},{"name":"动物医院","address":"中原路与界光路交叉口西80米","phone":"","category":"医疗保健服务;动物医疗场所;宠物诊所","area":"","lng":115.357623,"lat":33.264435,"amap_id":"B0FFKS07GU","order":7,"prev_distance_km":0.014,"cumulative_distance_km":20.563,"amap_marker_url":"https://uri.amap.com/marker?position=115.357623,33.264435&name=%E5%8A%A8%E7%89%A9%E5%8C%BB%E9%99%A2&src=vetmap&coordinate=gaode&callnative=1","route_id":"r1","route_name":"第1段","global_order":7},{"name":"动物疫控中心","address":"中原路与界光路交叉口西80米","phone":"","category":"医疗保健服务;动物医疗场所;动物医疗场所","area":"","lng":115.3575,"lat":33.264547,"amap_id":"B0K1VDMQX3","order":8,"prev_distance_km":0.017,"cumulative_distance_km":20.58,"amap_marker_url":"https://uri.amap.com/marker?position=115.357500,33.264547&name=%E5%8A%A8%E7%89%A9%E7%96%AB%E6%8E%A7%E4%B8%AD%E5%BF%83&src=vetmap&coordinate=gaode&callnative=1","route_id":"r1","route_name":"第1段","global_order":8},{"name":"一心宠物诊疗","address":"人民西路859号","phone":"19965811272","category":"医疗保健服务;动物医疗场所;宠物诊所","area":"","lng":115.348584,"lat":33.263489,"amap_id":"B0H3J56PFB","order":9,"prev_distance_km":0.837,"cumulative_distance_km":21.417,"amap_marker_url":"https://uri.amap.com/marker?position=115.348584,33.263489&name=%E4%B8%80%E5%BF%83%E5%AE%A0%E7%89%A9%E8%AF%8A%E7%96%97&src=vetmap&coordinate=gaode&callnative=1","route_id":"r1","route_name":"第1段","global_order":9},{"name":"颖南动物防疫","address":"牛行街与卫民街交叉口西40米","phone":"","category":"医疗保健服务;动物医疗场所;动物医疗场所","area":"","lng":115.353921,"lat":33.252372,"amap_id":"B0LR7ZIH7A","order":10,"prev_distance_km":1.332,"cumulative_distance_km":22.749,"amap_marker_url":"https://uri.amap.com/marker?position=115.353921,33.252372&name=%E9%A2%96%E5%8D%97%E5%8A%A8%E7%89%A9%E9%98%B2%E7%96%AB&src=vetmap&coordinate=gaode&callnative=1","route_id":"r1","route_name":"第1段","global_order":10},{"name":"宠爱宠物医院(东顺河街店)","address":"东顺河街256号","phone":"13966572727","category":"医疗保健服务;动物医疗场所;宠物诊所","area":"","lng":115.367571,"lat":33.251267,"amap_id":"B0FFHLJW0Q","order":11,"prev_distance_km":1.275,"cumulative_distance_km":24.025,"amap_marker_url":"https://uri.amap.com/marker?position=115.367571,33.251267&name=%E5%AE%A0%E7%88%B1%E5%AE%A0%E7%89%A9%E5%8C%BB%E9%99%A2%28%E4%B8%9C%E9%A1%BA%E6%B2%B3%E8%A1%97%E5%BA%97%29&src=vetmap&coordinate=gaode&callnative=1","route_id":"r1","route_name":"第1段","global_order":11},{"name":"万宝宠物医院","address":"中原路与文昌路交叉口西180米","phone":"","category":"医疗保健服务;动物医疗场所;宠物诊所","area":"","lng":115.370777,"lat":33.260857,"amap_id":"B0KKSS42T9","order":12,"prev_distance_km":1.107,"cumulative_distance_km":25.132,"amap_marker_url":"https://uri.amap.com/marker?position=115.370777,33.260857&name=%E4%B8%87%E5%AE%9D%E5%AE%A0%E7%89%A9%E5%8C%BB%E9%99%A2&src=vetmap&coordinate=gaode&callnative=1","route_id":"r1","route_name":"第1段","global_order":12},{"name":"金爪爪宠物会所","address":"东城街道文昌路中段470号","phone":"18110592667","category":"医疗保健服务;动物医疗场所;动物医疗场所","area":"","lng":115.372428,"lat":33.260071,"amap_id":"B0LKF9URN9","order":13,"prev_distance_km":0.177,"cumulative_distance_km":25.308,"amap_marker_url":"https://uri.amap.com/marker?position=115.372428,33.260071&name=%E9%87%91%E7%88%AA%E7%88%AA%E5%AE%A0%E7%89%A9%E4%BC%9A%E6%89%80&src=vetmap&coordinate=gaode&callnative=1","route_id":"r1","route_name":"第1段","global_order":13},{"name":"宠爱宠物医院(花千树店)","address":"东一路s4-157号","phone":"15855854855","category":"医疗保健服务;动物医疗场所;宠物诊所","area":"","lng":115.388191,"lat":33.26007,"amap_id":"B0LRMCXSBA","order":14,"prev_distance_km":1.466,"cumulative_distance_km":26.774,"amap_marker_url":"https://uri.amap.com/marker?position=115.388191,33.260070&name=%E5%AE%A0%E7%88%B1%E5%AE%A0%E7%89%A9%E5%8C%BB%E9%99%A2%28%E8%8A%B1%E5%8D%83%E6%A0%91%E5%BA%97%29&src=vetmap&coordinate=gaode&callnative=1","route_id":"r1","route_name":"第1段","global_order":14},{"name":"睿佳宠物医院·骨科·心脏超声(界首店)","address":"东城人民路137号","phone":"19016120120","category":"医疗保健服务;动物医疗场所;宠物诊所","area":"","lng":115.383421,"lat":33.254367,"amap_id":"B0J3TZJQIM","order":15,"prev_distance_km":0.774,"cumulative_distance_km":27.548,"amap_marker_url":"https://uri.amap.com/marker?position=115.383421,33.254367&name=%E7%9D%BF%E4%BD%B3%E5%AE%A0%E7%89%A9%E5%8C%BB%E9%99%A2%C2%B7%E9%AA%A8%E7%A7%91%C2%B7%E5%BF%83%E8%84%8F%E8%B6%85%E5%A3%B0%28%E7%95%8C%E9%A6%96%E5%BA%97%29&src=vetmap&coordinate=gaode&callnative=1","route_id":"r1","route_name":"第1段","global_order":15},{"name":"睿佳宠物医院·骨科·心脏超声(界首店)","address":"东城人民路137号","phone":"19016120120","category":"医疗保健服务;动物医疗场所;宠物诊所","area":"","lng":115.383669,"lat":33.254286,"amap_id":"B0LGNLMWIQ","order":16,"prev_distance_km":0.025,"cumulative_distance_km":27.573,"amap_marker_url":"https://uri.amap.com/marker?position=115.383669,33.254286&name=%E7%9D%BF%E4%BD%B3%E5%AE%A0%E7%89%A9%E5%8C%BB%E9%99%A2%C2%B7%E9%AA%A8%E7%A7%91%C2%B7%E5%BF%83%E8%84%8F%E8%B6%85%E5%A3%B0%28%E7%95%8C%E9%A6%96%E5%BA%97%29&src=vetmap&coordinate=gaode&callnative=1","route_id":"r1","route_name":"第1段","global_order":16},{"name":"萌吧宠物店诊所(东旭华庭店)","address":"东旭华庭东门门面778号","phone":"19955889993","category":"医疗保健服务;动物医疗场所;宠物诊所","area":"","lng":115.389664,"lat":33.247621,"amap_id":"B0JG45D7NY","order":17,"prev_distance_km":0.927,"cumulative_distance_km":28.5,"amap_marker_url":"https://uri.amap.com/marker?position=115.389664,33.247621&name=%E8%90%8C%E5%90%A7%E5%AE%A0%E7%89%A9%E5%BA%97%E8%AF%8A%E6%89%80%28%E4%B8%9C%E6%97%AD%E5%8D%8E%E5%BA%AD%E5%BA%97%29&src=vetmap&coordinate=gaode&callnative=1","route_id":"r1","route_name":"第1段","global_order":17},{"name":"动物防疫","address":"421省道与朝阳路交叉口南140米","phone":"","category":"医疗保健服务;动物医疗场所;动物医疗场所","area":"","lng":115.446868,"lat":33.089715,"amap_id":"B0J06UPK2R","order":18,"prev_distance_km":18.348,"cumulative_distance_km":46.848,"amap_marker_url":"https://uri.amap.com/marker?position=115.446868,33.089715&name=%E5%8A%A8%E7%89%A9%E9%98%B2%E7%96%AB&src=vetmap&coordinate=gaode&callnative=1","route_id":"r1","route_name":"第1段","global_order":18},{"name":"王集镇畜牧服务站","address":"文化路与阳光路交叉口西北300米","phone":"","category":"医疗保健服务;动物医疗场所;动物医疗场所","area":"","lng":115.345247,"lat":33.131794,"amap_id":"B0LAKXLZL1","order":19,"prev_distance_km":10.558,"cumulative_distance_km":57.406,"amap_marker_url":"https://uri.amap.com/marker?position=115.345247,33.131794&name=%E7%8E%8B%E9%9B%86%E9%95%87%E7%95%9C%E7%89%A7%E6%9C%8D%E5%8A%A1%E7%AB%99&src=vetmap&coordinate=gaode&callnative=1","route_id":"r1","route_name":"第1段","global_order":19},{"name":"砖集镇畜牧兽医站","address":"砖高路与前进南街交叉口东40米","phone":"13855861661","category":"医疗保健服务;动物医疗场所;兽医站","area":"","lng":115.309977,"lat":33.107689,"amap_id":"B0HKBCZ6KP","order":20,"prev_distance_km":4.24,"cumulative_distance_km":61.646,"amap_marker_url":"https://uri.amap.com/marker?position=115.309977,33.107689&name=%E7%A0%96%E9%9B%86%E9%95%87%E7%95%9C%E7%89%A7%E5%85%BD%E5%8C%BB%E7%AB%99&src=vetmap&coordinate=gaode&callnative=1","route_id":"r1","route_name":"第1段","global_order":20},{"name":"宠安康宠物诊所(砖集店)","address":"砖集镇农贸街11号1户","phone":"17856587760","category":"医疗保健服务;动物医疗场所;宠物诊所","area":"","lng":115.310215,"lat":33.106987,"amap_id":"B0L3OHYF5F","order":21,"prev_distance_km":0.081,"cumulative_distance_km":61.727,"amap_marker_url":"https://uri.amap.com/marker?position=115.310215,33.106987&name=%E5%AE%A0%E5%AE%89%E5%BA%B7%E5%AE%A0%E7%89%A9%E8%AF%8A%E6%89%80%28%E7%A0%96%E9%9B%86%E5%BA%97%29&src=vetmap&coordinate=gaode&callnative=1","route_id":"r1","route_name":"第1段","global_order":21},{"name":"黄庄兽医站","address":"102省道与白鹭大道交叉口西320米","phone":"13675676313","category":"医疗保健服务;动物医疗场所;兽医站","area":"","lng":115.277676,"lat":33.109811,"amap_id":"B0GUYX4SKT","order":22,"prev_distance_km":3.047,"cumulative_distance_km":64.774,"amap_marker_url":"https://uri.amap.com/marker?position=115.277676,33.109811&name=%E9%BB%84%E5%BA%84%E5%85%BD%E5%8C%BB%E7%AB%99&src=vetmap&coordinate=gaode&callnative=1","route_id":"r1","route_name":"第1段","global_order":22}]}