{"summary":{"id":"d00261","province":"安徽省","city":"淮南市","district":"寿县","count":18,"total_distance_km":127.49,"coordinate_system":"GCJ-02 / Amap","generated_at":"2026-05-07 19:56:08"},"rows":[{"name":"宠爱一生","address":"032乡道与033乡道交叉口西160米","phone":"","category":"医疗保健服务;动物医疗场所;宠物诊所","area":"","lng":116.528822,"lat":32.480171,"amap_id":"B0FFKRQMWY","order":1,"prev_distance_km":0.0,"cumulative_distance_km":0.0,"amap_marker_url":"https://uri.amap.com/marker?position=116.528822,32.480171&name=%E5%AE%A0%E7%88%B1%E4%B8%80%E7%94%9F&src=vetmap&coordinate=gaode&callnative=1"},{"name":"寿县精华兽医社会化服务部","address":"明珠大道与规划路交叉口西160米","phone":"","category":"医疗保健服务;动物医疗场所;兽医站","area":"","lng":116.776725,"lat":32.562225,"amap_id":"B0L3H7ACYM","order":2,"prev_distance_km":24.97,"cumulative_distance_km":24.97,"amap_marker_url":"https://uri.amap.com/marker?position=116.776725,32.562225&name=%E5%AF%BF%E5%8E%BF%E7%B2%BE%E5%8D%8E%E5%85%BD%E5%8C%BB%E7%A4%BE%E4%BC%9A%E5%8C%96%E6%9C%8D%E5%8A%A1%E9%83%A8&src=vetmap&coordinate=gaode&callnative=1"},{"name":"寿春镇兽医站","address":"寿春镇寿蔡路","phone":"15212891158","category":"医疗保健服务;动物医疗场所;兽医站","area":"","lng":116.785495,"lat":32.566947,"amap_id":"B0FFF0FPBC","order":3,"prev_distance_km":0.975,"cumulative_distance_km":25.945,"amap_marker_url":"https://uri.amap.com/marker?position=116.785495,32.566947&name=%E5%AF%BF%E6%98%A5%E9%95%87%E5%85%BD%E5%8C%BB%E7%AB%99&src=vetmap&coordinate=gaode&callnative=1"},{"name":"派德宠物诊所","address":"寿春镇现代汉城小区E区1层31号","phone":"18726995228","category":"医疗保健服务;动物医疗场所;宠物诊所","area":"","lng":116.788646,"lat":32.567627,"amap_id":"B0FFF0FPF0","order":4,"prev_distance_km":0.305,"cumulative_distance_km":26.25,"amap_marker_url":"https://uri.amap.com/marker?position=116.788646,32.567627&name=%E6%B4%BE%E5%BE%B7%E5%AE%A0%E7%89%A9%E8%AF%8A%E6%89%80&src=vetmap&coordinate=gaode&callnative=1"},{"name":"康宠宠物医院中心","address":"景润·中央城西门北70米","phone":"18355456192","category":"医疗保健服务;动物医疗场所;宠物诊所","area":"","lng":116.788094,"lat":32.563954,"amap_id":"B0FFLCZQM1","order":5,"prev_distance_km":0.412,"cumulative_distance_km":26.662,"amap_marker_url":"https://uri.amap.com/marker?position=116.788094,32.563954&name=%E5%BA%B7%E5%AE%A0%E5%AE%A0%E7%89%A9%E5%8C%BB%E9%99%A2%E4%B8%AD%E5%BF%83&src=vetmap&coordinate=gaode&callnative=1"},{"name":"康寿宠物医院中心","address":"宾阳大道与芍陂路交叉口东南100米","phone":"","category":"医疗保健服务;动物医疗场所;宠物诊所","area":"","lng":116.800775,"lat":32.554475,"amap_id":"B0LA2CMZYP","order":6,"prev_distance_km":1.589,"cumulative_distance_km":28.25,"amap_marker_url":"https://uri.amap.com/marker?position=116.800775,32.554475&name=%E5%BA%B7%E5%AF%BF%E5%AE%A0%E7%89%A9%E5%8C%BB%E9%99%A2%E4%B8%AD%E5%BF%83&src=vetmap&coordinate=gaode&callnative=1"},{"name":"贝乐宠物诊所","address":"东津花园西1门旁","phone":"13399642511","category":"医疗保健服务;动物医疗场所;宠物诊所","area":"","lng":116.789341,"lat":32.548537,"amap_id":"B0K0MASXRI","order":7,"prev_distance_km":1.259,"cumulative_distance_km":29.509,"amap_marker_url":"https://uri.amap.com/marker?position=116.789341,32.548537&name=%E8%B4%9D%E4%B9%90%E5%AE%A0%E7%89%A9%E8%AF%8A%E6%89%80&src=vetmap&coordinate=gaode&callnative=1"},{"name":"寿县金丰源畜牧科技服务中心","address":"安丰路东段与寿春路辅路交叉口西南280米","phone":"","category":"医疗保健服务;动物医疗场所;兽医站","area":"","lng":116.788231,"lat":32.532913,"amap_id":"B0JK94D7KJ","order":8,"prev_distance_km":1.74,"cumulative_distance_km":31.249,"amap_marker_url":"https://uri.amap.com/marker?position=116.788231,32.532913&name=%E5%AF%BF%E5%8E%BF%E9%87%91%E4%B8%B0%E6%BA%90%E7%95%9C%E7%89%A7%E7%A7%91%E6%8A%80%E6%9C%8D%E5%8A%A1%E4%B8%AD%E5%BF%83&src=vetmap&coordinate=gaode&callnative=1"},{"name":"陶良生兽医门市部","address":"237国道与020县道交叉口西南40米","phone":"","category":"医疗保健服务;动物医疗场所;兽医站","area":"","lng":116.795402,"lat":32.381816,"amap_id":"B0KBUDCMX7","order":9,"prev_distance_km":16.815,"cumulative_distance_km":48.064,"amap_marker_url":"https://uri.amap.com/marker?position=116.795402,32.381816&name=%E9%99%B6%E8%89%AF%E7%94%9F%E5%85%BD%E5%8C%BB%E9%97%A8%E5%B8%82%E9%83%A8&src=vetmap&coordinate=gaode&callnative=1"},{"name":"陶良生兽医门诊部","address":"堰口镇江黄村村民委员会西南侧220米","phone":"","category":"医疗保健服务;动物医疗场所;兽医站","area":"","lng":116.832225,"lat":32.323625,"amap_id":"B0L3ASU7NV","order":10,"prev_distance_km":7.337,"cumulative_distance_km":55.401,"amap_marker_url":"https://uri.amap.com/marker?position=116.832225,32.323625&name=%E9%99%B6%E8%89%AF%E7%94%9F%E5%85%BD%E5%8C%BB%E9%97%A8%E8%AF%8A%E9%83%A8&src=vetmap&coordinate=gaode&callnative=1"},{"name":"方厚德兽药店","address":"230省道与幸福街交叉口北80米","phone":"13856424668","category":"医疗保健服务;动物医疗场所;动物医疗场所","area":"","lng":116.986546,"lat":32.247596,"amap_id":"B0FFG8EGSG","order":11,"prev_distance_km":16.79,"cumulative_distance_km":72.191,"amap_marker_url":"https://uri.amap.com/marker?position=116.986546,32.247596&name=%E6%96%B9%E5%8E%9A%E5%BE%B7%E5%85%BD%E8%8D%AF%E5%BA%97&src=vetmap&coordinate=gaode&callnative=1"},{"name":"永业牧医","address":"刘岗派出所户政大厅西南侧60米","phone":"","category":"医疗保健服务;动物医疗场所;兽医站","area":"","lng":116.972963,"lat":32.073013,"amap_id":"B0FFKG03H1","order":12,"prev_distance_km":19.455,"cumulative_distance_km":91.646,"amap_marker_url":"https://uri.amap.com/marker?position=116.972963,32.073013&name=%E6%B0%B8%E4%B8%9A%E7%89%A7%E5%8C%BB&src=vetmap&coordinate=gaode&callnative=1"},{"name":"新桥宠物(叶语湾店)","address":"蜀山现代产业园文一叶语湾西门S2-109号","phone":"15901985356;18055463058","category":"医疗保健服务;动物医疗场所;宠物诊所","area":"","lng":116.889189,"lat":32.026792,"amap_id":"B0K2J75XT1","order":13,"prev_distance_km":9.421,"cumulative_distance_km":101.067,"amap_marker_url":"https://uri.amap.com/marker?position=116.889189,32.026792&name=%E6%96%B0%E6%A1%A5%E5%AE%A0%E7%89%A9%28%E5%8F%B6%E8%AF%AD%E6%B9%BE%E5%BA%97%29&src=vetmap&coordinate=gaode&callnative=1"},{"name":"方贤亮宠物畜禽诊所","address":"炎刘镇西街派客汉堡旁","phone":"18256255858","category":"医疗保健服务;动物医疗场所;宠物诊所","area":"","lng":116.875753,"lat":32.072432,"amap_id":"B0HRSHPM93","order":14,"prev_distance_km":5.231,"cumulative_distance_km":106.298,"amap_marker_url":"https://uri.amap.com/marker?position=116.875753,32.072432&name=%E6%96%B9%E8%B4%A4%E4%BA%AE%E5%AE%A0%E7%89%A9%E7%95%9C%E7%A6%BD%E8%AF%8A%E6%89%80&src=vetmap&coordinate=gaode&callnative=1"},{"name":"杨松兽医门诊部","address":"240省道与146乡道交叉口南40米","phone":"","category":"医疗保健服务;动物医疗场所;兽医站","area":"","lng":116.768281,"lat":32.073587,"amap_id":"B0J1J12KO4","order":15,"prev_distance_km":10.127,"cumulative_distance_km":116.425,"amap_marker_url":"https://uri.amap.com/marker?position=116.768281,32.073587&name=%E6%9D%A8%E6%9D%BE%E5%85%BD%E5%8C%BB%E9%97%A8%E8%AF%8A%E9%83%A8&src=vetmap&coordinate=gaode&callnative=1"},{"name":"畜禽防疫","address":"安丰镇谷贝村村委会南侧500米","phone":"15556008569","category":"医疗保健服务;动物医疗场所;兽医站","area":"","lng":116.748709,"lat":32.129273,"amap_id":"B0LDRABKY7","order":16,"prev_distance_km":6.461,"cumulative_distance_km":122.886,"amap_marker_url":"https://uri.amap.com/marker?position=116.748709,32.129273&name=%E7%95%9C%E7%A6%BD%E9%98%B2%E7%96%AB&src=vetmap&coordinate=gaode&callnative=1"},{"name":"寿县安丰动物检疫申报点","address":"237国道","phone":"","category":"医疗保健服务;动物医疗场所;动物医疗场所","area":"","lng":116.737688,"lat":32.168156,"amap_id":"B0L22ZZIAE","order":17,"prev_distance_km":4.446,"cumulative_distance_km":127.332,"amap_marker_url":"https://uri.amap.com/marker?position=116.737688,32.168156&name=%E5%AF%BF%E5%8E%BF%E5%AE%89%E4%B8%B0%E5%8A%A8%E7%89%A9%E6%A3%80%E7%96%AB%E7%94%B3%E6%8A%A5%E7%82%B9&src=vetmap&coordinate=gaode&callnative=1"},{"name":"畜禽防疫店","address":"237国道与026县道交叉口东南380米","phone":"","category":"医疗保健服务;动物医疗场所;兽医站","area":"","lng":116.739275,"lat":32.168625,"amap_id":"B0LK6UKVAU","order":18,"prev_distance_km":0.158,"cumulative_distance_km":127.49,"amap_marker_url":"https://uri.amap.com/marker?position=116.739275,32.168625&name=%E7%95%9C%E7%A6%BD%E9%98%B2%E7%96%AB%E5%BA%97&src=vetmap&coordinate=gaode&callnative=1"}]}