{"summary":{"id":"d00276","province":"安徽省","city":"芜湖市","district":"湾沚区","count":7,"route_count":1,"max_route_clinics":7,"total_distance_km":18.084,"coordinate_system":"GCJ-02 / Amap","generated_at":"2026-05-07 21:27:12"},"routes":[{"id":"r1","name":"第1段","count":7,"total_distance_km":18.084,"rows":[{"name":"湾沚区陶辛镇畜牧兽医综合服务部","address":"335省道与沿河路交叉口西100米","phone":"18909634836","category":"医疗保健服务;动物医疗场所;兽医站","area":"","lng":118.486644,"lat":31.161427,"amap_id":"B0FFL17KFJ","order":1,"prev_distance_km":0.0,"cumulative_distance_km":0.0,"amap_marker_url":"https://uri.amap.com/marker?position=118.486644,31.161427&name=%E6%B9%BE%E6%B2%9A%E5%8C%BA%E9%99%B6%E8%BE%9B%E9%95%87%E7%95%9C%E7%89%A7%E5%85%BD%E5%8C%BB%E7%BB%BC%E5%90%88%E6%9C%8D%E5%8A%A1%E9%83%A8&src=vetmap&coordinate=gaode&callnative=1","route_id":"r1","route_name":"第1段"},{"name":"琳泉宠物诊所","address":"湾沚镇学府春天21-8","phone":"17730339259;17730339266","category":"医疗保健服务;动物医疗场所;宠物诊所","area":"","lng":118.575711,"lat":31.1281,"amap_id":"B0FFL2W4M8","order":2,"prev_distance_km":9.251,"cumulative_distance_km":9.251,"amap_marker_url":"https://uri.amap.com/marker?position=118.575711,31.128100&name=%E7%90%B3%E6%B3%89%E5%AE%A0%E7%89%A9%E8%AF%8A%E6%89%80&src=vetmap&coordinate=gaode&callnative=1","route_id":"r1","route_name":"第1段"},{"name":"沐禾宠物","address":"和嘉中央城9栋103","phone":"18155315318","category":"医疗保健服务;动物医疗场所;动物医疗场所","area":"","lng":118.577972,"lat":31.131999,"amap_id":"B0LD9ZXYR2","order":3,"prev_distance_km":0.484,"cumulative_distance_km":9.735,"amap_marker_url":"https://uri.amap.com/marker?position=118.577972,31.131999&name=%E6%B2%90%E7%A6%BE%E5%AE%A0%E7%89%A9&src=vetmap&coordinate=gaode&callnative=1","route_id":"r1","route_name":"第1段"},{"name":"大宇宠物诊所","address":"湾沚镇芜湖南路14号","phone":"13956153448","category":"医疗保健服务;动物医疗场所;宠物诊所","area":"","lng":118.572295,"lat":31.142574,"amap_id":"B022900PBP","order":4,"prev_distance_km":1.294,"cumulative_distance_km":11.029,"amap_marker_url":"https://uri.amap.com/marker?position=118.572295,31.142574&name=%E5%A4%A7%E5%AE%87%E5%AE%A0%E7%89%A9%E8%AF%8A%E6%89%80&src=vetmap&coordinate=gaode&callnative=1","route_id":"r1","route_name":"第1段"},{"name":"阳合宠物医院","address":"荆江东路文体局商住楼1幢01室","phone":"","category":"医疗保健服务;动物医疗场所;宠物诊所","area":"","lng":118.577218,"lat":31.144999,"amap_id":"B0L2VU87X7","order":5,"prev_distance_km":0.541,"cumulative_distance_km":11.57,"amap_marker_url":"https://uri.amap.com/marker?position=118.577218,31.144999&name=%E9%98%B3%E5%90%88%E5%AE%A0%E7%89%A9%E5%8C%BB%E9%99%A2&src=vetmap&coordinate=gaode&callnative=1","route_id":"r1","route_name":"第1段"},{"name":"泉泉宠物医院","address":"百悦城S1-105","phone":"15345537000","category":"医疗保健服务;动物医疗场所;宠物诊所","area":"","lng":118.585726,"lat":31.151929,"amap_id":"B0JUOL954P","order":6,"prev_distance_km":1.118,"cumulative_distance_km":12.687,"amap_marker_url":"https://uri.amap.com/marker?position=118.585726,31.151929&name=%E6%B3%89%E6%B3%89%E5%AE%A0%E7%89%A9%E5%8C%BB%E9%99%A2&src=vetmap&coordinate=gaode&callnative=1","route_id":"r1","route_name":"第1段"},{"name":"霖泽宠物医院","address":"东新城6栋58号","phone":"18225530192","category":"医疗保健服务;动物医疗场所;宠物诊所","area":"","lng":118.641438,"lat":31.14288,"amap_id":"B0L04ZX1EP","order":7,"prev_distance_km":5.396,"cumulative_distance_km":18.084,"amap_marker_url":"https://uri.amap.com/marker?position=118.641438,31.142880&name=%E9%9C%96%E6%B3%BD%E5%AE%A0%E7%89%A9%E5%8C%BB%E9%99%A2&src=vetmap&coordinate=gaode&callnative=1","route_id":"r1","route_name":"第1段"}]}],"rows":[{"name":"湾沚区陶辛镇畜牧兽医综合服务部","address":"335省道与沿河路交叉口西100米","phone":"18909634836","category":"医疗保健服务;动物医疗场所;兽医站","area":"","lng":118.486644,"lat":31.161427,"amap_id":"B0FFL17KFJ","order":1,"prev_distance_km":0.0,"cumulative_distance_km":0.0,"amap_marker_url":"https://uri.amap.com/marker?position=118.486644,31.161427&name=%E6%B9%BE%E6%B2%9A%E5%8C%BA%E9%99%B6%E8%BE%9B%E9%95%87%E7%95%9C%E7%89%A7%E5%85%BD%E5%8C%BB%E7%BB%BC%E5%90%88%E6%9C%8D%E5%8A%A1%E9%83%A8&src=vetmap&coordinate=gaode&callnative=1","route_id":"r1","route_name":"第1段","global_order":1},{"name":"琳泉宠物诊所","address":"湾沚镇学府春天21-8","phone":"17730339259;17730339266","category":"医疗保健服务;动物医疗场所;宠物诊所","area":"","lng":118.575711,"lat":31.1281,"amap_id":"B0FFL2W4M8","order":2,"prev_distance_km":9.251,"cumulative_distance_km":9.251,"amap_marker_url":"https://uri.amap.com/marker?position=118.575711,31.128100&name=%E7%90%B3%E6%B3%89%E5%AE%A0%E7%89%A9%E8%AF%8A%E6%89%80&src=vetmap&coordinate=gaode&callnative=1","route_id":"r1","route_name":"第1段","global_order":2},{"name":"沐禾宠物","address":"和嘉中央城9栋103","phone":"18155315318","category":"医疗保健服务;动物医疗场所;动物医疗场所","area":"","lng":118.577972,"lat":31.131999,"amap_id":"B0LD9ZXYR2","order":3,"prev_distance_km":0.484,"cumulative_distance_km":9.735,"amap_marker_url":"https://uri.amap.com/marker?position=118.577972,31.131999&name=%E6%B2%90%E7%A6%BE%E5%AE%A0%E7%89%A9&src=vetmap&coordinate=gaode&callnative=1","route_id":"r1","route_name":"第1段","global_order":3},{"name":"大宇宠物诊所","address":"湾沚镇芜湖南路14号","phone":"13956153448","category":"医疗保健服务;动物医疗场所;宠物诊所","area":"","lng":118.572295,"lat":31.142574,"amap_id":"B022900PBP","order":4,"prev_distance_km":1.294,"cumulative_distance_km":11.029,"amap_marker_url":"https://uri.amap.com/marker?position=118.572295,31.142574&name=%E5%A4%A7%E5%AE%87%E5%AE%A0%E7%89%A9%E8%AF%8A%E6%89%80&src=vetmap&coordinate=gaode&callnative=1","route_id":"r1","route_name":"第1段","global_order":4},{"name":"阳合宠物医院","address":"荆江东路文体局商住楼1幢01室","phone":"","category":"医疗保健服务;动物医疗场所;宠物诊所","area":"","lng":118.577218,"lat":31.144999,"amap_id":"B0L2VU87X7","order":5,"prev_distance_km":0.541,"cumulative_distance_km":11.57,"amap_marker_url":"https://uri.amap.com/marker?position=118.577218,31.144999&name=%E9%98%B3%E5%90%88%E5%AE%A0%E7%89%A9%E5%8C%BB%E9%99%A2&src=vetmap&coordinate=gaode&callnative=1","route_id":"r1","route_name":"第1段","global_order":5},{"name":"泉泉宠物医院","address":"百悦城S1-105","phone":"15345537000","category":"医疗保健服务;动物医疗场所;宠物诊所","area":"","lng":118.585726,"lat":31.151929,"amap_id":"B0JUOL954P","order":6,"prev_distance_km":1.118,"cumulative_distance_km":12.687,"amap_marker_url":"https://uri.amap.com/marker?position=118.585726,31.151929&name=%E6%B3%89%E6%B3%89%E5%AE%A0%E7%89%A9%E5%8C%BB%E9%99%A2&src=vetmap&coordinate=gaode&callnative=1","route_id":"r1","route_name":"第1段","global_order":6},{"name":"霖泽宠物医院","address":"东新城6栋58号","phone":"18225530192","category":"医疗保健服务;动物医疗场所;宠物诊所","area":"","lng":118.641438,"lat":31.14288,"amap_id":"B0L04ZX1EP","order":7,"prev_distance_km":5.396,"cumulative_distance_km":18.084,"amap_marker_url":"https://uri.amap.com/marker?position=118.641438,31.142880&name=%E9%9C%96%E6%B3%BD%E5%AE%A0%E7%89%A9%E5%8C%BB%E9%99%A2&src=vetmap&coordinate=gaode&callnative=1","route_id":"r1","route_name":"第1段","global_order":7}]}