{"summary":{"id":"d00268","province":"安徽省","city":"滁州市","district":"天长市","count":11,"route_count":1,"max_route_clinics":11,"total_distance_km":71.751,"coordinate_system":"GCJ-02 / Amap","generated_at":"2026-05-07 21:27:11"},"routes":[{"id":"r1","name":"第1段","count":11,"total_distance_km":71.751,"rows":[{"name":"黄家元亨兽医服务部","address":"汊涧镇商贸路11号","phone":"13013022060;13205502676","category":"医疗保健服务;动物医疗场所;兽医站","area":"","lng":118.777705,"lat":32.672288,"amap_id":"B0FFG83JWG","order":1,"prev_distance_km":0.0,"cumulative_distance_km":0.0,"amap_marker_url":"https://uri.amap.com/marker?position=118.777705,32.672288&name=%E9%BB%84%E5%AE%B6%E5%85%83%E4%BA%A8%E5%85%BD%E5%8C%BB%E6%9C%8D%E5%8A%A1%E9%83%A8&src=vetmap&coordinate=gaode&callnative=1","route_id":"r1","route_name":"第1段"},{"name":"张铺兽医站","address":"天王路与油田路交叉口南120米","phone":"","category":"医疗保健服务;动物医疗场所;兽医站","area":"","lng":118.790775,"lat":32.761075,"amap_id":"B0L2GLTUUF","order":2,"prev_distance_km":9.948,"cumulative_distance_km":9.948,"amap_marker_url":"https://uri.amap.com/marker?position=118.790775,32.761075&name=%E5%BC%A0%E9%93%BA%E5%85%BD%E5%8C%BB%E7%AB%99&src=vetmap&coordinate=gaode&callnative=1","route_id":"r1","route_name":"第1段"},{"name":"永丰兽医站","address":"上泊湖排涝总站东南门北60米","phone":"13865811885;13965985246","category":"医疗保健服务;动物医疗场所;兽医站","area":"","lng":118.99747,"lat":32.728127,"amap_id":"B0FFFZEEGO","order":3,"prev_distance_km":19.675,"cumulative_distance_km":29.623,"amap_marker_url":"https://uri.amap.com/marker?position=118.997470,32.728127&name=%E6%B0%B8%E4%B8%B0%E5%85%BD%E5%8C%BB%E7%AB%99&src=vetmap&coordinate=gaode&callnative=1","route_id":"r1","route_name":"第1段"},{"name":"倍康宠物医疗中心","address":"景湖一品南门旁","phone":"15855067702","category":"医疗保健服务;动物医疗场所;宠物诊所","area":"","lng":118.993886,"lat":32.679834,"amap_id":"B0H0773Z7D","order":4,"prev_distance_km":5.38,"cumulative_distance_km":35.004,"amap_marker_url":"https://uri.amap.com/marker?position=118.993886,32.679834&name=%E5%80%8D%E5%BA%B7%E5%AE%A0%E7%89%A9%E5%8C%BB%E7%96%97%E4%B8%AD%E5%BF%83&src=vetmap&coordinate=gaode&callnative=1","route_id":"r1","route_name":"第1段"},{"name":"宠园宠物医院美容院(同心路店)","address":"同心路105号","phone":"0550-7723000;13866529777","category":"医疗保健服务;动物医疗场所;宠物诊所","area":"","lng":118.992798,"lat":32.673663,"amap_id":"B0FFHO96BA","order":5,"prev_distance_km":0.694,"cumulative_distance_km":35.697,"amap_marker_url":"https://uri.amap.com/marker?position=118.992798,32.673663&name=%E5%AE%A0%E5%9B%AD%E5%AE%A0%E7%89%A9%E5%8C%BB%E9%99%A2%E7%BE%8E%E5%AE%B9%E9%99%A2%28%E5%90%8C%E5%BF%83%E8%B7%AF%E5%BA%97%29&src=vetmap&coordinate=gaode&callnative=1","route_id":"r1","route_name":"第1段"},{"name":"佰佳动物医院","address":"炳辉西路11号","phone":"","category":"医疗保健服务;动物医疗场所;宠物诊所","area":"","lng":118.995697,"lat":32.668274,"amap_id":"B0M6OHLZ1A","order":6,"prev_distance_km":0.658,"cumulative_distance_km":36.355,"amap_marker_url":"https://uri.amap.com/marker?position=118.995697,32.668274&name=%E4%BD%B0%E4%BD%B3%E5%8A%A8%E7%89%A9%E5%8C%BB%E9%99%A2&src=vetmap&coordinate=gaode&callnative=1","route_id":"r1","route_name":"第1段"},{"name":"安琪尔宠物医院","address":"新河南路天翔幸福城s3-114(吾悦广场西门对面)","phone":"17755031626","category":"医疗保健服务;动物医疗场所;宠物诊所","area":"","lng":118.994997,"lat":32.663769,"amap_id":"B0KKFHQLD9","order":7,"prev_distance_km":0.505,"cumulative_distance_km":36.86,"amap_marker_url":"https://uri.amap.com/marker?position=118.994997,32.663769&name=%E5%AE%89%E7%90%AA%E5%B0%94%E5%AE%A0%E7%89%A9%E5%8C%BB%E9%99%A2&src=vetmap&coordinate=gaode&callnative=1","route_id":"r1","route_name":"第1段"},{"name":"荣宠宠物医院","address":"吾悦广场室外街天长印巷S2-31059","phone":"13615603276","category":"医疗保健服务;动物医疗场所;宠物诊所","area":"","lng":118.998549,"lat":32.663061,"amap_id":"B0H059IC6R","order":8,"prev_distance_km":0.342,"cumulative_distance_km":37.202,"amap_marker_url":"https://uri.amap.com/marker?position=118.998549,32.663061&name=%E8%8D%A3%E5%AE%A0%E5%AE%A0%E7%89%A9%E5%8C%BB%E9%99%A2&src=vetmap&coordinate=gaode&callnative=1","route_id":"r1","route_name":"第1段"},{"name":"天长市冶山镇畜牧兽医站","address":"冶山镇长江路24号附近","phone":"","category":"医疗保健服务;动物医疗场所;兽医站","area":"","lng":118.999524,"lat":32.528397,"amap_id":"B0FFGENPRN","order":9,"prev_distance_km":14.974,"cumulative_distance_km":52.176,"amap_marker_url":"https://uri.amap.com/marker?position=118.999524,32.528397&name=%E5%A4%A9%E9%95%BF%E5%B8%82%E5%86%B6%E5%B1%B1%E9%95%87%E7%95%9C%E7%89%A7%E5%85%BD%E5%8C%BB%E7%AB%99&src=vetmap&coordinate=gaode&callnative=1","route_id":"r1","route_name":"第1段"},{"name":"汪府宠物烘焙店","address":"秦栏镇天一四季花园","phone":"18552585200","category":"医疗保健服务;动物医疗场所;动物医疗场所","area":"","lng":119.169484,"lat":32.604015,"amap_id":"B0KKBZAD3C","order":10,"prev_distance_km":18.011,"cumulative_distance_km":70.187,"amap_marker_url":"https://uri.amap.com/marker?position=119.169484,32.604015&name=%E6%B1%AA%E5%BA%9C%E5%AE%A0%E7%89%A9%E7%83%98%E7%84%99%E5%BA%97&src=vetmap&coordinate=gaode&callnative=1","route_id":"r1","route_name":"第1段"},{"name":"秦栏兽医站兽药经营部","address":"北后街与秦新路交叉口西南40米","phone":"","category":"医疗保健服务;动物医疗场所;兽医站","area":"","lng":119.185874,"lat":32.601317,"amap_id":"B0K3M7HS2I","order":11,"prev_distance_km":1.564,"cumulative_distance_km":71.751,"amap_marker_url":"https://uri.amap.com/marker?position=119.185874,32.601317&name=%E7%A7%A6%E6%A0%8F%E5%85%BD%E5%8C%BB%E7%AB%99%E5%85%BD%E8%8D%AF%E7%BB%8F%E8%90%A5%E9%83%A8&src=vetmap&coordinate=gaode&callnative=1","route_id":"r1","route_name":"第1段"}]}],"rows":[{"name":"黄家元亨兽医服务部","address":"汊涧镇商贸路11号","phone":"13013022060;13205502676","category":"医疗保健服务;动物医疗场所;兽医站","area":"","lng":118.777705,"lat":32.672288,"amap_id":"B0FFG83JWG","order":1,"prev_distance_km":0.0,"cumulative_distance_km":0.0,"amap_marker_url":"https://uri.amap.com/marker?position=118.777705,32.672288&name=%E9%BB%84%E5%AE%B6%E5%85%83%E4%BA%A8%E5%85%BD%E5%8C%BB%E6%9C%8D%E5%8A%A1%E9%83%A8&src=vetmap&coordinate=gaode&callnative=1","route_id":"r1","route_name":"第1段","global_order":1},{"name":"张铺兽医站","address":"天王路与油田路交叉口南120米","phone":"","category":"医疗保健服务;动物医疗场所;兽医站","area":"","lng":118.790775,"lat":32.761075,"amap_id":"B0L2GLTUUF","order":2,"prev_distance_km":9.948,"cumulative_distance_km":9.948,"amap_marker_url":"https://uri.amap.com/marker?position=118.790775,32.761075&name=%E5%BC%A0%E9%93%BA%E5%85%BD%E5%8C%BB%E7%AB%99&src=vetmap&coordinate=gaode&callnative=1","route_id":"r1","route_name":"第1段","global_order":2},{"name":"永丰兽医站","address":"上泊湖排涝总站东南门北60米","phone":"13865811885;13965985246","category":"医疗保健服务;动物医疗场所;兽医站","area":"","lng":118.99747,"lat":32.728127,"amap_id":"B0FFFZEEGO","order":3,"prev_distance_km":19.675,"cumulative_distance_km":29.623,"amap_marker_url":"https://uri.amap.com/marker?position=118.997470,32.728127&name=%E6%B0%B8%E4%B8%B0%E5%85%BD%E5%8C%BB%E7%AB%99&src=vetmap&coordinate=gaode&callnative=1","route_id":"r1","route_name":"第1段","global_order":3},{"name":"倍康宠物医疗中心","address":"景湖一品南门旁","phone":"15855067702","category":"医疗保健服务;动物医疗场所;宠物诊所","area":"","lng":118.993886,"lat":32.679834,"amap_id":"B0H0773Z7D","order":4,"prev_distance_km":5.38,"cumulative_distance_km":35.004,"amap_marker_url":"https://uri.amap.com/marker?position=118.993886,32.679834&name=%E5%80%8D%E5%BA%B7%E5%AE%A0%E7%89%A9%E5%8C%BB%E7%96%97%E4%B8%AD%E5%BF%83&src=vetmap&coordinate=gaode&callnative=1","route_id":"r1","route_name":"第1段","global_order":4},{"name":"宠园宠物医院美容院(同心路店)","address":"同心路105号","phone":"0550-7723000;13866529777","category":"医疗保健服务;动物医疗场所;宠物诊所","area":"","lng":118.992798,"lat":32.673663,"amap_id":"B0FFHO96BA","order":5,"prev_distance_km":0.694,"cumulative_distance_km":35.697,"amap_marker_url":"https://uri.amap.com/marker?position=118.992798,32.673663&name=%E5%AE%A0%E5%9B%AD%E5%AE%A0%E7%89%A9%E5%8C%BB%E9%99%A2%E7%BE%8E%E5%AE%B9%E9%99%A2%28%E5%90%8C%E5%BF%83%E8%B7%AF%E5%BA%97%29&src=vetmap&coordinate=gaode&callnative=1","route_id":"r1","route_name":"第1段","global_order":5},{"name":"佰佳动物医院","address":"炳辉西路11号","phone":"","category":"医疗保健服务;动物医疗场所;宠物诊所","area":"","lng":118.995697,"lat":32.668274,"amap_id":"B0M6OHLZ1A","order":6,"prev_distance_km":0.658,"cumulative_distance_km":36.355,"amap_marker_url":"https://uri.amap.com/marker?position=118.995697,32.668274&name=%E4%BD%B0%E4%BD%B3%E5%8A%A8%E7%89%A9%E5%8C%BB%E9%99%A2&src=vetmap&coordinate=gaode&callnative=1","route_id":"r1","route_name":"第1段","global_order":6},{"name":"安琪尔宠物医院","address":"新河南路天翔幸福城s3-114(吾悦广场西门对面)","phone":"17755031626","category":"医疗保健服务;动物医疗场所;宠物诊所","area":"","lng":118.994997,"lat":32.663769,"amap_id":"B0KKFHQLD9","order":7,"prev_distance_km":0.505,"cumulative_distance_km":36.86,"amap_marker_url":"https://uri.amap.com/marker?position=118.994997,32.663769&name=%E5%AE%89%E7%90%AA%E5%B0%94%E5%AE%A0%E7%89%A9%E5%8C%BB%E9%99%A2&src=vetmap&coordinate=gaode&callnative=1","route_id":"r1","route_name":"第1段","global_order":7},{"name":"荣宠宠物医院","address":"吾悦广场室外街天长印巷S2-31059","phone":"13615603276","category":"医疗保健服务;动物医疗场所;宠物诊所","area":"","lng":118.998549,"lat":32.663061,"amap_id":"B0H059IC6R","order":8,"prev_distance_km":0.342,"cumulative_distance_km":37.202,"amap_marker_url":"https://uri.amap.com/marker?position=118.998549,32.663061&name=%E8%8D%A3%E5%AE%A0%E5%AE%A0%E7%89%A9%E5%8C%BB%E9%99%A2&src=vetmap&coordinate=gaode&callnative=1","route_id":"r1","route_name":"第1段","global_order":8},{"name":"天长市冶山镇畜牧兽医站","address":"冶山镇长江路24号附近","phone":"","category":"医疗保健服务;动物医疗场所;兽医站","area":"","lng":118.999524,"lat":32.528397,"amap_id":"B0FFGENPRN","order":9,"prev_distance_km":14.974,"cumulative_distance_km":52.176,"amap_marker_url":"https://uri.amap.com/marker?position=118.999524,32.528397&name=%E5%A4%A9%E9%95%BF%E5%B8%82%E5%86%B6%E5%B1%B1%E9%95%87%E7%95%9C%E7%89%A7%E5%85%BD%E5%8C%BB%E7%AB%99&src=vetmap&coordinate=gaode&callnative=1","route_id":"r1","route_name":"第1段","global_order":9},{"name":"汪府宠物烘焙店","address":"秦栏镇天一四季花园","phone":"18552585200","category":"医疗保健服务;动物医疗场所;动物医疗场所","area":"","lng":119.169484,"lat":32.604015,"amap_id":"B0KKBZAD3C","order":10,"prev_distance_km":18.011,"cumulative_distance_km":70.187,"amap_marker_url":"https://uri.amap.com/marker?position=119.169484,32.604015&name=%E6%B1%AA%E5%BA%9C%E5%AE%A0%E7%89%A9%E7%83%98%E7%84%99%E5%BA%97&src=vetmap&coordinate=gaode&callnative=1","route_id":"r1","route_name":"第1段","global_order":10},{"name":"秦栏兽医站兽药经营部","address":"北后街与秦新路交叉口西南40米","phone":"","category":"医疗保健服务;动物医疗场所;兽医站","area":"","lng":119.185874,"lat":32.601317,"amap_id":"B0K3M7HS2I","order":11,"prev_distance_km":1.564,"cumulative_distance_km":71.751,"amap_marker_url":"https://uri.amap.com/marker?position=119.185874,32.601317&name=%E7%A7%A6%E6%A0%8F%E5%85%BD%E5%8C%BB%E7%AB%99%E5%85%BD%E8%8D%AF%E7%BB%8F%E8%90%A5%E9%83%A8&src=vetmap&coordinate=gaode&callnative=1","route_id":"r1","route_name":"第1段","global_order":11}]}