{"summary":{"id":"d00266","province":"安徽省","city":"滁州市","district":"凤阳县","count":15,"route_count":1,"max_route_clinics":15,"total_distance_km":86.0,"coordinate_system":"GCJ-02 / Amap","generated_at":"2026-05-08 19:41:47"},"routes":[{"id":"r1","name":"第1段","count":15,"total_distance_km":86.0,"rows":[{"name":"兽医门诊","address":"长大路与文体路交叉口东南460米","phone":"","category":"医疗保健服务;动物医疗场所;兽医站","area":"","lng":117.826887,"lat":32.890239,"amap_id":"B0FFKQ0A0O","order":1,"prev_distance_km":0.0,"cumulative_distance_km":0.0,"amap_marker_url":"https://uri.amap.com/marker?position=117.826887,32.890239&name=%E5%85%BD%E5%8C%BB%E9%97%A8%E8%AF%8A&src=vetmap&coordinate=gaode&callnative=1","route_id":"r1","route_name":"第1段"},{"name":"凤阳县朱宁兽药店","address":"板桥镇二铺社区南街100号","phone":"","category":"医疗保健服务;动物医疗场所;动物医疗场所","area":"","lng":117.665626,"lat":32.823689,"amap_id":"B0LDNS0FST","order":2,"prev_distance_km":16.782,"cumulative_distance_km":16.782,"amap_marker_url":"https://uri.amap.com/marker?position=117.665626,32.823689&name=%E5%87%A4%E9%98%B3%E5%8E%BF%E6%9C%B1%E5%AE%81%E5%85%BD%E8%8D%AF%E5%BA%97&src=vetmap&coordinate=gaode&callnative=1","route_id":"r1","route_name":"第1段"},{"name":"临淮关宠物医院","address":"临淮镇太平社区人社服务窗口西南侧","phone":"","category":"医疗保健服务;动物医疗场所;宠物诊所","area":"","lng":117.649363,"lat":32.907322,"amap_id":"B0JUPMSNZ6","order":3,"prev_distance_km":9.423,"cumulative_distance_km":26.205,"amap_marker_url":"https://uri.amap.com/marker?position=117.649363,32.907322&name=%E4%B8%B4%E6%B7%AE%E5%85%B3%E5%AE%A0%E7%89%A9%E5%8C%BB%E9%99%A2&src=vetmap&coordinate=gaode&callnative=1","route_id":"r1","route_name":"第1段"},{"name":"门台子畜牧兽医","address":"合蚌路与中都大道交叉口西北80米","phone":"","category":"医疗保健服务;动物医疗场所;兽医站","area":"","lng":117.538923,"lat":32.910555,"amap_id":"B02260QNDG","order":4,"prev_distance_km":10.316,"cumulative_distance_km":36.521,"amap_marker_url":"https://uri.amap.com/marker?position=117.538923,32.910555&name=%E9%97%A8%E5%8F%B0%E5%AD%90%E7%95%9C%E7%89%A7%E5%85%BD%E5%8C%BB&src=vetmap&coordinate=gaode&callnative=1","route_id":"r1","route_name":"第1段"},{"name":"柳老师畜禽门诊","address":"龙兴路与教场路交叉口西100米","phone":"13505551964;13955069848","category":"医疗保健服务;动物医疗场所;兽医站","area":"","lng":117.574181,"lat":32.876251,"amap_id":"B0FFKPCRS2","order":5,"prev_distance_km":5.039,"cumulative_distance_km":41.56,"amap_marker_url":"https://uri.amap.com/marker?position=117.574181,32.876251&name=%E6%9F%B3%E8%80%81%E5%B8%88%E7%95%9C%E7%A6%BD%E9%97%A8%E8%AF%8A&src=vetmap&coordinate=gaode&callnative=1","route_id":"r1","route_name":"第1段"},{"name":"为民畜禽服务部","address":"同仁小区西门旁","phone":"","category":"医疗保健服务;动物医疗场所;兽医站","area":"","lng":117.57558,"lat":32.872022,"amap_id":"B0GUB9Q8YW","order":6,"prev_distance_km":0.488,"cumulative_distance_km":42.048,"amap_marker_url":"https://uri.amap.com/marker?position=117.575580,32.872022&name=%E4%B8%BA%E6%B0%91%E7%95%9C%E7%A6%BD%E6%9C%8D%E5%8A%A1%E9%83%A8&src=vetmap&coordinate=gaode&callnative=1","route_id":"r1","route_name":"第1段"},{"name":"科技学院附属兽医院","address":"安徽科技学院幼儿园南门东50米","phone":"","category":"医疗保健服务;动物医疗场所;兽医站","area":"","lng":117.565152,"lat":32.871759,"amap_id":"B0KGCOXCBD","order":7,"prev_distance_km":0.974,"cumulative_distance_km":43.022,"amap_marker_url":"https://uri.amap.com/marker?position=117.565152,32.871759&name=%E7%A7%91%E6%8A%80%E5%AD%A6%E9%99%A2%E9%99%84%E5%B1%9E%E5%85%BD%E5%8C%BB%E9%99%A2&src=vetmap&coordinate=gaode&callnative=1","route_id":"r1","route_name":"第1段"},{"name":"博爱宠物门诊","address":"东华路45-77号","phone":"15212062158","category":"医疗保健服务;动物医疗场所;宠物诊所","area":"","lng":117.562282,"lat":32.871954,"amap_id":"B0FFGYYO7Q","order":8,"prev_distance_km":0.269,"cumulative_distance_km":43.291,"amap_marker_url":"https://uri.amap.com/marker?position=117.562282,32.871954&name=%E5%8D%9A%E7%88%B1%E5%AE%A0%E7%89%A9%E9%97%A8%E8%AF%8A&src=vetmap&coordinate=gaode&callnative=1","route_id":"r1","route_name":"第1段"},{"name":"恒友爱宠物门诊","address":"东华路与九华路交叉口西140米","phone":"","category":"医疗保健服务;动物医疗场所;宠物诊所","area":"","lng":117.562227,"lat":32.871973,"amap_id":"B0JR35AKPR","order":9,"prev_distance_km":0.006,"cumulative_distance_km":43.297,"amap_marker_url":"https://uri.amap.com/marker?position=117.562227,32.871973&name=%E6%81%92%E5%8F%8B%E7%88%B1%E5%AE%A0%E7%89%A9%E9%97%A8%E8%AF%8A&src=vetmap&coordinate=gaode&callnative=1","route_id":"r1","route_name":"第1段"},{"name":"爪爪萌宠","address":"楼西街31号爪爪萌宠","phone":"15155009434","category":"医疗保健服务;动物医疗场所;动物医疗场所","area":"","lng":117.561425,"lat":32.862894,"amap_id":"B0LK1DDTYF","order":10,"prev_distance_km":1.012,"cumulative_distance_km":44.309,"amap_marker_url":"https://uri.amap.com/marker?position=117.561425,32.862894&name=%E7%88%AA%E7%88%AA%E8%90%8C%E5%AE%A0&src=vetmap&coordinate=gaode&callnative=1","route_id":"r1","route_name":"第1段"},{"name":"莱德宠物医院","address":"中都街道仁爱路112号","phone":"0550-6732891;18055060978","category":"医疗保健服务;动物医疗场所;宠物诊所","area":"","lng":117.529302,"lat":32.865626,"amap_id":"B0LBPS6NDW","order":11,"prev_distance_km":3.016,"cumulative_distance_km":47.325,"amap_marker_url":"https://uri.amap.com/marker?position=117.529302,32.865626&name=%E8%8E%B1%E5%BE%B7%E5%AE%A0%E7%89%A9%E5%8C%BB%E9%99%A2&src=vetmap&coordinate=gaode&callnative=1","route_id":"r1","route_name":"第1段"},{"name":"凤阳县动物疫病预防与控制中心","address":"钟楼新苑东门南80米","phone":"0550-2213202","category":"医疗保健服务;动物医疗场所;动物医疗场所","area":"","lng":117.526165,"lat":32.858544,"amap_id":"B0FFIOTG29","order":12,"prev_distance_km":0.84,"cumulative_distance_km":48.165,"amap_marker_url":"https://uri.amap.com/marker?position=117.526165,32.858544&name=%E5%87%A4%E9%98%B3%E5%8E%BF%E5%8A%A8%E7%89%A9%E7%96%AB%E7%97%85%E9%A2%84%E9%98%B2%E4%B8%8E%E6%8E%A7%E5%88%B6%E4%B8%AD%E5%BF%83&src=vetmap&coordinate=gaode&callnative=1","route_id":"r1","route_name":"第1段"},{"name":"兽药饲料兽医","address":"凤周路与庙北路交叉口南60米","phone":"","category":"医疗保健服务;动物医疗场所;兽医站","area":"","lng":117.519028,"lat":32.780076,"amap_id":"B0FFKDX4H1","order":13,"prev_distance_km":8.751,"cumulative_distance_km":56.916,"amap_marker_url":"https://uri.amap.com/marker?position=117.519028,32.780076&name=%E5%85%BD%E8%8D%AF%E9%A5%B2%E6%96%99%E5%85%BD%E5%8C%BB&src=vetmap&coordinate=gaode&callnative=1","route_id":"r1","route_name":"第1段"},{"name":"太山兽药店","address":"农贸街与九龙街交叉口东20米","phone":"","category":"医疗保健服务;动物医疗场所;动物医疗场所","area":"","lng":117.336025,"lat":32.796525,"amap_id":"B0LGLL6UNL","order":14,"prev_distance_km":17.204,"cumulative_distance_km":74.12,"amap_marker_url":"https://uri.amap.com/marker?position=117.336025,32.796525&name=%E5%A4%AA%E5%B1%B1%E5%85%BD%E8%8D%AF%E5%BA%97&src=vetmap&coordinate=gaode&callnative=1","route_id":"r1","route_name":"第1段"},{"name":"武店兽医站","address":"凤武路与经武路交叉口西100米","phone":"","category":"医疗保健服务;动物医疗场所;兽医站","area":"","lng":117.294825,"lat":32.695459,"amap_id":"B0G3ZSQFVE","order":15,"prev_distance_km":11.88,"cumulative_distance_km":86.0,"amap_marker_url":"https://uri.amap.com/marker?position=117.294825,32.695459&name=%E6%AD%A6%E5%BA%97%E5%85%BD%E5%8C%BB%E7%AB%99&src=vetmap&coordinate=gaode&callnative=1","route_id":"r1","route_name":"第1段"}]}],"rows":[{"name":"兽医门诊","address":"长大路与文体路交叉口东南460米","phone":"","category":"医疗保健服务;动物医疗场所;兽医站","area":"","lng":117.826887,"lat":32.890239,"amap_id":"B0FFKQ0A0O","order":1,"prev_distance_km":0.0,"cumulative_distance_km":0.0,"amap_marker_url":"https://uri.amap.com/marker?position=117.826887,32.890239&name=%E5%85%BD%E5%8C%BB%E9%97%A8%E8%AF%8A&src=vetmap&coordinate=gaode&callnative=1","route_id":"r1","route_name":"第1段","global_order":1},{"name":"凤阳县朱宁兽药店","address":"板桥镇二铺社区南街100号","phone":"","category":"医疗保健服务;动物医疗场所;动物医疗场所","area":"","lng":117.665626,"lat":32.823689,"amap_id":"B0LDNS0FST","order":2,"prev_distance_km":16.782,"cumulative_distance_km":16.782,"amap_marker_url":"https://uri.amap.com/marker?position=117.665626,32.823689&name=%E5%87%A4%E9%98%B3%E5%8E%BF%E6%9C%B1%E5%AE%81%E5%85%BD%E8%8D%AF%E5%BA%97&src=vetmap&coordinate=gaode&callnative=1","route_id":"r1","route_name":"第1段","global_order":2},{"name":"临淮关宠物医院","address":"临淮镇太平社区人社服务窗口西南侧","phone":"","category":"医疗保健服务;动物医疗场所;宠物诊所","area":"","lng":117.649363,"lat":32.907322,"amap_id":"B0JUPMSNZ6","order":3,"prev_distance_km":9.423,"cumulative_distance_km":26.205,"amap_marker_url":"https://uri.amap.com/marker?position=117.649363,32.907322&name=%E4%B8%B4%E6%B7%AE%E5%85%B3%E5%AE%A0%E7%89%A9%E5%8C%BB%E9%99%A2&src=vetmap&coordinate=gaode&callnative=1","route_id":"r1","route_name":"第1段","global_order":3},{"name":"门台子畜牧兽医","address":"合蚌路与中都大道交叉口西北80米","phone":"","category":"医疗保健服务;动物医疗场所;兽医站","area":"","lng":117.538923,"lat":32.910555,"amap_id":"B02260QNDG","order":4,"prev_distance_km":10.316,"cumulative_distance_km":36.521,"amap_marker_url":"https://uri.amap.com/marker?position=117.538923,32.910555&name=%E9%97%A8%E5%8F%B0%E5%AD%90%E7%95%9C%E7%89%A7%E5%85%BD%E5%8C%BB&src=vetmap&coordinate=gaode&callnative=1","route_id":"r1","route_name":"第1段","global_order":4},{"name":"柳老师畜禽门诊","address":"龙兴路与教场路交叉口西100米","phone":"13505551964;13955069848","category":"医疗保健服务;动物医疗场所;兽医站","area":"","lng":117.574181,"lat":32.876251,"amap_id":"B0FFKPCRS2","order":5,"prev_distance_km":5.039,"cumulative_distance_km":41.56,"amap_marker_url":"https://uri.amap.com/marker?position=117.574181,32.876251&name=%E6%9F%B3%E8%80%81%E5%B8%88%E7%95%9C%E7%A6%BD%E9%97%A8%E8%AF%8A&src=vetmap&coordinate=gaode&callnative=1","route_id":"r1","route_name":"第1段","global_order":5},{"name":"为民畜禽服务部","address":"同仁小区西门旁","phone":"","category":"医疗保健服务;动物医疗场所;兽医站","area":"","lng":117.57558,"lat":32.872022,"amap_id":"B0GUB9Q8YW","order":6,"prev_distance_km":0.488,"cumulative_distance_km":42.048,"amap_marker_url":"https://uri.amap.com/marker?position=117.575580,32.872022&name=%E4%B8%BA%E6%B0%91%E7%95%9C%E7%A6%BD%E6%9C%8D%E5%8A%A1%E9%83%A8&src=vetmap&coordinate=gaode&callnative=1","route_id":"r1","route_name":"第1段","global_order":6},{"name":"科技学院附属兽医院","address":"安徽科技学院幼儿园南门东50米","phone":"","category":"医疗保健服务;动物医疗场所;兽医站","area":"","lng":117.565152,"lat":32.871759,"amap_id":"B0KGCOXCBD","order":7,"prev_distance_km":0.974,"cumulative_distance_km":43.022,"amap_marker_url":"https://uri.amap.com/marker?position=117.565152,32.871759&name=%E7%A7%91%E6%8A%80%E5%AD%A6%E9%99%A2%E9%99%84%E5%B1%9E%E5%85%BD%E5%8C%BB%E9%99%A2&src=vetmap&coordinate=gaode&callnative=1","route_id":"r1","route_name":"第1段","global_order":7},{"name":"博爱宠物门诊","address":"东华路45-77号","phone":"15212062158","category":"医疗保健服务;动物医疗场所;宠物诊所","area":"","lng":117.562282,"lat":32.871954,"amap_id":"B0FFGYYO7Q","order":8,"prev_distance_km":0.269,"cumulative_distance_km":43.291,"amap_marker_url":"https://uri.amap.com/marker?position=117.562282,32.871954&name=%E5%8D%9A%E7%88%B1%E5%AE%A0%E7%89%A9%E9%97%A8%E8%AF%8A&src=vetmap&coordinate=gaode&callnative=1","route_id":"r1","route_name":"第1段","global_order":8},{"name":"恒友爱宠物门诊","address":"东华路与九华路交叉口西140米","phone":"","category":"医疗保健服务;动物医疗场所;宠物诊所","area":"","lng":117.562227,"lat":32.871973,"amap_id":"B0JR35AKPR","order":9,"prev_distance_km":0.006,"cumulative_distance_km":43.297,"amap_marker_url":"https://uri.amap.com/marker?position=117.562227,32.871973&name=%E6%81%92%E5%8F%8B%E7%88%B1%E5%AE%A0%E7%89%A9%E9%97%A8%E8%AF%8A&src=vetmap&coordinate=gaode&callnative=1","route_id":"r1","route_name":"第1段","global_order":9},{"name":"爪爪萌宠","address":"楼西街31号爪爪萌宠","phone":"15155009434","category":"医疗保健服务;动物医疗场所;动物医疗场所","area":"","lng":117.561425,"lat":32.862894,"amap_id":"B0LK1DDTYF","order":10,"prev_distance_km":1.012,"cumulative_distance_km":44.309,"amap_marker_url":"https://uri.amap.com/marker?position=117.561425,32.862894&name=%E7%88%AA%E7%88%AA%E8%90%8C%E5%AE%A0&src=vetmap&coordinate=gaode&callnative=1","route_id":"r1","route_name":"第1段","global_order":10},{"name":"莱德宠物医院","address":"中都街道仁爱路112号","phone":"0550-6732891;18055060978","category":"医疗保健服务;动物医疗场所;宠物诊所","area":"","lng":117.529302,"lat":32.865626,"amap_id":"B0LBPS6NDW","order":11,"prev_distance_km":3.016,"cumulative_distance_km":47.325,"amap_marker_url":"https://uri.amap.com/marker?position=117.529302,32.865626&name=%E8%8E%B1%E5%BE%B7%E5%AE%A0%E7%89%A9%E5%8C%BB%E9%99%A2&src=vetmap&coordinate=gaode&callnative=1","route_id":"r1","route_name":"第1段","global_order":11},{"name":"凤阳县动物疫病预防与控制中心","address":"钟楼新苑东门南80米","phone":"0550-2213202","category":"医疗保健服务;动物医疗场所;动物医疗场所","area":"","lng":117.526165,"lat":32.858544,"amap_id":"B0FFIOTG29","order":12,"prev_distance_km":0.84,"cumulative_distance_km":48.165,"amap_marker_url":"https://uri.amap.com/marker?position=117.526165,32.858544&name=%E5%87%A4%E9%98%B3%E5%8E%BF%E5%8A%A8%E7%89%A9%E7%96%AB%E7%97%85%E9%A2%84%E9%98%B2%E4%B8%8E%E6%8E%A7%E5%88%B6%E4%B8%AD%E5%BF%83&src=vetmap&coordinate=gaode&callnative=1","route_id":"r1","route_name":"第1段","global_order":12},{"name":"兽药饲料兽医","address":"凤周路与庙北路交叉口南60米","phone":"","category":"医疗保健服务;动物医疗场所;兽医站","area":"","lng":117.519028,"lat":32.780076,"amap_id":"B0FFKDX4H1","order":13,"prev_distance_km":8.751,"cumulative_distance_km":56.916,"amap_marker_url":"https://uri.amap.com/marker?position=117.519028,32.780076&name=%E5%85%BD%E8%8D%AF%E9%A5%B2%E6%96%99%E5%85%BD%E5%8C%BB&src=vetmap&coordinate=gaode&callnative=1","route_id":"r1","route_name":"第1段","global_order":13},{"name":"太山兽药店","address":"农贸街与九龙街交叉口东20米","phone":"","category":"医疗保健服务;动物医疗场所;动物医疗场所","area":"","lng":117.336025,"lat":32.796525,"amap_id":"B0LGLL6UNL","order":14,"prev_distance_km":17.204,"cumulative_distance_km":74.12,"amap_marker_url":"https://uri.amap.com/marker?position=117.336025,32.796525&name=%E5%A4%AA%E5%B1%B1%E5%85%BD%E8%8D%AF%E5%BA%97&src=vetmap&coordinate=gaode&callnative=1","route_id":"r1","route_name":"第1段","global_order":14},{"name":"武店兽医站","address":"凤武路与经武路交叉口西100米","phone":"","category":"医疗保健服务;动物医疗场所;兽医站","area":"","lng":117.294825,"lat":32.695459,"amap_id":"B0G3ZSQFVE","order":15,"prev_distance_km":11.88,"cumulative_distance_km":86.0,"amap_marker_url":"https://uri.amap.com/marker?position=117.294825,32.695459&name=%E6%AD%A6%E5%BA%97%E5%85%BD%E5%8C%BB%E7%AB%99&src=vetmap&coordinate=gaode&callnative=1","route_id":"r1","route_name":"第1段","global_order":15}]}