{"summary":{"id":"d00226","province":"安徽省","city":"合肥市","district":"蜀山区","count":85,"total_distance_km":112.233,"coordinate_system":"GCJ-02 / Amap","generated_at":"2026-05-07 19:56:07"},"rows":[{"name":"高刘街道洪店畜牧兽医门诊(宠物诊室)","address":"高刘镇青山村","phone":"15395062899","category":"医疗保健服务;动物医疗场所;兽医站","area":"","lng":116.896481,"lat":31.950081,"amap_id":"B0JD692NPH","order":1,"prev_distance_km":0.0,"cumulative_distance_km":0.0,"amap_marker_url":"https://uri.amap.com/marker?position=116.896481,31.950081&name=%E9%AB%98%E5%88%98%E8%A1%97%E9%81%93%E6%B4%AA%E5%BA%97%E7%95%9C%E7%89%A7%E5%85%BD%E5%8C%BB%E9%97%A8%E8%AF%8A%28%E5%AE%A0%E7%89%A9%E8%AF%8A%E5%AE%A4%29&src=vetmap&coordinate=gaode&callnative=1"},{"name":"合肥市小庙镇世仓喜药经营部","address":"095乡道与长江西路交叉口东北240米","phone":"","category":"医疗保健服务;动物医疗场所;宠物诊所","area":"","lng":116.949763,"lat":31.826778,"amap_id":"B0K3X5V91A","order":2,"prev_distance_km":14.604,"cumulative_distance_km":14.604,"amap_marker_url":"https://uri.amap.com/marker?position=116.949763,31.826778&name=%E5%90%88%E8%82%A5%E5%B8%82%E5%B0%8F%E5%BA%99%E9%95%87%E4%B8%96%E4%BB%93%E5%96%9C%E8%8D%AF%E7%BB%8F%E8%90%A5%E9%83%A8&src=vetmap&coordinate=gaode&callnative=1"},{"name":"乐康宠物诊所","address":"小庙镇庙塘路18号","phone":"15375296057","category":"医疗保健服务;动物医疗场所;宠物诊所","area":"小庙","lng":117.017435,"lat":31.845404,"amap_id":"B0L25OD8FJ","order":3,"prev_distance_km":6.72,"cumulative_distance_km":21.324,"amap_marker_url":"https://uri.amap.com/marker?position=117.017435,31.845404&name=%E4%B9%90%E5%BA%B7%E5%AE%A0%E7%89%A9%E8%AF%8A%E6%89%80&src=vetmap&coordinate=gaode&callnative=1"},{"name":"檀氏宠物医院","address":"长宁大道与彩虹路交叉口雍锦花园63栋商107室","phone":"18356069402","category":"医疗保健服务;动物医疗场所;宠物诊所","area":"","lng":117.116847,"lat":31.841021,"amap_id":"B0HBNZWJJB","order":4,"prev_distance_km":9.403,"cumulative_distance_km":30.727,"amap_marker_url":"https://uri.amap.com/marker?position=117.116847,31.841021&name=%E6%AA%80%E6%B0%8F%E5%AE%A0%E7%89%A9%E5%8C%BB%E9%99%A2&src=vetmap&coordinate=gaode&callnative=1"},{"name":"君悦宠物医院(雍锦半岛店)","address":"彩虹路与长宁大道交叉口","phone":"18356069402","category":"医疗保健服务;动物医疗场所;宠物诊所","area":"","lng":117.117096,"lat":31.840917,"amap_id":"B0HBRX66G6","order":5,"prev_distance_km":0.026,"cumulative_distance_km":30.754,"amap_marker_url":"https://uri.amap.com/marker?position=117.117096,31.840917&name=%E5%90%9B%E6%82%A6%E5%AE%A0%E7%89%A9%E5%8C%BB%E9%99%A2%28%E9%9B%8D%E9%94%A6%E5%8D%8A%E5%B2%9B%E5%BA%97%29&src=vetmap&coordinate=gaode&callnative=1"},{"name":"贝乐宠动物医院","address":"石莲南路与彩虹路交口向西50米","phone":"13655607319","category":"医疗保健服务;动物医疗场所;宠物诊所","area":"","lng":117.125441,"lat":31.843533,"amap_id":"B0LACLJCWB","order":6,"prev_distance_km":0.84,"cumulative_distance_km":31.594,"amap_marker_url":"https://uri.amap.com/marker?position=117.125441,31.843533&name=%E8%B4%9D%E4%B9%90%E5%AE%A0%E5%8A%A8%E7%89%A9%E5%8C%BB%E9%99%A2&src=vetmap&coordinate=gaode&callnative=1"},{"name":"翎越宠物医院·复杂内外科·急重症中心医院","address":"龙湖一路与石镜路交叉口东80米","phone":"15156022835","category":"医疗保健服务;动物医疗场所;宠物诊所","area":"","lng":117.12277,"lat":31.847833,"amap_id":"B0KGFR2H0G","order":7,"prev_distance_km":0.541,"cumulative_distance_km":32.134,"amap_marker_url":"https://uri.amap.com/marker?position=117.122770,31.847833&name=%E7%BF%8E%E8%B6%8A%E5%AE%A0%E7%89%A9%E5%8C%BB%E9%99%A2%C2%B7%E5%A4%8D%E6%9D%82%E5%86%85%E5%A4%96%E7%A7%91%C2%B7%E6%80%A5%E9%87%8D%E7%97%87%E4%B8%AD%E5%BF%83%E5%8C%BB%E9%99%A2&src=vetmap&coordinate=gaode&callnative=1"},{"name":"福芯宠物","address":"长宁社区服务中心创新大道与皖水路交口圣联时代广场A1幢","phone":"4009099319","category":"医疗保健服务;动物医疗场所;动物医疗场所","area":"","lng":117.142975,"lat":31.847749,"amap_id":"B0L07KZS72","order":8,"prev_distance_km":1.908,"cumulative_distance_km":34.043,"amap_marker_url":"https://uri.amap.com/marker?position=117.142975,31.847749&name=%E7%A6%8F%E8%8A%AF%E5%AE%A0%E7%89%A9&src=vetmap&coordinate=gaode&callnative=1"},{"name":"瑞派美合宠物医院中心医院","address":"长江西路199号加侨悦山城B座109商铺旁","phone":"19905692778","category":"医疗保健服务;动物医疗场所;宠物诊所","area":"","lng":117.151474,"lat":31.851676,"amap_id":"B0I6CCKPCC","order":9,"prev_distance_km":0.914,"cumulative_distance_km":34.957,"amap_marker_url":"https://uri.amap.com/marker?position=117.151474,31.851676&name=%E7%91%9E%E6%B4%BE%E7%BE%8E%E5%90%88%E5%AE%A0%E7%89%A9%E5%8C%BB%E9%99%A2%E4%B8%AD%E5%BF%83%E5%8C%BB%E9%99%A2&src=vetmap&coordinate=gaode&callnative=1"},{"name":"永护宠物医院·急重症·犬猫诊疗中心","address":"长江西路199号加侨悦山城B幢办公楼商104(B座商铺旁)","phone":"19356511822","category":"医疗保健服务;动物医疗场所;宠物诊所","area":"","lng":117.151796,"lat":31.851638,"amap_id":"B0I2UZR5GY","order":10,"prev_distance_km":0.031,"cumulative_distance_km":34.987,"amap_marker_url":"https://uri.amap.com/marker?position=117.151796,31.851638&name=%E6%B0%B8%E6%8A%A4%E5%AE%A0%E7%89%A9%E5%8C%BB%E9%99%A2%C2%B7%E6%80%A5%E9%87%8D%E7%97%87%C2%B7%E7%8A%AC%E7%8C%AB%E8%AF%8A%E7%96%97%E4%B8%AD%E5%BF%83&src=vetmap&coordinate=gaode&callnative=1"},{"name":"康悦宠物医院·猫科·疑难内科","address":"振兴路华邦蜀山里20号106","phone":"0551-62683887;18056013901","category":"医疗保健服务;动物医疗场所;宠物诊所","area":"井岗","lng":117.150588,"lat":31.855018,"amap_id":"B0FFLLWZWQ","order":11,"prev_distance_km":0.393,"cumulative_distance_km":35.38,"amap_marker_url":"https://uri.amap.com/marker?position=117.150588,31.855018&name=%E5%BA%B7%E6%82%A6%E5%AE%A0%E7%89%A9%E5%8C%BB%E9%99%A2%C2%B7%E7%8C%AB%E7%A7%91%C2%B7%E7%96%91%E9%9A%BE%E5%86%85%E7%A7%91&src=vetmap&coordinate=gaode&callnative=1"},{"name":"蜀峰宠物医院","address":"蜀峰路231号红皖家园s14幢105商铺","phone":"19155105570;19159025179","category":"医疗保健服务;动物医疗场所;宠物诊所","area":"井岗","lng":117.168127,"lat":31.854823,"amap_id":"B0IU1ZWCAK","order":12,"prev_distance_km":1.657,"cumulative_distance_km":37.037,"amap_marker_url":"https://uri.amap.com/marker?position=117.168127,31.854823&name=%E8%9C%80%E5%B3%B0%E5%AE%A0%E7%89%A9%E5%8C%BB%E9%99%A2&src=vetmap&coordinate=gaode&callnative=1"},{"name":"瑞宠康宠物诊所","address":"井岗路甘泉新村东区南门商铺25栋5号门面","phone":"15256053533","category":"医疗保健服务;动物医疗场所;宠物诊所","area":"井岗","lng":117.174631,"lat":31.856847,"amap_id":"B0FFKNKJ0W","order":13,"prev_distance_km":0.654,"cumulative_distance_km":37.691,"amap_marker_url":"https://uri.amap.com/marker?position=117.174631,31.856847&name=%E7%91%9E%E5%AE%A0%E5%BA%B7%E5%AE%A0%E7%89%A9%E8%AF%8A%E6%89%80&src=vetmap&coordinate=gaode&callnative=1"},{"name":"宠乐康宠物医院科学岛店","address":"公交蜀山园","phone":"18655195923","category":"医疗保健服务;动物医疗场所;宠物诊所","area":"","lng":117.180603,"lat":31.860189,"amap_id":"B0LGRCA1XH","order":14,"prev_distance_km":0.675,"cumulative_distance_km":38.367,"amap_marker_url":"https://uri.amap.com/marker?position=117.180603,31.860189&name=%E5%AE%A0%E4%B9%90%E5%BA%B7%E5%AE%A0%E7%89%A9%E5%8C%BB%E9%99%A2%E7%A7%91%E5%AD%A6%E5%B2%9B%E5%BA%97&src=vetmap&coordinate=gaode&callnative=1"},{"name":"安宠动物医院(白鹭湖公馆店)","address":"枫丹白鹭湖公馆东3门北60米","phone":"18955109710","category":"医疗保健服务;动物医疗场所;宠物诊所","area":"大铺头","lng":117.190328,"lat":31.855787,"amap_id":"B0FFG1G407","order":15,"prev_distance_km":1.041,"cumulative_distance_km":39.407,"amap_marker_url":"https://uri.amap.com/marker?position=117.190328,31.855787&name=%E5%AE%89%E5%AE%A0%E5%8A%A8%E7%89%A9%E5%8C%BB%E9%99%A2%28%E7%99%BD%E9%B9%AD%E6%B9%96%E5%85%AC%E9%A6%86%E5%BA%97%29&src=vetmap&coordinate=gaode&callnative=1"},{"name":"爱侣宠物医院(长江西路辅路店)","address":"长江西路898号新加坡花园城1幢门面房0111、0211号","phone":"0551-65351300;15156210651","category":"医疗保健服务;动物医疗场所;宠物诊所","area":"","lng":117.199341,"lat":31.854637,"amap_id":"B022715PV3","order":16,"prev_distance_km":0.861,"cumulative_distance_km":40.268,"amap_marker_url":"https://uri.amap.com/marker?position=117.199341,31.854637&name=%E7%88%B1%E4%BE%A3%E5%AE%A0%E7%89%A9%E5%8C%BB%E9%99%A2%28%E9%95%BF%E6%B1%9F%E8%A5%BF%E8%B7%AF%E8%BE%85%E8%B7%AF%E5%BA%97%29&src=vetmap&coordinate=gaode&callnative=1"},{"name":"瑞鹏宠物医院(天柱路店)","address":"长江西路69号徽商城市庭院1幢商业105","phone":"19315363960","category":"医疗保健服务;动物医疗场所;宠物诊所","area":"天柱路","lng":117.199015,"lat":31.850761,"amap_id":"B0I3ZCVFKC","order":17,"prev_distance_km":0.432,"cumulative_distance_km":40.7,"amap_marker_url":"https://uri.amap.com/marker?position=117.199015,31.850761&name=%E7%91%9E%E9%B9%8F%E5%AE%A0%E7%89%A9%E5%8C%BB%E9%99%A2%28%E5%A4%A9%E6%9F%B1%E8%B7%AF%E5%BA%97%29&src=vetmap&coordinate=gaode&callnative=1"},{"name":"申亚宠物","address":"天达路与天通路交叉口东40米","phone":"","category":"医疗保健服务;动物医疗场所;动物医疗场所|购物服务;专卖店;专营店","area":"","lng":117.203075,"lat":31.844749,"amap_id":"B0MBBCWI68","order":18,"prev_distance_km":0.771,"cumulative_distance_km":41.471,"amap_marker_url":"https://uri.amap.com/marker?position=117.203075,31.844749&name=%E7%94%B3%E4%BA%9A%E5%AE%A0%E7%89%A9&src=vetmap&coordinate=gaode&callnative=1"},{"name":"全日宠宠物医院","address":"科学大道13栋","phone":"18955105479","category":"医疗保健服务;动物医疗场所;宠物诊所","area":"","lng":117.204425,"lat":31.841525,"amap_id":"B0LRBCOA3J","order":19,"prev_distance_km":0.38,"cumulative_distance_km":41.851,"amap_marker_url":"https://uri.amap.com/marker?position=117.204425,31.841525&name=%E5%85%A8%E6%97%A5%E5%AE%A0%E5%AE%A0%E7%89%A9%E5%8C%BB%E9%99%A2&src=vetmap&coordinate=gaode&callnative=1"},{"name":"乐芊伴侣宠物医院(高新店)","address":"黄山路612号蓝鼎海棠湾小区南门","phone":"0551-65353120;18154216101","category":"医疗保健服务;动物医疗场所;宠物诊所","area":"","lng":117.202548,"lat":31.840725,"amap_id":"B0FFG82VJ4","order":20,"prev_distance_km":0.198,"cumulative_distance_km":42.05,"amap_marker_url":"https://uri.amap.com/marker?position=117.202548,31.840725&name=%E4%B9%90%E8%8A%8A%E4%BC%B4%E4%BE%A3%E5%AE%A0%E7%89%A9%E5%8C%BB%E9%99%A2%28%E9%AB%98%E6%96%B0%E5%BA%97%29&src=vetmap&coordinate=gaode&callnative=1"},{"name":"瑞鹏宠物医院·皮肤科·犬猫全科(金大地1912店)","address":"黄山路639号金大地公馆7幢112商铺","phone":"0551-62865855","category":"医疗保健服务;动物医疗场所;宠物诊所","area":"","lng":117.220941,"lat":31.839934,"amap_id":"B0FFISD7O6","order":21,"prev_distance_km":1.74,"cumulative_distance_km":43.789,"amap_marker_url":"https://uri.amap.com/marker?position=117.220941,31.839934&name=%E7%91%9E%E9%B9%8F%E5%AE%A0%E7%89%A9%E5%8C%BB%E9%99%A2%C2%B7%E7%9A%AE%E8%82%A4%E7%A7%91%C2%B7%E7%8A%AC%E7%8C%AB%E5%85%A8%E7%A7%91%28%E9%87%91%E5%A4%A7%E5%9C%B01912%E5%BA%97%29&src=vetmap&coordinate=gaode&callnative=1"},{"name":"国宠宠物医院(新粮仓店)","address":"黄山路639号金大地公馆2幢商铺105室","phone":"19719267619","category":"医疗保健服务;动物医疗场所;宠物诊所","area":"","lng":117.221375,"lat":31.838925,"amap_id":"B0J2XHUOLR","order":22,"prev_distance_km":0.119,"cumulative_distance_km":43.909,"amap_marker_url":"https://uri.amap.com/marker?position=117.221375,31.838925&name=%E5%9B%BD%E5%AE%A0%E5%AE%A0%E7%89%A9%E5%8C%BB%E9%99%A2%28%E6%96%B0%E7%B2%AE%E4%BB%93%E5%BA%97%29&src=vetmap&coordinate=gaode&callnative=1"},{"name":"仁和宠物医院24小时(岳西路店)","address":"岳西路与皖河路交叉口北120米","phone":"13349291039","category":"医疗保健服务;动物医疗场所;宠物诊所","area":"南七","lng":117.225359,"lat":31.837468,"amap_id":"B0K3CN1QHD","order":23,"prev_distance_km":0.41,"cumulative_distance_km":44.319,"amap_marker_url":"https://uri.amap.com/marker?position=117.225359,31.837468&name=%E4%BB%81%E5%92%8C%E5%AE%A0%E7%89%A9%E5%8C%BB%E9%99%A224%E5%B0%8F%E6%97%B6%28%E5%B2%B3%E8%A5%BF%E8%B7%AF%E5%BA%97%29&src=vetmap&coordinate=gaode&callnative=1"},{"name":"瑞鹏宠物医院(皖河中心总院)","address":"岳西路与皖河路交口向东400米华地学府名都北门旁","phone":"0551-63732866","category":"医疗保健服务;动物医疗场所;宠物诊所","area":"南七","lng":117.227573,"lat":31.834513,"amap_id":"B0FFJHFWYV","order":24,"prev_distance_km":0.389,"cumulative_distance_km":44.708,"amap_marker_url":"https://uri.amap.com/marker?position=117.227573,31.834513&name=%E7%91%9E%E9%B9%8F%E5%AE%A0%E7%89%A9%E5%8C%BB%E9%99%A2%28%E7%9A%96%E6%B2%B3%E4%B8%AD%E5%BF%83%E6%80%BB%E9%99%A2%29&src=vetmap&coordinate=gaode&callnative=1"},{"name":"佑康宠物诊疗中心","address":"望江西路与岳西路交叉口西100米","phone":"0551-62680603;19156598716","category":"医疗保健服务;动物医疗场所;宠物诊所","area":"南七","lng":117.224489,"lat":31.833372,"amap_id":"B0J11ZWYJS","order":25,"prev_distance_km":0.318,"cumulative_distance_km":45.026,"amap_marker_url":"https://uri.amap.com/marker?position=117.224489,31.833372&name=%E4%BD%91%E5%BA%B7%E5%AE%A0%E7%89%A9%E8%AF%8A%E7%96%97%E4%B8%AD%E5%BF%83&src=vetmap&coordinate=gaode&callnative=1"},{"name":"阳安宠物医院","address":"潜山路216号大唐国际购物广场F2层","phone":"18788890640","category":"医疗保健服务;动物医疗场所;宠物诊所","area":"望江路","lng":117.232824,"lat":31.830433,"amap_id":"B0KUNRLEVS","order":26,"prev_distance_km":0.853,"cumulative_distance_km":45.878,"amap_marker_url":"https://uri.amap.com/marker?position=117.232824,31.830433&name=%E9%98%B3%E5%AE%89%E5%AE%A0%E7%89%A9%E5%8C%BB%E9%99%A2&src=vetmap&coordinate=gaode&callnative=1"},{"name":"友科宠物诊所","address":"潜山路与庙岗路交叉口东200米","phone":"","category":"医疗保健服务;动物医疗场所;宠物诊所","area":"望江路","lng":117.233443,"lat":31.830621,"amap_id":"B0K2XC0YQB","order":27,"prev_distance_km":0.062,"cumulative_distance_km":45.941,"amap_marker_url":"https://uri.amap.com/marker?position=117.233443,31.830621&name=%E5%8F%8B%E7%A7%91%E5%AE%A0%E7%89%A9%E8%AF%8A%E6%89%80&src=vetmap&coordinate=gaode&callnative=1"},{"name":"君宠宠美(港汇广场店)","address":"港汇广场住宅小区东门西南60米","phone":"","category":"医疗保健服务;动物医疗场所;动物医疗场所","area":"望江路","lng":117.234064,"lat":31.833242,"amap_id":"B0K61KJP92","order":28,"prev_distance_km":0.297,"cumulative_distance_km":46.238,"amap_marker_url":"https://uri.amap.com/marker?position=117.234064,31.833242&name=%E5%90%9B%E5%AE%A0%E5%AE%A0%E7%BE%8E%28%E6%B8%AF%E6%B1%87%E5%B9%BF%E5%9C%BA%E5%BA%97%29&src=vetmap&coordinate=gaode&callnative=1"},{"name":"京科宠物医院24H·核磁CT·骨科心脏内窥镜·急重症转诊中心","address":"望江西路92号秀水花园1栋103","phone":"0551-65597153","category":"医疗保健服务;动物医疗场所;宠物诊所","area":"望江路","lng":117.239552,"lat":31.83173,"amap_id":"B0FFFS6WAL","order":29,"prev_distance_km":0.545,"cumulative_distance_km":46.783,"amap_marker_url":"https://uri.amap.com/marker?position=117.239552,31.831730&name=%E4%BA%AC%E7%A7%91%E5%AE%A0%E7%89%A9%E5%8C%BB%E9%99%A224H%C2%B7%E6%A0%B8%E7%A3%81CT%C2%B7%E9%AA%A8%E7%A7%91%E5%BF%83%E8%84%8F%E5%86%85%E7%AA%A5%E9%95%9C%C2%B7%E6%80%A5%E9%87%8D%E7%97%87%E8%BD%AC%E8%AF%8A%E4%B8%AD%E5%BF%83&src=vetmap&coordinate=gaode&callnative=1"},{"name":"宠妍宠物","address":"丁香路与石台路交叉口西280米","phone":"","category":"医疗保健服务;动物医疗场所;动物医疗场所|购物服务;专卖店;专营店","area":"石台路","lng":117.234875,"lat":31.827875,"amap_id":"B0LKSUII09","order":30,"prev_distance_km":0.616,"cumulative_distance_km":47.398,"amap_marker_url":"https://uri.amap.com/marker?position=117.234875,31.827875&name=%E5%AE%A0%E5%A6%8D%E5%AE%A0%E7%89%A9&src=vetmap&coordinate=gaode&callnative=1"},{"name":"爱特宠物医院(心脏专科·骨科·特色猫科中心)","address":"东流路国际花都天香苑C-5幢109-209","phone":"18456590085","category":"医疗保健服务;动物医疗场所;宠物诊所","area":"荷叶地","lng":117.234609,"lat":31.821343,"amap_id":"B0JDHA9NGI","order":31,"prev_distance_km":0.727,"cumulative_distance_km":48.125,"amap_marker_url":"https://uri.amap.com/marker?position=117.234609,31.821343&name=%E7%88%B1%E7%89%B9%E5%AE%A0%E7%89%A9%E5%8C%BB%E9%99%A2%28%E5%BF%83%E8%84%8F%E4%B8%93%E7%A7%91%C2%B7%E9%AA%A8%E7%A7%91%C2%B7%E7%89%B9%E8%89%B2%E7%8C%AB%E7%A7%91%E4%B8%AD%E5%BF%83%29&src=vetmap&coordinate=gaode&callnative=1"},{"name":"忠诚宠物医院(国际花都玫瑰苑店)","address":"稻香村街道合肥政务区国际花都门面房6栋南二环路","phone":"0551-65577120;18019560326","category":"医疗保健服务;动物医疗场所;宠物诊所","area":"荷叶地","lng":117.236615,"lat":31.81686,"amap_id":"B0FFGUDRXQ","order":32,"prev_distance_km":0.533,"cumulative_distance_km":48.659,"amap_marker_url":"https://uri.amap.com/marker?position=117.236615,31.816860&name=%E5%BF%A0%E8%AF%9A%E5%AE%A0%E7%89%A9%E5%8C%BB%E9%99%A2%28%E5%9B%BD%E9%99%85%E8%8A%B1%E9%83%BD%E7%8E%AB%E7%91%B0%E8%8B%91%E5%BA%97%29&src=vetmap&coordinate=gaode&callnative=1"},{"name":"宠全欣宠物医院(南二环政务店)","address":"国际花都郁金苑4-105","phone":"18355702090","category":"医疗保健服务;动物医疗场所;宠物诊所","area":"荷叶地","lng":117.240998,"lat":31.81706,"amap_id":"B0K3TMU9QJ","order":33,"prev_distance_km":0.415,"cumulative_distance_km":49.073,"amap_marker_url":"https://uri.amap.com/marker?position=117.240998,31.817060&name=%E5%AE%A0%E5%85%A8%E6%AC%A3%E5%AE%A0%E7%89%A9%E5%8C%BB%E9%99%A2%28%E5%8D%97%E4%BA%8C%E7%8E%AF%E6%94%BF%E5%8A%A1%E5%BA%97%29&src=vetmap&coordinate=gaode&callnative=1"},{"name":"KISSCHENG宠物","address":"常青花园B区4-1","phone":"13615690499;15056079062","category":"医疗保健服务;动物医疗场所;动物医疗场所","area":"二环路","lng":117.245024,"lat":31.817488,"amap_id":"B0H0GCGFN9","order":34,"prev_distance_km":0.383,"cumulative_distance_km":49.457,"amap_marker_url":"https://uri.amap.com/marker?position=117.245024,31.817488&name=KISSCHENG%E5%AE%A0%E7%89%A9&src=vetmap&coordinate=gaode&callnative=1"},{"name":"宠欣安宠物医院·眼科中心","address":"丹青花园北门旁","phone":"0551-62633821;18056542125","category":"医疗保健服务;动物医疗场所;宠物诊所","area":"荷叶地","lng":117.245584,"lat":31.821902,"amap_id":"B0LRAC0L9S","order":35,"prev_distance_km":0.494,"cumulative_distance_km":49.95,"amap_marker_url":"https://uri.amap.com/marker?position=117.245584,31.821902&name=%E5%AE%A0%E6%AC%A3%E5%AE%89%E5%AE%A0%E7%89%A9%E5%8C%BB%E9%99%A2%C2%B7%E7%9C%BC%E7%A7%91%E4%B8%AD%E5%BF%83&src=vetmap&coordinate=gaode&callnative=1"},{"name":"安禾宠物医院猫专科·急重症转诊","address":"洪岗路丁香家园复建点5号楼1-2层","phone":"18856952498","category":"医疗保健服务;动物医疗场所;宠物诊所","area":"南七","lng":117.243075,"lat":31.826975,"amap_id":"B0KDV5O1VD","order":36,"prev_distance_km":0.612,"cumulative_distance_km":50.562,"amap_marker_url":"https://uri.amap.com/marker?position=117.243075,31.826975&name=%E5%AE%89%E7%A6%BE%E5%AE%A0%E7%89%A9%E5%8C%BB%E9%99%A2%E7%8C%AB%E4%B8%93%E7%A7%91%C2%B7%E6%80%A5%E9%87%8D%E7%97%87%E8%BD%AC%E8%AF%8A&src=vetmap&coordinate=gaode&callnative=1"},{"name":"合肥百护宠物医院(眼科专科医院)","address":"望江西路159号黄山花园89幢","phone":"0551-65674587","category":"医疗保健服务;动物医疗场所;宠物诊所","area":"南七","lng":117.245524,"lat":31.828323,"amap_id":"B0FFHI7T35","order":37,"prev_distance_km":0.276,"cumulative_distance_km":50.838,"amap_marker_url":"https://uri.amap.com/marker?position=117.245524,31.828323&name=%E5%90%88%E8%82%A5%E7%99%BE%E6%8A%A4%E5%AE%A0%E7%89%A9%E5%8C%BB%E9%99%A2%28%E7%9C%BC%E7%A7%91%E4%B8%93%E7%A7%91%E5%8C%BB%E9%99%A2%29&src=vetmap&coordinate=gaode&callnative=1"},{"name":"阳光宠物医院(合作化南路辅路)","address":"合作化路与望江西路交口金环花园26幢第4间门面(工行北10米)","phone":"13856946421","category":"医疗保健服务;动物医疗场所;宠物诊所","area":"望江路","lng":117.251881,"lat":31.831627,"amap_id":"B022700DEF","order":38,"prev_distance_km":0.704,"cumulative_distance_km":51.542,"amap_marker_url":"https://uri.amap.com/marker?position=117.251881,31.831627&name=%E9%98%B3%E5%85%89%E5%AE%A0%E7%89%A9%E5%8C%BB%E9%99%A2%28%E5%90%88%E4%BD%9C%E5%8C%96%E5%8D%97%E8%B7%AF%E8%BE%85%E8%B7%AF%29&src=vetmap&coordinate=gaode&callnative=1"},{"name":"维它宠物医院猫科·内窥镜中心","address":"稻香村街道安粮城市广场22栋101商铺(金寨路与休宁路交叉口)","phone":"0551-62653630;18110968161","category":"医疗保健服务;动物医疗场所;宠物诊所","area":"二环路","lng":117.256539,"lat":31.820242,"amap_id":"B0JDCSRASV","order":39,"prev_distance_km":1.34,"cumulative_distance_km":52.882,"amap_marker_url":"https://uri.amap.com/marker?position=117.256539,31.820242&name=%E7%BB%B4%E5%AE%83%E5%AE%A0%E7%89%A9%E5%8C%BB%E9%99%A2%E7%8C%AB%E7%A7%91%C2%B7%E5%86%85%E7%AA%A5%E9%95%9C%E4%B8%AD%E5%BF%83&src=vetmap&coordinate=gaode&callnative=1"},{"name":"常青街道畜牧兽医站","address":"荷叶地街道金寨路四方新村旁","phone":"13966783816","category":"医疗保健服务;动物医疗场所;兽医站","area":"荷叶地","lng":117.246697,"lat":31.807685,"amap_id":"B0FFF2LUWD","order":40,"prev_distance_km":1.678,"cumulative_distance_km":54.56,"amap_marker_url":"https://uri.amap.com/marker?position=117.246697,31.807685&name=%E5%B8%B8%E9%9D%92%E8%A1%97%E9%81%93%E7%95%9C%E7%89%A7%E5%85%BD%E5%8C%BB%E7%AB%99&src=vetmap&coordinate=gaode&callnative=1"},{"name":"瑞百特宠物医院·24小时·急重症·犬猫诊疗中心","address":"汤池路99号凤曦府S2幢116","phone":"15856956701","category":"医疗保健服务;动物医疗场所;宠物诊所","area":"","lng":117.239199,"lat":31.810234,"amap_id":"B0KASAM4DM","order":41,"prev_distance_km":0.763,"cumulative_distance_km":55.323,"amap_marker_url":"https://uri.amap.com/marker?position=117.239199,31.810234&name=%E7%91%9E%E7%99%BE%E7%89%B9%E5%AE%A0%E7%89%A9%E5%8C%BB%E9%99%A2%C2%B724%E5%B0%8F%E6%97%B6%C2%B7%E6%80%A5%E9%87%8D%E7%97%87%C2%B7%E7%8A%AC%E7%8C%AB%E8%AF%8A%E7%96%97%E4%B8%AD%E5%BF%83&src=vetmap&coordinate=gaode&callnative=1"},{"name":"哈博动物医院·微创·急重症·综合全科","address":"龙图路新地中心1层9幢116号(凯旋门二期北门对面或者南门出口旁)","phone":"15555630102","category":"医疗保健服务;动物医疗场所;宠物诊所","area":"","lng":117.230232,"lat":31.806456,"amap_id":"B0K0TCU22B","order":42,"prev_distance_km":0.946,"cumulative_distance_km":56.269,"amap_marker_url":"https://uri.amap.com/marker?position=117.230232,31.806456&name=%E5%93%88%E5%8D%9A%E5%8A%A8%E7%89%A9%E5%8C%BB%E9%99%A2%C2%B7%E5%BE%AE%E5%88%9B%C2%B7%E6%80%A5%E9%87%8D%E7%97%87%C2%B7%E7%BB%BC%E5%90%88%E5%85%A8%E7%A7%91&src=vetmap&coordinate=gaode&callnative=1"},{"name":"禧寶宠物洗护寄养","address":"天珑广场天珑汇5号楼218(老乡鸡上二楼)","phone":"18555019937","category":"医疗保健服务;动物医疗场所;动物医疗场所","area":"","lng":117.233525,"lat":31.802825,"amap_id":"B0L6BUNOW1","order":43,"prev_distance_km":0.51,"cumulative_distance_km":56.778,"amap_marker_url":"https://uri.amap.com/marker?position=117.233525,31.802825&name=%E7%A6%A7%E5%AF%B6%E5%AE%A0%E7%89%A9%E6%B4%97%E6%8A%A4%E5%AF%84%E5%85%BB&src=vetmap&coordinate=gaode&callnative=1"},{"name":"关爱动物医院旗舰店","address":"潜山路100号","phone":"0551-65959766","category":"医疗保健服务;动物医疗场所;宠物诊所","area":"","lng":117.233287,"lat":31.797009,"amap_id":"B0FFI02407","order":44,"prev_distance_km":0.647,"cumulative_distance_km":57.426,"amap_marker_url":"https://uri.amap.com/marker?position=117.233287,31.797009&name=%E5%85%B3%E7%88%B1%E5%8A%A8%E7%89%A9%E5%8C%BB%E9%99%A2%E6%97%97%E8%88%B0%E5%BA%97&src=vetmap&coordinate=gaode&callnative=1"},{"name":"合肥佰陆兽医服务有限公司","address":"铭传路228号","phone":"","category":"医疗保健服务;动物医疗场所;动物医疗场所","area":"","lng":117.233231,"lat":31.790993,"amap_id":"B0LRBCNW2Y","order":45,"prev_distance_km":0.669,"cumulative_distance_km":58.094,"amap_marker_url":"https://uri.amap.com/marker?position=117.233231,31.790993&name=%E5%90%88%E8%82%A5%E4%BD%B0%E9%99%86%E5%85%BD%E5%8C%BB%E6%9C%8D%E5%8A%A1%E6%9C%89%E9%99%90%E5%85%AC%E5%8F%B8&src=vetmap&coordinate=gaode&callnative=1"},{"name":"宠乐康宠物医院(时代天街店)","address":"金大地时代天街","phone":"18356043357","category":"医疗保健服务;动物医疗场所;宠物诊所","area":"","lng":117.231994,"lat":31.778302,"amap_id":"B0JK2HT4DK","order":46,"prev_distance_km":1.416,"cumulative_distance_km":59.51,"amap_marker_url":"https://uri.amap.com/marker?position=117.231994,31.778302&name=%E5%AE%A0%E4%B9%90%E5%BA%B7%E5%AE%A0%E7%89%A9%E5%8C%BB%E9%99%A2%28%E6%97%B6%E4%BB%A3%E5%A4%A9%E8%A1%97%E5%BA%97%29&src=vetmap&coordinate=gaode&callnative=1"},{"name":"宠爱佳宠物诊疗中心","address":"雍景台商22号叠嶂路与石门路交叉口","phone":"13675653726;19159025036","category":"医疗保健服务;动物医疗场所;宠物诊所","area":"桃花","lng":117.214256,"lat":31.779866,"amap_id":"B0IRMGJ36Z","order":47,"prev_distance_km":1.686,"cumulative_distance_km":61.196,"amap_marker_url":"https://uri.amap.com/marker?position=117.214256,31.779866&name=%E5%AE%A0%E7%88%B1%E4%BD%B3%E5%AE%A0%E7%89%A9%E8%AF%8A%E7%96%97%E4%B8%AD%E5%BF%83&src=vetmap&coordinate=gaode&callnative=1"},{"name":"有它宠物医院","address":"宝纶路星达城5号门对面(铜冠花园西面商铺s1-c104)","phone":"19154004010","category":"医疗保健服务;动物医疗场所;宠物诊所","area":"桃花","lng":117.212255,"lat":31.776591,"amap_id":"B0GR9UPNF5","order":48,"prev_distance_km":0.41,"cumulative_distance_km":61.607,"amap_marker_url":"https://uri.amap.com/marker?position=117.212255,31.776591&name=%E6%9C%89%E5%AE%83%E5%AE%A0%E7%89%A9%E5%8C%BB%E9%99%A2&src=vetmap&coordinate=gaode&callnative=1"},{"name":"瑞鹏宠物医院·骨外科·皮肤科·保险定点(中环城分院)","address":"蜀山区经济技术开发区繁华大道与翡翠路交口凯旋公寓104商","phone":"0551-63685117","category":"医疗保健服务;动物医疗场所;宠物诊所","area":"","lng":117.210977,"lat":31.78288,"amap_id":"B0H31UZGHH","order":49,"prev_distance_km":0.71,"cumulative_distance_km":62.316,"amap_marker_url":"https://uri.amap.com/marker?position=117.210977,31.782880&name=%E7%91%9E%E9%B9%8F%E5%AE%A0%E7%89%A9%E5%8C%BB%E9%99%A2%C2%B7%E9%AA%A8%E5%A4%96%E7%A7%91%C2%B7%E7%9A%AE%E8%82%A4%E7%A7%91%C2%B7%E4%BF%9D%E9%99%A9%E5%AE%9A%E7%82%B9%28%E4%B8%AD%E7%8E%AF%E5%9F%8E%E5%88%86%E9%99%A2%29&src=vetmap&coordinate=gaode&callnative=1"},{"name":"瑞派中山动物医院(忠爱院)","address":"芙蓉路729号华福苑1幢104号","phone":"0551-63448306;19155157158","category":"医疗保健服务;动物医疗场所;宠物诊所","area":"","lng":117.206582,"lat":31.788482,"amap_id":"B0L3SG2VV1","order":50,"prev_distance_km":0.749,"cumulative_distance_km":63.065,"amap_marker_url":"https://uri.amap.com/marker?position=117.206582,31.788482&name=%E7%91%9E%E6%B4%BE%E4%B8%AD%E5%B1%B1%E5%8A%A8%E7%89%A9%E5%8C%BB%E9%99%A2%28%E5%BF%A0%E7%88%B1%E9%99%A2%29&src=vetmap&coordinate=gaode&callnative=1"},{"name":"瑞派中山动物医院(忠爱院)","address":"芙蓉路与石鼓路交叉口东120米","phone":"","category":"医疗保健服务;动物医疗场所;宠物诊所","area":"","lng":117.206425,"lat":31.788425,"amap_id":"B0I60A9LB5","order":51,"prev_distance_km":0.016,"cumulative_distance_km":63.081,"amap_marker_url":"https://uri.amap.com/marker?position=117.206425,31.788425&name=%E7%91%9E%E6%B4%BE%E4%B8%AD%E5%B1%B1%E5%8A%A8%E7%89%A9%E5%8C%BB%E9%99%A2%28%E5%BF%A0%E7%88%B1%E9%99%A2%29&src=vetmap&coordinate=gaode&callnative=1"},{"name":"壹佳伊宠物诊所","address":"蜀山区经济技术开发区芙蓉路与翡翠路交口瑞格广场128号","phone":"0551-63879619;18326158288","category":"医疗保健服务;动物医疗场所;宠物诊所","area":"","lng":117.208335,"lat":31.789415,"amap_id":"B0227193B8","order":52,"prev_distance_km":0.211,"cumulative_distance_km":63.292,"amap_marker_url":"https://uri.amap.com/marker?position=117.208335,31.789415&name=%E5%A3%B9%E4%BD%B3%E4%BC%8A%E5%AE%A0%E7%89%A9%E8%AF%8A%E6%89%80&src=vetmap&coordinate=gaode&callnative=1"},{"name":"中西结合佑宠动物医院(石笋路店)","address":"石笋路138号报业园小区3栋104-105","phone":"18158861335;18226687211","category":"医疗保健服务;动物医疗场所;宠物诊所","area":"","lng":117.2045,"lat":31.796485,"amap_id":"B0IDZC7YBL","order":53,"prev_distance_km":0.866,"cumulative_distance_km":64.158,"amap_marker_url":"https://uri.amap.com/marker?position=117.204500,31.796485&name=%E4%B8%AD%E8%A5%BF%E7%BB%93%E5%90%88%E4%BD%91%E5%AE%A0%E5%8A%A8%E7%89%A9%E5%8C%BB%E9%99%A2%28%E7%9F%B3%E7%AC%8B%E8%B7%AF%E5%BA%97%29&src=vetmap&coordinate=gaode&callnative=1"},{"name":"润宠宠物门诊","address":"仙龙湖路与翡翠路交叉口东60米","phone":"","category":"医疗保健服务;动物医疗场所;宠物诊所","area":"","lng":117.216196,"lat":31.804093,"amap_id":"B0JDXUALBM","order":54,"prev_distance_km":1.392,"cumulative_distance_km":65.55,"amap_marker_url":"https://uri.amap.com/marker?position=117.216196,31.804093&name=%E6%B6%A6%E5%AE%A0%E5%AE%A0%E7%89%A9%E9%97%A8%E8%AF%8A&src=vetmap&coordinate=gaode&callnative=1"},{"name":"岸康伴侣动物医院","address":"笔架山街道岸上玫瑰花园NA-1号6号商101","phone":"0551-63716257","category":"医疗保健服务;动物医疗场所;宠物诊所","area":"","lng":117.217962,"lat":31.804497,"amap_id":"B0FFF62BKR","order":55,"prev_distance_km":0.173,"cumulative_distance_km":65.723,"amap_marker_url":"https://uri.amap.com/marker?position=117.217962,31.804497&name=%E5%B2%B8%E5%BA%B7%E4%BC%B4%E4%BE%A3%E5%8A%A8%E7%89%A9%E5%8C%BB%E9%99%A2&src=vetmap&coordinate=gaode&callnative=1"},{"name":"京科宠物医院猫专科","address":"岸上玫瑰NB12栋114正北方向40米","phone":"0551-62397368","category":"医疗保健服务;动物医疗场所;宠物诊所","area":"","lng":117.216176,"lat":31.806805,"amap_id":"B0IBSMJTYQ","order":56,"prev_distance_km":0.307,"cumulative_distance_km":66.03,"amap_marker_url":"https://uri.amap.com/marker?position=117.216176,31.806805&name=%E4%BA%AC%E7%A7%91%E5%AE%A0%E7%89%A9%E5%8C%BB%E9%99%A2%E7%8C%AB%E4%B8%93%E7%A7%91&src=vetmap&coordinate=gaode&callnative=1"},{"name":"山水爱侣宠物诊所","address":"茂荫路与龙感湖路交口东山水名城10栋115商铺","phone":"0551-62621620;13355516163","category":"医疗保健服务;动物医疗场所;宠物诊所","area":"","lng":117.213526,"lat":31.811516,"amap_id":"B0IAG58LDW","order":57,"prev_distance_km":0.581,"cumulative_distance_km":66.611,"amap_marker_url":"https://uri.amap.com/marker?position=117.213526,31.811516&name=%E5%B1%B1%E6%B0%B4%E7%88%B1%E4%BE%A3%E5%AE%A0%E7%89%A9%E8%AF%8A%E6%89%80&src=vetmap&coordinate=gaode&callnative=1"},{"name":"宠爱宠物医院(高新店)","address":"海棠路尚成花园商铺房4栋101室","phone":"15156988877","category":"医疗保健服务;动物医疗场所;宠物诊所","area":"","lng":117.205016,"lat":31.814706,"amap_id":"B0FFH176S1","order":58,"prev_distance_km":0.879,"cumulative_distance_km":67.49,"amap_marker_url":"https://uri.amap.com/marker?position=117.205016,31.814706&name=%E5%AE%A0%E7%88%B1%E5%AE%A0%E7%89%A9%E5%8C%BB%E9%99%A2%28%E9%AB%98%E6%96%B0%E5%BA%97%29&src=vetmap&coordinate=gaode&callnative=1"},{"name":"精灵宠物医院","address":"海棠路尚城花园41号门面","phone":"19805657098","category":"医疗保健服务;动物医疗场所;宠物诊所","area":"","lng":117.203999,"lat":31.815446,"amap_id":"B0LGA9OGAI","order":59,"prev_distance_km":0.127,"cumulative_distance_km":67.616,"amap_marker_url":"https://uri.amap.com/marker?position=117.203999,31.815446&name=%E7%B2%BE%E7%81%B5%E5%AE%A0%E7%89%A9%E5%8C%BB%E9%99%A2&src=vetmap&coordinate=gaode&callnative=1"},{"name":"葆裕宠物医院","address":"华地·紫园北2门旁","phone":"0551-68995485;13052052510","category":"医疗保健服务;动物医疗场所;宠物诊所","area":"","lng":117.199636,"lat":31.820414,"amap_id":"B0HUVD3FIQ","order":60,"prev_distance_km":0.689,"cumulative_distance_km":68.305,"amap_marker_url":"https://uri.amap.com/marker?position=117.199636,31.820414&name=%E8%91%86%E8%A3%95%E5%AE%A0%E7%89%A9%E5%8C%BB%E9%99%A2&src=vetmap&coordinate=gaode&callnative=1"},{"name":"壹心宠物医院•24H•复杂内科•急重症","address":"怀宁路2113号","phone":"","category":"医疗保健服务;动物医疗场所;宠物诊所","area":"贵池路","lng":117.222106,"lat":31.845576,"amap_id":"B0LDHXSW9X","order":61,"prev_distance_km":3.512,"cumulative_distance_km":71.817,"amap_marker_url":"https://uri.amap.com/marker?position=117.222106,31.845576&name=%E5%A3%B9%E5%BF%83%E5%AE%A0%E7%89%A9%E5%8C%BB%E9%99%A2%E2%80%A224H%E2%80%A2%E5%A4%8D%E6%9D%82%E5%86%85%E7%A7%91%E2%80%A2%E6%80%A5%E9%87%8D%E7%97%87&src=vetmap&coordinate=gaode&callnative=1"},{"name":"艾贝尔宠物医院·软组织外科(贵池路店)","address":"贵池路广利花园15栋105","phone":"0551-63811107","category":"医疗保健服务;动物医疗场所;宠物诊所","area":"贵池路","lng":117.226055,"lat":31.844891,"amap_id":"B0FFGSLSUE","order":62,"prev_distance_km":0.381,"cumulative_distance_km":72.198,"amap_marker_url":"https://uri.amap.com/marker?position=117.226055,31.844891&name=%E8%89%BE%E8%B4%9D%E5%B0%94%E5%AE%A0%E7%89%A9%E5%8C%BB%E9%99%A2%C2%B7%E8%BD%AF%E7%BB%84%E7%BB%87%E5%A4%96%E7%A7%91%28%E8%B4%B5%E6%B1%A0%E8%B7%AF%E5%BA%97%29&src=vetmap&coordinate=gaode&callnative=1"},{"name":"恒幸动物医院(蜀山区店)","address":"潜山路399号汉嘉都市森林商业26栋103室","phone":"0551-65566595;18355179836","category":"医疗保健服务;动物医疗场所;宠物诊所","area":"贵池路","lng":117.230635,"lat":31.846982,"amap_id":"B0FFJ4BPHB","order":63,"prev_distance_km":0.491,"cumulative_distance_km":72.689,"amap_marker_url":"https://uri.amap.com/marker?position=117.230635,31.846982&name=%E6%81%92%E5%B9%B8%E5%8A%A8%E7%89%A9%E5%8C%BB%E9%99%A2%28%E8%9C%80%E5%B1%B1%E5%8C%BA%E5%BA%97%29&src=vetmap&coordinate=gaode&callnative=1"},{"name":"京诚宠物医院(西环店)","address":"西环中心广场南区6号门东北80米","phone":"0551-65561642;0551-65566142;13866139138","category":"医疗保健服务;动物医疗场所;宠物诊所","area":"","lng":117.229116,"lat":31.841252,"amap_id":"B0FFFSTBIB","order":64,"prev_distance_km":0.653,"cumulative_distance_km":73.342,"amap_marker_url":"https://uri.amap.com/marker?position=117.229116,31.841252&name=%E4%BA%AC%E8%AF%9A%E5%AE%A0%E7%89%A9%E5%8C%BB%E9%99%A2%28%E8%A5%BF%E7%8E%AF%E5%BA%97%29&src=vetmap&coordinate=gaode&callnative=1"},{"name":"苟苟宠物医院(石台路店)","address":"华林家园2幢105","phone":"0551-65588232","category":"医疗保健服务;动物医疗场所;宠物诊所","area":"南七","lng":117.237203,"lat":31.83929,"amap_id":"B0LGHSSQVW","order":65,"prev_distance_km":0.794,"cumulative_distance_km":74.137,"amap_marker_url":"https://uri.amap.com/marker?position=117.237203,31.839290&name=%E8%8B%9F%E8%8B%9F%E5%AE%A0%E7%89%A9%E5%8C%BB%E9%99%A2%28%E7%9F%B3%E5%8F%B0%E8%B7%AF%E5%BA%97%29&src=vetmap&coordinate=gaode&callnative=1"},{"name":"乐宠动物医院","address":"石台路华林家园商铺2-105-106商","phone":"13966692529","category":"医疗保健服务;动物医疗场所;宠物诊所","area":"石台路","lng":117.237196,"lat":31.83924,"amap_id":"B02270JKQJ","order":66,"prev_distance_km":0.006,"cumulative_distance_km":74.142,"amap_marker_url":"https://uri.amap.com/marker?position=117.237196,31.839240&name=%E4%B9%90%E5%AE%A0%E5%8A%A8%E7%89%A9%E5%8C%BB%E9%99%A2&src=vetmap&coordinate=gaode&callnative=1"},{"name":"宠颐生宠物医院(猫专科·皮肤科·合肥万庭店)","address":"黄山西路455号(新华学府花园101室)","phone":"0551-65575559","category":"医疗保健服务;动物医疗场所;宠物诊所","area":"石台路","lng":117.238661,"lat":31.840679,"amap_id":"B0IDG7VJ2S","order":67,"prev_distance_km":0.212,"cumulative_distance_km":74.354,"amap_marker_url":"https://uri.amap.com/marker?position=117.238661,31.840679&name=%E5%AE%A0%E9%A2%90%E7%94%9F%E5%AE%A0%E7%89%A9%E5%8C%BB%E9%99%A2%28%E7%8C%AB%E4%B8%93%E7%A7%91%C2%B7%E7%9A%AE%E8%82%A4%E7%A7%91%C2%B7%E5%90%88%E8%82%A5%E4%B8%87%E5%BA%AD%E5%BA%97%29&src=vetmap&coordinate=gaode&callnative=1"},{"name":"动物保健中心","address":"安居苑西村东门北70米(五里墩地铁站C口步行410米)","phone":"","category":"医疗保健服务;动物医疗场所;宠物诊所","area":"陈村路","lng":117.237455,"lat":31.849786,"amap_id":"B0I2PZF1SH","order":68,"prev_distance_km":1.019,"cumulative_distance_km":75.373,"amap_marker_url":"https://uri.amap.com/marker?position=117.237455,31.849786&name=%E5%8A%A8%E7%89%A9%E4%BF%9D%E5%81%A5%E4%B8%AD%E5%BF%83&src=vetmap&coordinate=gaode&callnative=1"},{"name":"丫丫宠物医院(长江西路辅路)","address":"长江西路407号牛奶公司商铺","phone":"0551-65111272;13855136937","category":"医疗保健服务;动物医疗场所;宠物诊所","area":"贵池路","lng":117.236107,"lat":31.85092,"amap_id":"B02271AO3P","order":69,"prev_distance_km":0.179,"cumulative_distance_km":75.552,"amap_marker_url":"https://uri.amap.com/marker?position=117.236107,31.850920&name=%E4%B8%AB%E4%B8%AB%E5%AE%A0%E7%89%A9%E5%8C%BB%E9%99%A2%28%E9%95%BF%E6%B1%9F%E8%A5%BF%E8%B7%AF%E8%BE%85%E8%B7%AF%29&src=vetmap&coordinate=gaode&callnative=1"},{"name":"森田宠物医院","address":"青阳路117号","phone":"18755115511","category":"医疗保健服务;动物医疗场所;宠物诊所","area":"五里墩","lng":117.241838,"lat":31.855935,"amap_id":"B0FFLMDIOC","order":70,"prev_distance_km":0.777,"cumulative_distance_km":76.329,"amap_marker_url":"https://uri.amap.com/marker?position=117.241838,31.855935&name=%E6%A3%AE%E7%94%B0%E5%AE%A0%E7%89%A9%E5%8C%BB%E9%99%A2&src=vetmap&coordinate=gaode&callnative=1"},{"name":"关爱动物医院(金牛路分院)","address":"金牛路218号","phone":"0551-65560155;13329017888","category":"医疗保健服务;动物医疗场所;宠物诊所","area":"","lng":117.235069,"lat":31.858844,"amap_id":"B0I0NOXGAO","order":71,"prev_distance_km":0.716,"cumulative_distance_km":77.046,"amap_marker_url":"https://uri.amap.com/marker?position=117.235069,31.858844&name=%E5%85%B3%E7%88%B1%E5%8A%A8%E7%89%A9%E5%8C%BB%E9%99%A2%28%E9%87%91%E7%89%9B%E8%B7%AF%E5%88%86%E9%99%A2%29&src=vetmap&coordinate=gaode&callnative=1"},{"name":"宠欣安宠物医院·磁共振·CT·影像中心","address":"淠河路与金牛路交叉口西120米","phone":"18956598373","category":"医疗保健服务;动物医疗场所;宠物诊所","area":"","lng":117.233413,"lat":31.857657,"amap_id":"B0I14DAARD","order":72,"prev_distance_km":0.205,"cumulative_distance_km":77.25,"amap_marker_url":"https://uri.amap.com/marker?position=117.233413,31.857657&name=%E5%AE%A0%E6%AC%A3%E5%AE%89%E5%AE%A0%E7%89%A9%E5%8C%BB%E9%99%A2%C2%B7%E7%A3%81%E5%85%B1%E6%8C%AF%C2%B7CT%C2%B7%E5%BD%B1%E5%83%8F%E4%B8%AD%E5%BF%83&src=vetmap&coordinate=gaode&callnative=1"},{"name":"宠宝宠物诊所(高刘路店)","address":"高刘路海亚当代2栋116","phone":"18019904564","category":"医疗保健服务;动物医疗场所;宠物诊所","area":"","lng":117.239513,"lat":31.867118,"amap_id":"B0FFIROEBR","order":73,"prev_distance_km":1.199,"cumulative_distance_km":78.45,"amap_marker_url":"https://uri.amap.com/marker?position=117.239513,31.867118&name=%E5%AE%A0%E5%AE%9D%E5%AE%A0%E7%89%A9%E8%AF%8A%E6%89%80%28%E9%AB%98%E5%88%98%E8%B7%AF%E5%BA%97%29&src=vetmap&coordinate=gaode&callnative=1"},{"name":"宠颐生宠物医院·犬猫全科·天红(合作化路大润发分店)","address":"清溪路大润发超市一楼南侧商铺(老乡鸡旁)","phone":"0551-64286773","category":"医疗保健服务;动物医疗场所;宠物诊所","area":"","lng":117.250976,"lat":31.870587,"amap_id":"B0FFKPCLQ0","order":74,"prev_distance_km":1.149,"cumulative_distance_km":79.599,"amap_marker_url":"https://uri.amap.com/marker?position=117.250976,31.870587&name=%E5%AE%A0%E9%A2%90%E7%94%9F%E5%AE%A0%E7%89%A9%E5%8C%BB%E9%99%A2%C2%B7%E7%8A%AC%E7%8C%AB%E5%85%A8%E7%A7%91%C2%B7%E5%A4%A9%E7%BA%A2%28%E5%90%88%E4%BD%9C%E5%8C%96%E8%B7%AF%E5%A4%A7%E6%B6%A6%E5%8F%91%E5%88%86%E5%BA%97%29&src=vetmap&coordinate=gaode&callnative=1"},{"name":"翠竹园宠物诊疗中心","address":"翠竹园C区2-3","phone":"","category":"医疗保健服务;动物医疗场所;宠物诊所","area":"","lng":117.258329,"lat":31.87044,"amap_id":"B0L1LADE1P","order":75,"prev_distance_km":0.695,"cumulative_distance_km":80.294,"amap_marker_url":"https://uri.amap.com/marker?position=117.258329,31.870440&name=%E7%BF%A0%E7%AB%B9%E5%9B%AD%E5%AE%A0%E7%89%A9%E8%AF%8A%E7%96%97%E4%B8%AD%E5%BF%83&src=vetmap&coordinate=gaode&callnative=1"},{"name":"安徽农业大学教学动物医院","address":"安徽农业大学东门西北50米","phone":"13329043805","category":"医疗保健服务;动物医疗场所;宠物诊所","area":"","lng":117.262909,"lat":31.860412,"amap_id":"B0K6Y79S5P","order":76,"prev_distance_km":1.196,"cumulative_distance_km":81.49,"amap_marker_url":"https://uri.amap.com/marker?position=117.262909,31.860412&name=%E5%AE%89%E5%BE%BD%E5%86%9C%E4%B8%9A%E5%A4%A7%E5%AD%A6%E6%95%99%E5%AD%A6%E5%8A%A8%E7%89%A9%E5%8C%BB%E9%99%A2&src=vetmap&coordinate=gaode&callnative=1"},{"name":"爱心动物医院","address":"长江西路15号(安农大地铁站4号口步行150米)","phone":"0551-62818743;13645653229","category":"医疗保健服务;动物医疗场所;宠物诊所","area":"","lng":117.264781,"lat":31.85763,"amap_id":"B022703MWF","order":77,"prev_distance_km":0.356,"cumulative_distance_km":81.846,"amap_marker_url":"https://uri.amap.com/marker?position=117.264781,31.857630&name=%E7%88%B1%E5%BF%83%E5%8A%A8%E7%89%A9%E5%8C%BB%E9%99%A2&src=vetmap&coordinate=gaode&callnative=1"},{"name":"珍爱宠物医院","address":"光明路1号","phone":"18110274008","category":"医疗保健服务;动物医疗场所;宠物诊所","area":"贵池路","lng":117.250462,"lat":31.84422,"amap_id":"B0FFIII27D","order":78,"prev_distance_km":2.013,"cumulative_distance_km":83.859,"amap_marker_url":"https://uri.amap.com/marker?position=117.250462,31.844220&name=%E7%8F%8D%E7%88%B1%E5%AE%A0%E7%89%A9%E5%8C%BB%E9%99%A2&src=vetmap&coordinate=gaode&callnative=1"},{"name":"康诺宠物医院(美乐园北)","address":"长江西路与西二环交叉口美乐园商业文化广场商铺31号","phone":"0551-5305683;0551-65305683","category":"医疗保健服务;动物医疗场所;宠物诊所","area":"环湖东路","lng":117.214582,"lat":31.858231,"amap_id":"B02271A5TO","order":79,"prev_distance_km":3.73,"cumulative_distance_km":87.589,"amap_marker_url":"https://uri.amap.com/marker?position=117.214582,31.858231&name=%E5%BA%B7%E8%AF%BA%E5%AE%A0%E7%89%A9%E5%8C%BB%E9%99%A2%28%E7%BE%8E%E4%B9%90%E5%9B%AD%E5%8C%97%29&src=vetmap&coordinate=gaode&callnative=1"},{"name":"优宠宠物诊所","address":"蜀南庭苑西街11栋106优宠宠物诊所","phone":"18170800521","category":"医疗保健服务;动物医疗场所;宠物诊所","area":"","lng":117.163708,"lat":31.828568,"amap_id":"B0IUKC1G68","order":80,"prev_distance_km":5.829,"cumulative_distance_km":93.417,"amap_marker_url":"https://uri.amap.com/marker?position=117.163708,31.828568&name=%E4%BC%98%E5%AE%A0%E5%AE%A0%E7%89%A9%E8%AF%8A%E6%89%80&src=vetmap&coordinate=gaode&callnative=1"},{"name":"蜀西宠物医院(祥源城店)","address":"祥源城湖山别墅南门东270米","phone":"18019905068","category":"医疗保健服务;动物医疗场所;宠物诊所","area":"","lng":117.130241,"lat":31.830772,"amap_id":"B0H397SHDM","order":81,"prev_distance_km":3.171,"cumulative_distance_km":96.589,"amap_marker_url":"https://uri.amap.com/marker?position=117.130241,31.830772&name=%E8%9C%80%E8%A5%BF%E5%AE%A0%E7%89%A9%E5%8C%BB%E9%99%A2%28%E7%A5%A5%E6%BA%90%E5%9F%8E%E5%BA%97%29&src=vetmap&coordinate=gaode&callnative=1"},{"name":"福右宠物医院","address":"蜀山区经济技术开发区繁华大道南松林路东碧湖蓝庭1幢商铺05一层","phone":"0551-63443543","category":"医疗保健服务;动物医疗场所;宠物诊所","area":"桃花","lng":117.200829,"lat":31.781714,"amap_id":"B0FFG9MJ4Y","order":82,"prev_distance_km":8.617,"cumulative_distance_km":105.206,"amap_marker_url":"https://uri.amap.com/marker?position=117.200829,31.781714&name=%E7%A6%8F%E5%8F%B3%E5%AE%A0%E7%89%A9%E5%8C%BB%E9%99%A2&src=vetmap&coordinate=gaode&callnative=1"},{"name":"三千宠物医院(中环城分院)","address":"繁华大道397号碧湖蓝庭小区3号楼101-2","phone":"0551-62611016;19356551611","category":"医疗保健服务;动物医疗场所;宠物诊所","area":"桃花","lng":117.202262,"lat":31.781238,"amap_id":"B0IRZZ104G","order":83,"prev_distance_km":0.145,"cumulative_distance_km":105.351,"amap_marker_url":"https://uri.amap.com/marker?position=117.202262,31.781238&name=%E4%B8%89%E5%8D%83%E5%AE%A0%E7%89%A9%E5%8C%BB%E9%99%A2%28%E4%B8%AD%E7%8E%AF%E5%9F%8E%E5%88%86%E9%99%A2%29&src=vetmap&coordinate=gaode&callnative=1"},{"name":"元达宠物医院","address":"合肥市经济技术开发区芙蓉路1106号紫金山庄办公综合楼111铺","phone":"13225698899;15755373768","category":"医疗保健服务;动物医疗场所;宠物诊所","area":"","lng":117.262737,"lat":31.784319,"amap_id":"B0IR4U3OGA","order":84,"prev_distance_km":5.726,"cumulative_distance_km":111.077,"amap_marker_url":"https://uri.amap.com/marker?position=117.262737,31.784319&name=%E5%85%83%E8%BE%BE%E5%AE%A0%E7%89%A9%E5%8C%BB%E9%99%A2&src=vetmap&coordinate=gaode&callnative=1"},{"name":"优贝宠物医院","address":"轩辕路南湖春城北门门面61-102号","phone":"18096624226","category":"医疗保健服务;动物医疗场所;宠物诊所","area":"","lng":117.263989,"lat":31.773981,"amap_id":"B0FFIPJAPH","order":85,"prev_distance_km":1.156,"cumulative_distance_km":112.233,"amap_marker_url":"https://uri.amap.com/marker?position=117.263989,31.773981&name=%E4%BC%98%E8%B4%9D%E5%AE%A0%E7%89%A9%E5%8C%BB%E9%99%A2&src=vetmap&coordinate=gaode&callnative=1"}]}