{"summary":{"id":"d00270","province":"安徽省","city":"滁州市","district":"明光市","count":12,"route_count":1,"max_route_clinics":12,"total_distance_km":100.984,"coordinate_system":"GCJ-02 / Amap","generated_at":"2026-05-08 19:41:47"},"routes":[{"id":"r1","name":"第1段","count":12,"total_distance_km":100.984,"rows":[{"name":"潘村镇畜牧兽医站","address":"新大街路与张庄路交叉口东北80米","phone":"","category":"医疗保健服务;动物医疗场所;兽医站","area":"","lng":118.14145,"lat":33.0891,"amap_id":"B0JRG6RIJE","order":1,"prev_distance_km":0.0,"cumulative_distance_km":0.0,"amap_marker_url":"https://uri.amap.com/marker?position=118.141450,33.089100&name=%E6%BD%98%E6%9D%91%E9%95%87%E7%95%9C%E7%89%A7%E5%85%BD%E5%8C%BB%E7%AB%99&src=vetmap&coordinate=gaode&callnative=1","route_id":"r1","route_name":"第1段"},{"name":"明光市紫阳街兽医门诊","address":"紫阳村农贸市场北门","phone":"13955082560;19156090407","category":"医疗保健服务;动物医疗场所;兽医站","area":"","lng":118.084623,"lat":33.060146,"amap_id":"B0HUTAY4IT","order":2,"prev_distance_km":6.197,"cumulative_distance_km":6.197,"amap_marker_url":"https://uri.amap.com/marker?position=118.084623,33.060146&name=%E6%98%8E%E5%85%89%E5%B8%82%E7%B4%AB%E9%98%B3%E8%A1%97%E5%85%BD%E5%8C%BB%E9%97%A8%E8%AF%8A&src=vetmap&coordinate=gaode&callnative=1","route_id":"r1","route_name":"第1段"},{"name":"古沛镇兽医站","address":"古沛镇","phone":"","category":"医疗保健服务;动物医疗场所;宠物诊所","area":"","lng":118.001222,"lat":32.986385,"amap_id":"B0K3YH7P7P","order":3,"prev_distance_km":11.302,"cumulative_distance_km":17.499,"amap_marker_url":"https://uri.amap.com/marker?position=118.001222,32.986385&name=%E5%8F%A4%E6%B2%9B%E9%95%87%E5%85%BD%E5%8C%BB%E7%AB%99&src=vetmap&coordinate=gaode&callnative=1","route_id":"r1","route_name":"第1段"},{"name":"畜禽疾病防制服务中心","address":"091县道北5米","phone":"18955071008","category":"医疗保健服务;动物医疗场所;兽医站","area":"","lng":117.958253,"lat":32.901576,"amap_id":"B0FFH4ADH1","order":4,"prev_distance_km":10.247,"cumulative_distance_km":27.746,"amap_marker_url":"https://uri.amap.com/marker?position=117.958253,32.901576&name=%E7%95%9C%E7%A6%BD%E7%96%BE%E7%97%85%E9%98%B2%E5%88%B6%E6%9C%8D%E5%8A%A1%E4%B8%AD%E5%BF%83&src=vetmap&coordinate=gaode&callnative=1","route_id":"r1","route_name":"第1段"},{"name":"桥头兽医站","address":"中心街与南北街交叉口东140米","phone":"","category":"医疗保健服务;动物医疗场所;兽医站","area":"","lng":117.957668,"lat":32.901147,"amap_id":"B0HDJNSDWC","order":5,"prev_distance_km":0.073,"cumulative_distance_km":27.819,"amap_marker_url":"https://uri.amap.com/marker?position=117.957668,32.901147&name=%E6%A1%A5%E5%A4%B4%E5%85%BD%E5%8C%BB%E7%AB%99&src=vetmap&coordinate=gaode&callnative=1","route_id":"r1","route_name":"第1段"},{"name":"和县海大饲料兽医站门诊","address":"中心街与南北街交叉口西南60米","phone":"","category":"医疗保健服务;动物医疗场所;兽医站","area":"","lng":117.955575,"lat":32.900625,"amap_id":"B0LKUCZCZB","order":6,"prev_distance_km":0.204,"cumulative_distance_km":28.022,"amap_marker_url":"https://uri.amap.com/marker?position=117.955575,32.900625&name=%E5%92%8C%E5%8E%BF%E6%B5%B7%E5%A4%A7%E9%A5%B2%E6%96%99%E5%85%BD%E5%8C%BB%E7%AB%99%E9%97%A8%E8%AF%8A&src=vetmap&coordinate=gaode&callnative=1","route_id":"r1","route_name":"第1段"},{"name":"宠爱宠物诊所","address":"明光街道韩山路1号","phone":"","category":"医疗保健服务;动物医疗场所;宠物诊所","area":"","lng":117.985273,"lat":32.77675,"amap_id":"B0H0JMUX9B","order":7,"prev_distance_km":14.051,"cumulative_distance_km":42.073,"amap_marker_url":"https://uri.amap.com/marker?position=117.985273,32.776750&name=%E5%AE%A0%E7%88%B1%E5%AE%A0%E7%89%A9%E8%AF%8A%E6%89%80&src=vetmap&coordinate=gaode&callnative=1","route_id":"r1","route_name":"第1段"},{"name":"兽医院门诊部","address":"池河大道与韩山路交叉口东40米","phone":"","category":"医疗保健服务;动物医疗场所;兽医站","area":"","lng":117.98903,"lat":32.781705,"amap_id":"B0FFH6A9Z7","order":8,"prev_distance_km":0.653,"cumulative_distance_km":42.727,"amap_marker_url":"https://uri.amap.com/marker?position=117.989030,32.781705&name=%E5%85%BD%E5%8C%BB%E9%99%A2%E9%97%A8%E8%AF%8A%E9%83%A8&src=vetmap&coordinate=gaode&callnative=1","route_id":"r1","route_name":"第1段"},{"name":"康惜动物医院","address":"曹西路117号","phone":"13215501025","category":"医疗保健服务;动物医疗场所;宠物诊所","area":"","lng":118.012157,"lat":32.785637,"amap_id":"B0IUX7F71L","order":9,"prev_distance_km":2.206,"cumulative_distance_km":44.933,"amap_marker_url":"https://uri.amap.com/marker?position=118.012157,32.785637&name=%E5%BA%B7%E6%83%9C%E5%8A%A8%E7%89%A9%E5%8C%BB%E9%99%A2&src=vetmap&coordinate=gaode&callnative=1","route_id":"r1","route_name":"第1段"},{"name":"兽医站门诊部","address":"涧盱路西北侧","phone":"13955084399","category":"医疗保健服务;动物医疗场所;兽医站","area":"","lng":118.263711,"lat":32.812255,"amap_id":"B0HA67CR83","order":10,"prev_distance_km":23.698,"cumulative_distance_km":68.63,"amap_marker_url":"https://uri.amap.com/marker?position=118.263711,32.812255&name=%E5%85%BD%E5%8C%BB%E7%AB%99%E9%97%A8%E8%AF%8A%E9%83%A8&src=vetmap&coordinate=gaode&callnative=1","route_id":"r1","route_name":"第1段"},{"name":"白沙王兽医门诊部","address":"涧溪镇白沙王街道","phone":"","category":"医疗保健服务;动物医疗场所;兽医站","area":"","lng":118.290731,"lat":32.757938,"amap_id":"B0G0YPK9H7","order":11,"prev_distance_km":6.547,"cumulative_distance_km":75.177,"amap_marker_url":"https://uri.amap.com/marker?position=118.290731,32.757938&name=%E7%99%BD%E6%B2%99%E7%8E%8B%E5%85%BD%E5%8C%BB%E9%97%A8%E8%AF%8A%E9%83%A8&src=vetmap&coordinate=gaode&callnative=1","route_id":"r1","route_name":"第1段"},{"name":"金枝进兽药店","address":"中心街与新大街交叉口西南40米","phone":"","category":"医疗保健服务;动物医疗场所;动物医疗场所","area":"","lng":118.121689,"lat":32.574592,"amap_id":"B0GKXUFRTC","order":12,"prev_distance_km":25.807,"cumulative_distance_km":100.984,"amap_marker_url":"https://uri.amap.com/marker?position=118.121689,32.574592&name=%E9%87%91%E6%9E%9D%E8%BF%9B%E5%85%BD%E8%8D%AF%E5%BA%97&src=vetmap&coordinate=gaode&callnative=1","route_id":"r1","route_name":"第1段"}]}],"rows":[{"name":"潘村镇畜牧兽医站","address":"新大街路与张庄路交叉口东北80米","phone":"","category":"医疗保健服务;动物医疗场所;兽医站","area":"","lng":118.14145,"lat":33.0891,"amap_id":"B0JRG6RIJE","order":1,"prev_distance_km":0.0,"cumulative_distance_km":0.0,"amap_marker_url":"https://uri.amap.com/marker?position=118.141450,33.089100&name=%E6%BD%98%E6%9D%91%E9%95%87%E7%95%9C%E7%89%A7%E5%85%BD%E5%8C%BB%E7%AB%99&src=vetmap&coordinate=gaode&callnative=1","route_id":"r1","route_name":"第1段","global_order":1},{"name":"明光市紫阳街兽医门诊","address":"紫阳村农贸市场北门","phone":"13955082560;19156090407","category":"医疗保健服务;动物医疗场所;兽医站","area":"","lng":118.084623,"lat":33.060146,"amap_id":"B0HUTAY4IT","order":2,"prev_distance_km":6.197,"cumulative_distance_km":6.197,"amap_marker_url":"https://uri.amap.com/marker?position=118.084623,33.060146&name=%E6%98%8E%E5%85%89%E5%B8%82%E7%B4%AB%E9%98%B3%E8%A1%97%E5%85%BD%E5%8C%BB%E9%97%A8%E8%AF%8A&src=vetmap&coordinate=gaode&callnative=1","route_id":"r1","route_name":"第1段","global_order":2},{"name":"古沛镇兽医站","address":"古沛镇","phone":"","category":"医疗保健服务;动物医疗场所;宠物诊所","area":"","lng":118.001222,"lat":32.986385,"amap_id":"B0K3YH7P7P","order":3,"prev_distance_km":11.302,"cumulative_distance_km":17.499,"amap_marker_url":"https://uri.amap.com/marker?position=118.001222,32.986385&name=%E5%8F%A4%E6%B2%9B%E9%95%87%E5%85%BD%E5%8C%BB%E7%AB%99&src=vetmap&coordinate=gaode&callnative=1","route_id":"r1","route_name":"第1段","global_order":3},{"name":"畜禽疾病防制服务中心","address":"091县道北5米","phone":"18955071008","category":"医疗保健服务;动物医疗场所;兽医站","area":"","lng":117.958253,"lat":32.901576,"amap_id":"B0FFH4ADH1","order":4,"prev_distance_km":10.247,"cumulative_distance_km":27.746,"amap_marker_url":"https://uri.amap.com/marker?position=117.958253,32.901576&name=%E7%95%9C%E7%A6%BD%E7%96%BE%E7%97%85%E9%98%B2%E5%88%B6%E6%9C%8D%E5%8A%A1%E4%B8%AD%E5%BF%83&src=vetmap&coordinate=gaode&callnative=1","route_id":"r1","route_name":"第1段","global_order":4},{"name":"桥头兽医站","address":"中心街与南北街交叉口东140米","phone":"","category":"医疗保健服务;动物医疗场所;兽医站","area":"","lng":117.957668,"lat":32.901147,"amap_id":"B0HDJNSDWC","order":5,"prev_distance_km":0.073,"cumulative_distance_km":27.819,"amap_marker_url":"https://uri.amap.com/marker?position=117.957668,32.901147&name=%E6%A1%A5%E5%A4%B4%E5%85%BD%E5%8C%BB%E7%AB%99&src=vetmap&coordinate=gaode&callnative=1","route_id":"r1","route_name":"第1段","global_order":5},{"name":"和县海大饲料兽医站门诊","address":"中心街与南北街交叉口西南60米","phone":"","category":"医疗保健服务;动物医疗场所;兽医站","area":"","lng":117.955575,"lat":32.900625,"amap_id":"B0LKUCZCZB","order":6,"prev_distance_km":0.204,"cumulative_distance_km":28.022,"amap_marker_url":"https://uri.amap.com/marker?position=117.955575,32.900625&name=%E5%92%8C%E5%8E%BF%E6%B5%B7%E5%A4%A7%E9%A5%B2%E6%96%99%E5%85%BD%E5%8C%BB%E7%AB%99%E9%97%A8%E8%AF%8A&src=vetmap&coordinate=gaode&callnative=1","route_id":"r1","route_name":"第1段","global_order":6},{"name":"宠爱宠物诊所","address":"明光街道韩山路1号","phone":"","category":"医疗保健服务;动物医疗场所;宠物诊所","area":"","lng":117.985273,"lat":32.77675,"amap_id":"B0H0JMUX9B","order":7,"prev_distance_km":14.051,"cumulative_distance_km":42.073,"amap_marker_url":"https://uri.amap.com/marker?position=117.985273,32.776750&name=%E5%AE%A0%E7%88%B1%E5%AE%A0%E7%89%A9%E8%AF%8A%E6%89%80&src=vetmap&coordinate=gaode&callnative=1","route_id":"r1","route_name":"第1段","global_order":7},{"name":"兽医院门诊部","address":"池河大道与韩山路交叉口东40米","phone":"","category":"医疗保健服务;动物医疗场所;兽医站","area":"","lng":117.98903,"lat":32.781705,"amap_id":"B0FFH6A9Z7","order":8,"prev_distance_km":0.653,"cumulative_distance_km":42.727,"amap_marker_url":"https://uri.amap.com/marker?position=117.989030,32.781705&name=%E5%85%BD%E5%8C%BB%E9%99%A2%E9%97%A8%E8%AF%8A%E9%83%A8&src=vetmap&coordinate=gaode&callnative=1","route_id":"r1","route_name":"第1段","global_order":8},{"name":"康惜动物医院","address":"曹西路117号","phone":"13215501025","category":"医疗保健服务;动物医疗场所;宠物诊所","area":"","lng":118.012157,"lat":32.785637,"amap_id":"B0IUX7F71L","order":9,"prev_distance_km":2.206,"cumulative_distance_km":44.933,"amap_marker_url":"https://uri.amap.com/marker?position=118.012157,32.785637&name=%E5%BA%B7%E6%83%9C%E5%8A%A8%E7%89%A9%E5%8C%BB%E9%99%A2&src=vetmap&coordinate=gaode&callnative=1","route_id":"r1","route_name":"第1段","global_order":9},{"name":"兽医站门诊部","address":"涧盱路西北侧","phone":"13955084399","category":"医疗保健服务;动物医疗场所;兽医站","area":"","lng":118.263711,"lat":32.812255,"amap_id":"B0HA67CR83","order":10,"prev_distance_km":23.698,"cumulative_distance_km":68.63,"amap_marker_url":"https://uri.amap.com/marker?position=118.263711,32.812255&name=%E5%85%BD%E5%8C%BB%E7%AB%99%E9%97%A8%E8%AF%8A%E9%83%A8&src=vetmap&coordinate=gaode&callnative=1","route_id":"r1","route_name":"第1段","global_order":10},{"name":"白沙王兽医门诊部","address":"涧溪镇白沙王街道","phone":"","category":"医疗保健服务;动物医疗场所;兽医站","area":"","lng":118.290731,"lat":32.757938,"amap_id":"B0G0YPK9H7","order":11,"prev_distance_km":6.547,"cumulative_distance_km":75.177,"amap_marker_url":"https://uri.amap.com/marker?position=118.290731,32.757938&name=%E7%99%BD%E6%B2%99%E7%8E%8B%E5%85%BD%E5%8C%BB%E9%97%A8%E8%AF%8A%E9%83%A8&src=vetmap&coordinate=gaode&callnative=1","route_id":"r1","route_name":"第1段","global_order":11},{"name":"金枝进兽药店","address":"中心街与新大街交叉口西南40米","phone":"","category":"医疗保健服务;动物医疗场所;动物医疗场所","area":"","lng":118.121689,"lat":32.574592,"amap_id":"B0GKXUFRTC","order":12,"prev_distance_km":25.807,"cumulative_distance_km":100.984,"amap_marker_url":"https://uri.amap.com/marker?position=118.121689,32.574592&name=%E9%87%91%E6%9E%9D%E8%BF%9B%E5%85%BD%E8%8D%AF%E5%BA%97&src=vetmap&coordinate=gaode&callnative=1","route_id":"r1","route_name":"第1段","global_order":12}]}