{"summary":{"id":"d00239","province":"安徽省","city":"宣城市","district":"宣州区","count":16,"total_distance_km":50.493,"coordinate_system":"GCJ-02 / Amap","generated_at":"2026-05-07 20:21:39"},"rows":[{"name":"朱桥水产动物疾病防治中心","address":"朱桥卫生院北侧","phone":"13675631588","category":"医疗保健服务;动物医疗场所;兽医站","area":"","lng":118.794491,"lat":31.113514,"amap_id":"B0GD1YMT4F","order":1,"prev_distance_km":0.0,"cumulative_distance_km":0.0,"amap_marker_url":"https://uri.amap.com/marker?position=118.794491,31.113514&name=%E6%9C%B1%E6%A1%A5%E6%B0%B4%E4%BA%A7%E5%8A%A8%E7%89%A9%E7%96%BE%E7%97%85%E9%98%B2%E6%B2%BB%E4%B8%AD%E5%BF%83&src=vetmap&coordinate=gaode&callnative=1"},{"name":"小可宠药(大贝宣城)","address":"麒麟大道11号D9栋","phone":"","category":"医疗保健服务;动物医疗场所;动物医疗场所","area":"","lng":118.744422,"lat":31.02582,"amap_id":"B0L0SAJ4LP","order":2,"prev_distance_km":10.855,"cumulative_distance_km":10.855,"amap_marker_url":"https://uri.amap.com/marker?position=118.744422,31.025820&name=%E5%B0%8F%E5%8F%AF%E5%AE%A0%E8%8D%AF%28%E5%A4%A7%E8%B4%9D%E5%AE%A3%E5%9F%8E%29&src=vetmap&coordinate=gaode&callnative=1"},{"name":"宣城市畜牧兽医服务中心","address":"盛世华庭南门东160米","phone":"","category":"医疗保健服务;动物医疗场所;兽医站","area":"","lng":118.748136,"lat":30.961399,"amap_id":"B0ID7UBX2A","order":3,"prev_distance_km":7.172,"cumulative_distance_km":18.027,"amap_marker_url":"https://uri.amap.com/marker?position=118.748136,30.961399&name=%E5%AE%A3%E5%9F%8E%E5%B8%82%E7%95%9C%E7%89%A7%E5%85%BD%E5%8C%BB%E6%9C%8D%E5%8A%A1%E4%B8%AD%E5%BF%83&src=vetmap&coordinate=gaode&callnative=1"},{"name":"宣城市宣州区蓝精灵宠物诊疗(敬亭路店)","address":"敬亭路银城小区7幢3室","phone":"0563-3750666","category":"医疗保健服务;动物医疗场所;宠物诊所","area":"","lng":118.747763,"lat":30.960699,"amap_id":"B0H6LADR2T","order":4,"prev_distance_km":0.086,"cumulative_distance_km":18.112,"amap_marker_url":"https://uri.amap.com/marker?position=118.747763,30.960699&name=%E5%AE%A3%E5%9F%8E%E5%B8%82%E5%AE%A3%E5%B7%9E%E5%8C%BA%E8%93%9D%E7%B2%BE%E7%81%B5%E5%AE%A0%E7%89%A9%E8%AF%8A%E7%96%97%28%E6%95%AC%E4%BA%AD%E8%B7%AF%E5%BA%97%29&src=vetmap&coordinate=gaode&callnative=1"},{"name":"宣宁宠物医院•CT·彩超中心","address":"中山西路347-349-351号","phone":"0563-3131120;15955633801","category":"医疗保健服务;动物医疗场所;宠物诊所","area":"","lng":118.747236,"lat":30.946411,"amap_id":"B0FFJDJCXB","order":5,"prev_distance_km":1.59,"cumulative_distance_km":19.702,"amap_marker_url":"https://uri.amap.com/marker?position=118.747236,30.946411&name=%E5%AE%A3%E5%AE%81%E5%AE%A0%E7%89%A9%E5%8C%BB%E9%99%A2%E2%80%A2CT%C2%B7%E5%BD%A9%E8%B6%85%E4%B8%AD%E5%BF%83&src=vetmap&coordinate=gaode&callnative=1"},{"name":"宠爱有家动物医院","address":"元宝街9-1栋","phone":"15156333380","category":"医疗保健服务;动物医疗场所;宠物诊所","area":"状元南路","lng":118.757206,"lat":30.943538,"amap_id":"B0FFLLAL84","order":6,"prev_distance_km":1.003,"cumulative_distance_km":20.705,"amap_marker_url":"https://uri.amap.com/marker?position=118.757206,30.943538&name=%E5%AE%A0%E7%88%B1%E6%9C%89%E5%AE%B6%E5%8A%A8%E7%89%A9%E5%8C%BB%E9%99%A2&src=vetmap&coordinate=gaode&callnative=1"},{"name":"宠乐时光宠物诊所","address":"民族商城18幢1号木直街小广场东侧30米","phone":"14755597336;17826678960","category":"医疗保健服务;动物医疗场所;宠物诊所","area":"","lng":118.76167,"lat":30.949049,"amap_id":"B0IDTCZCZP","order":7,"prev_distance_km":0.746,"cumulative_distance_km":21.451,"amap_marker_url":"https://uri.amap.com/marker?position=118.761670,30.949049&name=%E5%AE%A0%E4%B9%90%E6%97%B6%E5%85%89%E5%AE%A0%E7%89%A9%E8%AF%8A%E6%89%80&src=vetmap&coordinate=gaode&callnative=1"},{"name":"爱多宠物","address":"澄江南路与木直街交叉口东南80米","phone":"","category":"购物服务;专卖店;宠物用品店|医疗保健服务;动物医疗场所;动物医疗场所","area":"","lng":118.763575,"lat":30.948775,"amap_id":"B0LDVR6X0Q","order":8,"prev_distance_km":0.184,"cumulative_distance_km":21.635,"amap_marker_url":"https://uri.amap.com/marker?position=118.763575,30.948775&name=%E7%88%B1%E5%A4%9A%E5%AE%A0%E7%89%A9&src=vetmap&coordinate=gaode&callnative=1"},{"name":"天使宠物医院","address":"鳌峰东路南侧国鑫世纪新城1幢-3室","phone":"15305632348","category":"医疗保健服务;动物医疗场所;宠物诊所","area":"","lng":118.776803,"lat":30.941483,"amap_id":"B0FFIZ9OGA","order":9,"prev_distance_km":1.5,"cumulative_distance_km":23.135,"amap_marker_url":"https://uri.amap.com/marker?position=118.776803,30.941483&name=%E5%A4%A9%E4%BD%BF%E5%AE%A0%E7%89%A9%E5%8C%BB%E9%99%A2&src=vetmap&coordinate=gaode&callnative=1"},{"name":"宣宁宠物医院(中锐店)","address":"向阳大道23栋9-10号","phone":"13399638392;15955633801","category":"医疗保健服务;动物医疗场所;宠物诊所","area":"","lng":118.776882,"lat":30.927799,"amap_id":"B0J3FHBS24","order":10,"prev_distance_km":1.522,"cumulative_distance_km":24.657,"amap_marker_url":"https://uri.amap.com/marker?position=118.776882,30.927799&name=%E5%AE%A3%E5%AE%81%E5%AE%A0%E7%89%A9%E5%8C%BB%E9%99%A2%28%E4%B8%AD%E9%94%90%E5%BA%97%29&src=vetmap&coordinate=gaode&callnative=1"},{"name":"杜艾霖宠物诊所","address":"熏化路导航台5号","phone":"0563-2511329;13705639437","category":"医疗保健服务;动物医疗场所;宠物诊所","area":"状元南路","lng":118.753389,"lat":30.933321,"amap_id":"B0FFFU1NSP","order":11,"prev_distance_km":2.323,"cumulative_distance_km":26.98,"amap_marker_url":"https://uri.amap.com/marker?position=118.753389,30.933321&name=%E6%9D%9C%E8%89%BE%E9%9C%96%E5%AE%A0%E7%89%A9%E8%AF%8A%E6%89%80&src=vetmap&coordinate=gaode&callnative=1"},{"name":"蓝精灵宠物医院","address":"九同路12-号梅溪公园12-13号","phone":"0563-3037862","category":"医疗保健服务;动物医疗场所;宠物诊所","area":"","lng":118.749309,"lat":30.938609,"amap_id":"B0FFG0RRNL","order":12,"prev_distance_km":0.705,"cumulative_distance_km":27.685,"amap_marker_url":"https://uri.amap.com/marker?position=118.749309,30.938609&name=%E8%93%9D%E7%B2%BE%E7%81%B5%E5%AE%A0%E7%89%A9%E5%8C%BB%E9%99%A2&src=vetmap&coordinate=gaode&callnative=1"},{"name":"宣城市联合动物医院","address":"昭亭南路美都新城西大门20栋5-6号门面","phone":"0563-3838120;13170137193;15215597582","category":"医疗保健服务;动物医疗场所;宠物诊所","area":"","lng":118.742891,"lat":30.936837,"amap_id":"B0FFHZYL0J","order":13,"prev_distance_km":0.643,"cumulative_distance_km":28.328,"amap_marker_url":"https://uri.amap.com/marker?position=118.742891,30.936837&name=%E5%AE%A3%E5%9F%8E%E5%B8%82%E8%81%94%E5%90%88%E5%8A%A8%E7%89%A9%E5%8C%BB%E9%99%A2&src=vetmap&coordinate=gaode&callnative=1"},{"name":"宠福欣宠物医院内窥镜骨科(万达店)","address":"万达对面银桥湾北门2栋5号","phone":"18792276365","category":"医疗保健服务;动物医疗场所;宠物诊所","area":"","lng":118.737635,"lat":30.935225,"amap_id":"B0LDY926MC","order":14,"prev_distance_km":0.532,"cumulative_distance_km":28.861,"amap_marker_url":"https://uri.amap.com/marker?position=118.737635,30.935225&name=%E5%AE%A0%E7%A6%8F%E6%AC%A3%E5%AE%A0%E7%89%A9%E5%8C%BB%E9%99%A2%E5%86%85%E7%AA%A5%E9%95%9C%E9%AA%A8%E7%A7%91%28%E4%B8%87%E8%BE%BE%E5%BA%97%29&src=vetmap&coordinate=gaode&callnative=1"},{"name":"真伍畜禽服务部","address":"宣泾北路与上街交叉口西南320米","phone":"","category":"医疗保健服务;动物医疗场所;兽医站","area":"","lng":118.616038,"lat":30.833891,"amap_id":"B0FFIVQBWF","order":15,"prev_distance_km":16.174,"cumulative_distance_km":45.035,"amap_marker_url":"https://uri.amap.com/marker?position=118.616038,30.833891&name=%E7%9C%9F%E4%BC%8D%E7%95%9C%E7%A6%BD%E6%9C%8D%E5%8A%A1%E9%83%A8&src=vetmap&coordinate=gaode&callnative=1"},{"name":"高桥兽医站","address":"X016高桥集贸市场北侧约230米","phone":"","category":"医疗保健服务;动物医疗场所;兽医站","area":"","lng":118.578589,"lat":30.796815,"amap_id":"B0HRFU31UU","order":16,"prev_distance_km":5.458,"cumulative_distance_km":50.493,"amap_marker_url":"https://uri.amap.com/marker?position=118.578589,30.796815&name=%E9%AB%98%E6%A1%A5%E5%85%BD%E5%8C%BB%E7%AB%99&src=vetmap&coordinate=gaode&callnative=1"}]}