{"summary":{"id":"d00269","province":"安徽省","city":"滁州市","district":"定远县","count":18,"route_count":1,"max_route_clinics":18,"total_distance_km":126.476,"coordinate_system":"GCJ-02 / Amap","generated_at":"2026-05-08 19:41:47"},"routes":[{"id":"r1","name":"第1段","count":18,"total_distance_km":126.476,"rows":[{"name":"刘杰畜禽服务部","address":"人民路与建材路交叉口东100米","phone":"","category":"医疗保健服务;动物医疗场所;兽医站","area":"","lng":117.235116,"lat":32.547472,"amap_id":"B0KRKD9WI3","order":1,"prev_distance_km":0.0,"cumulative_distance_km":0.0,"amap_marker_url":"https://uri.amap.com/marker?position=117.235116,32.547472&name=%E5%88%98%E6%9D%B0%E7%95%9C%E7%A6%BD%E6%9C%8D%E5%8A%A1%E9%83%A8&src=vetmap&coordinate=gaode&callnative=1","route_id":"r1","route_name":"第1段"},{"name":"萌宠诊所","address":"炉桥镇花园街西侧凯源凤凰街小区1幢13室","phone":"","category":"医疗保健服务;动物医疗场所;宠物诊所","area":"","lng":117.24075,"lat":32.547394,"amap_id":"B0LG35860L","order":2,"prev_distance_km":0.528,"cumulative_distance_km":0.528,"amap_marker_url":"https://uri.amap.com/marker?position=117.240750,32.547394&name=%E8%90%8C%E5%AE%A0%E8%AF%8A%E6%89%80&src=vetmap&coordinate=gaode&callnative=1","route_id":"r1","route_name":"第1段"},{"name":"定远宠爱有家宠物诊所(二店)","address":"炉桥镇风驰网咖旁","phone":"","category":"医疗保健服务;动物医疗场所;宠物诊所","area":"","lng":117.241554,"lat":32.548684,"amap_id":"B0LGRSD3P5","order":3,"prev_distance_km":0.162,"cumulative_distance_km":0.69,"amap_marker_url":"https://uri.amap.com/marker?position=117.241554,32.548684&name=%E5%AE%9A%E8%BF%9C%E5%AE%A0%E7%88%B1%E6%9C%89%E5%AE%B6%E5%AE%A0%E7%89%A9%E8%AF%8A%E6%89%80%28%E4%BA%8C%E5%BA%97%29&src=vetmap&coordinate=gaode&callnative=1","route_id":"r1","route_name":"第1段"},{"name":"炉桥宠物保健康复中心","address":"013乡道西54米","phone":"13866539884","category":"医疗保健服务;动物医疗场所;宠物诊所","area":"","lng":117.260873,"lat":32.527752,"amap_id":"B0KUMM7AQ8","order":4,"prev_distance_km":2.949,"cumulative_distance_km":3.639,"amap_marker_url":"https://uri.amap.com/marker?position=117.260873,32.527752&name=%E7%82%89%E6%A1%A5%E5%AE%A0%E7%89%A9%E4%BF%9D%E5%81%A5%E5%BA%B7%E5%A4%8D%E4%B8%AD%E5%BF%83&src=vetmap&coordinate=gaode&callnative=1","route_id":"r1","route_name":"第1段"},{"name":"中心街兽药店","address":"永康镇中心街","phone":"13955030590","category":"医疗保健服务;动物医疗场所;动物医疗场所","area":"","lng":117.392411,"lat":32.535174,"amap_id":"B0FFK9ML8B","order":5,"prev_distance_km":12.359,"cumulative_distance_km":15.998,"amap_marker_url":"https://uri.amap.com/marker?position=117.392411,32.535174&name=%E4%B8%AD%E5%BF%83%E8%A1%97%E5%85%BD%E8%8D%AF%E5%BA%97&src=vetmap&coordinate=gaode&callnative=1","route_id":"r1","route_name":"第1段"},{"name":"西卅店兽医站","address":"328国道与富民路交叉口东北120米","phone":"","category":"医疗保健服务;动物医疗场所;兽医站","area":"","lng":117.523531,"lat":32.563934,"amap_id":"B0J13ROAEI","order":6,"prev_distance_km":12.699,"cumulative_distance_km":28.697,"amap_marker_url":"https://uri.amap.com/marker?position=117.523531,32.563934&name=%E8%A5%BF%E5%8D%85%E5%BA%97%E5%85%BD%E5%8C%BB%E7%AB%99&src=vetmap&coordinate=gaode&callnative=1","route_id":"r1","route_name":"第1段"},{"name":"欢乐动保(日源·生态家园店)","address":"鲁肃大道89号日源·生态家园","phone":"13695503117;18155062511","category":"医疗保健服务;动物医疗场所;兽医站","area":"","lng":117.679981,"lat":32.508287,"amap_id":"B0FFK6P9CE","order":7,"prev_distance_km":15.918,"cumulative_distance_km":44.615,"amap_marker_url":"https://uri.amap.com/marker?position=117.679981,32.508287&name=%E6%AC%A2%E4%B9%90%E5%8A%A8%E4%BF%9D%28%E6%97%A5%E6%BA%90%C2%B7%E7%94%9F%E6%80%81%E5%AE%B6%E5%9B%AD%E5%BA%97%29&src=vetmap&coordinate=gaode&callnative=1","route_id":"r1","route_name":"第1段"},{"name":"宠物医院","address":"南环路33-9灵感网吧二店旁","phone":"13855025964","category":"医疗保健服务;动物医疗场所;宠物诊所","area":"","lng":117.687224,"lat":32.522117,"amap_id":"B0FFM5LH5H","order":8,"prev_distance_km":1.681,"cumulative_distance_km":46.296,"amap_marker_url":"https://uri.amap.com/marker?position=117.687224,32.522117&name=%E5%AE%A0%E7%89%A9%E5%8C%BB%E9%99%A2&src=vetmap&coordinate=gaode&callnative=1","route_id":"r1","route_name":"第1段"},{"name":"依心宠物诊所","address":"定城镇金翔加油站对面曲阳社区旁","phone":"13485913609","category":"医疗保健服务;动物医疗场所;宠物诊所","area":"","lng":117.693308,"lat":32.526173,"amap_id":"B0FFJS77CL","order":9,"prev_distance_km":0.727,"cumulative_distance_km":47.024,"amap_marker_url":"https://uri.amap.com/marker?position=117.693308,32.526173&name=%E4%BE%9D%E5%BF%83%E5%AE%A0%E7%89%A9%E8%AF%8A%E6%89%80&src=vetmap&coordinate=gaode&callnative=1","route_id":"r1","route_name":"第1段"},{"name":"惜贝宠物诊所","address":"鲁肃大道与幸福中路交叉口西北60米","phone":"15055033975","category":"医疗保健服务;动物医疗场所;宠物诊所","area":"","lng":117.693851,"lat":32.531124,"amap_id":"B0I39ZZQ06","order":10,"prev_distance_km":0.553,"cumulative_distance_km":47.577,"amap_marker_url":"https://uri.amap.com/marker?position=117.693851,32.531124&name=%E6%83%9C%E8%B4%9D%E5%AE%A0%E7%89%A9%E8%AF%8A%E6%89%80&src=vetmap&coordinate=gaode&callnative=1","route_id":"r1","route_name":"第1段"},{"name":"定远友爱动物医院","address":"金鑫桃园西门旁","phone":"15955033856;18712036392","category":"医疗保健服务;动物医疗场所;宠物诊所","area":"","lng":117.687138,"lat":32.534181,"amap_id":"B0GK1SWJUJ","order":11,"prev_distance_km":0.715,"cumulative_distance_km":48.292,"amap_marker_url":"https://uri.amap.com/marker?position=117.687138,32.534181&name=%E5%AE%9A%E8%BF%9C%E5%8F%8B%E7%88%B1%E5%8A%A8%E7%89%A9%E5%8C%BB%E9%99%A2&src=vetmap&coordinate=gaode&callnative=1","route_id":"r1","route_name":"第1段"},{"name":"瑞宠鑫宠物诊所","address":"定远远古城水韵坊8-6号","phone":"","category":"医疗保健服务;动物医疗场所;宠物诊所","area":"","lng":117.711624,"lat":32.537999,"amap_id":"B0L3FA5T13","order":12,"prev_distance_km":2.334,"cumulative_distance_km":50.626,"amap_marker_url":"https://uri.amap.com/marker?position=117.711624,32.537999&name=%E7%91%9E%E5%AE%A0%E9%91%AB%E5%AE%A0%E7%89%A9%E8%AF%8A%E6%89%80&src=vetmap&coordinate=gaode&callnative=1","route_id":"r1","route_name":"第1段"},{"name":"定远宠爱有家宠物诊所","address":"冠城公馆南门东50米","phone":"","category":"医疗保健服务;动物医疗场所;宠物诊所","area":"","lng":117.720533,"lat":32.524952,"amap_id":"B0K3ZAGCVY","order":13,"prev_distance_km":1.674,"cumulative_distance_km":52.3,"amap_marker_url":"https://uri.amap.com/marker?position=117.720533,32.524952&name=%E5%AE%9A%E8%BF%9C%E5%AE%A0%E7%88%B1%E6%9C%89%E5%AE%B6%E5%AE%A0%E7%89%A9%E8%AF%8A%E6%89%80&src=vetmap&coordinate=gaode&callnative=1","route_id":"r1","route_name":"第1段"},{"name":"红星兽药店","address":"319省道与府前巷交叉口西360米","phone":"","category":"医疗保健服务;动物医疗场所;动物医疗场所","area":"","lng":117.815163,"lat":32.631279,"amap_id":"B0G0MBMYSD","order":14,"prev_distance_km":14.778,"cumulative_distance_km":67.079,"amap_marker_url":"https://uri.amap.com/marker?position=117.815163,32.631279&name=%E7%BA%A2%E6%98%9F%E5%85%BD%E8%8D%AF%E5%BA%97&src=vetmap&coordinate=gaode&callnative=1","route_id":"r1","route_name":"第1段"},{"name":"定远县畜牧兽医局桑涧畜牧兽医站","address":"景观大道与小姜路交叉口东400米","phone":"","category":"医疗保健服务;动物医疗场所;兽医站","area":"","lng":117.827011,"lat":32.514893,"amap_id":"B0FFKZYS1R","order":15,"prev_distance_km":12.989,"cumulative_distance_km":80.068,"amap_marker_url":"https://uri.amap.com/marker?position=117.827011,32.514893&name=%E5%AE%9A%E8%BF%9C%E5%8E%BF%E7%95%9C%E7%89%A7%E5%85%BD%E5%8C%BB%E5%B1%80%E6%A1%91%E6%B6%A7%E7%95%9C%E7%89%A7%E5%85%BD%E5%8C%BB%E7%AB%99&src=vetmap&coordinate=gaode&callnative=1","route_id":"r1","route_name":"第1段"},{"name":"定远动物防疫","address":"景观大道与小姜路交叉口东420米","phone":"","category":"医疗保健服务;动物医疗场所;动物医疗场所","area":"","lng":117.827236,"lat":32.514907,"amap_id":"B0GK2CJYA2","order":16,"prev_distance_km":0.021,"cumulative_distance_km":80.089,"amap_marker_url":"https://uri.amap.com/marker?position=117.827236,32.514907&name=%E5%AE%9A%E8%BF%9C%E5%8A%A8%E7%89%A9%E9%98%B2%E7%96%AB&src=vetmap&coordinate=gaode&callnative=1","route_id":"r1","route_name":"第1段"},{"name":"藕塘兽医站","address":"永宁路与罗巷交叉口西140米","phone":"13965968950","category":"医疗保健服务;动物医疗场所;兽医站","area":"","lng":117.925176,"lat":32.379354,"amap_id":"B0HKUOZHFT","order":17,"prev_distance_km":17.654,"cumulative_distance_km":97.742,"amap_marker_url":"https://uri.amap.com/marker?position=117.925176,32.379354&name=%E8%97%95%E5%A1%98%E5%85%BD%E5%8C%BB%E7%AB%99&src=vetmap&coordinate=gaode&callnative=1","route_id":"r1","route_name":"第1段"},{"name":"童其武动物门诊","address":"东二站路与合蚌中路交叉口北120米","phone":"","category":"医疗保健服务;动物医疗场所;宠物诊所","area":"","lng":117.625786,"lat":32.32638,"amap_id":"B0FFKUZGSL","order":18,"prev_distance_km":28.733,"cumulative_distance_km":126.476,"amap_marker_url":"https://uri.amap.com/marker?position=117.625786,32.326380&name=%E7%AB%A5%E5%85%B6%E6%AD%A6%E5%8A%A8%E7%89%A9%E9%97%A8%E8%AF%8A&src=vetmap&coordinate=gaode&callnative=1","route_id":"r1","route_name":"第1段"}]}],"rows":[{"name":"刘杰畜禽服务部","address":"人民路与建材路交叉口东100米","phone":"","category":"医疗保健服务;动物医疗场所;兽医站","area":"","lng":117.235116,"lat":32.547472,"amap_id":"B0KRKD9WI3","order":1,"prev_distance_km":0.0,"cumulative_distance_km":0.0,"amap_marker_url":"https://uri.amap.com/marker?position=117.235116,32.547472&name=%E5%88%98%E6%9D%B0%E7%95%9C%E7%A6%BD%E6%9C%8D%E5%8A%A1%E9%83%A8&src=vetmap&coordinate=gaode&callnative=1","route_id":"r1","route_name":"第1段","global_order":1},{"name":"萌宠诊所","address":"炉桥镇花园街西侧凯源凤凰街小区1幢13室","phone":"","category":"医疗保健服务;动物医疗场所;宠物诊所","area":"","lng":117.24075,"lat":32.547394,"amap_id":"B0LG35860L","order":2,"prev_distance_km":0.528,"cumulative_distance_km":0.528,"amap_marker_url":"https://uri.amap.com/marker?position=117.240750,32.547394&name=%E8%90%8C%E5%AE%A0%E8%AF%8A%E6%89%80&src=vetmap&coordinate=gaode&callnative=1","route_id":"r1","route_name":"第1段","global_order":2},{"name":"定远宠爱有家宠物诊所(二店)","address":"炉桥镇风驰网咖旁","phone":"","category":"医疗保健服务;动物医疗场所;宠物诊所","area":"","lng":117.241554,"lat":32.548684,"amap_id":"B0LGRSD3P5","order":3,"prev_distance_km":0.162,"cumulative_distance_km":0.69,"amap_marker_url":"https://uri.amap.com/marker?position=117.241554,32.548684&name=%E5%AE%9A%E8%BF%9C%E5%AE%A0%E7%88%B1%E6%9C%89%E5%AE%B6%E5%AE%A0%E7%89%A9%E8%AF%8A%E6%89%80%28%E4%BA%8C%E5%BA%97%29&src=vetmap&coordinate=gaode&callnative=1","route_id":"r1","route_name":"第1段","global_order":3},{"name":"炉桥宠物保健康复中心","address":"013乡道西54米","phone":"13866539884","category":"医疗保健服务;动物医疗场所;宠物诊所","area":"","lng":117.260873,"lat":32.527752,"amap_id":"B0KUMM7AQ8","order":4,"prev_distance_km":2.949,"cumulative_distance_km":3.639,"amap_marker_url":"https://uri.amap.com/marker?position=117.260873,32.527752&name=%E7%82%89%E6%A1%A5%E5%AE%A0%E7%89%A9%E4%BF%9D%E5%81%A5%E5%BA%B7%E5%A4%8D%E4%B8%AD%E5%BF%83&src=vetmap&coordinate=gaode&callnative=1","route_id":"r1","route_name":"第1段","global_order":4},{"name":"中心街兽药店","address":"永康镇中心街","phone":"13955030590","category":"医疗保健服务;动物医疗场所;动物医疗场所","area":"","lng":117.392411,"lat":32.535174,"amap_id":"B0FFK9ML8B","order":5,"prev_distance_km":12.359,"cumulative_distance_km":15.998,"amap_marker_url":"https://uri.amap.com/marker?position=117.392411,32.535174&name=%E4%B8%AD%E5%BF%83%E8%A1%97%E5%85%BD%E8%8D%AF%E5%BA%97&src=vetmap&coordinate=gaode&callnative=1","route_id":"r1","route_name":"第1段","global_order":5},{"name":"西卅店兽医站","address":"328国道与富民路交叉口东北120米","phone":"","category":"医疗保健服务;动物医疗场所;兽医站","area":"","lng":117.523531,"lat":32.563934,"amap_id":"B0J13ROAEI","order":6,"prev_distance_km":12.699,"cumulative_distance_km":28.697,"amap_marker_url":"https://uri.amap.com/marker?position=117.523531,32.563934&name=%E8%A5%BF%E5%8D%85%E5%BA%97%E5%85%BD%E5%8C%BB%E7%AB%99&src=vetmap&coordinate=gaode&callnative=1","route_id":"r1","route_name":"第1段","global_order":6},{"name":"欢乐动保(日源·生态家园店)","address":"鲁肃大道89号日源·生态家园","phone":"13695503117;18155062511","category":"医疗保健服务;动物医疗场所;兽医站","area":"","lng":117.679981,"lat":32.508287,"amap_id":"B0FFK6P9CE","order":7,"prev_distance_km":15.918,"cumulative_distance_km":44.615,"amap_marker_url":"https://uri.amap.com/marker?position=117.679981,32.508287&name=%E6%AC%A2%E4%B9%90%E5%8A%A8%E4%BF%9D%28%E6%97%A5%E6%BA%90%C2%B7%E7%94%9F%E6%80%81%E5%AE%B6%E5%9B%AD%E5%BA%97%29&src=vetmap&coordinate=gaode&callnative=1","route_id":"r1","route_name":"第1段","global_order":7},{"name":"宠物医院","address":"南环路33-9灵感网吧二店旁","phone":"13855025964","category":"医疗保健服务;动物医疗场所;宠物诊所","area":"","lng":117.687224,"lat":32.522117,"amap_id":"B0FFM5LH5H","order":8,"prev_distance_km":1.681,"cumulative_distance_km":46.296,"amap_marker_url":"https://uri.amap.com/marker?position=117.687224,32.522117&name=%E5%AE%A0%E7%89%A9%E5%8C%BB%E9%99%A2&src=vetmap&coordinate=gaode&callnative=1","route_id":"r1","route_name":"第1段","global_order":8},{"name":"依心宠物诊所","address":"定城镇金翔加油站对面曲阳社区旁","phone":"13485913609","category":"医疗保健服务;动物医疗场所;宠物诊所","area":"","lng":117.693308,"lat":32.526173,"amap_id":"B0FFJS77CL","order":9,"prev_distance_km":0.727,"cumulative_distance_km":47.024,"amap_marker_url":"https://uri.amap.com/marker?position=117.693308,32.526173&name=%E4%BE%9D%E5%BF%83%E5%AE%A0%E7%89%A9%E8%AF%8A%E6%89%80&src=vetmap&coordinate=gaode&callnative=1","route_id":"r1","route_name":"第1段","global_order":9},{"name":"惜贝宠物诊所","address":"鲁肃大道与幸福中路交叉口西北60米","phone":"15055033975","category":"医疗保健服务;动物医疗场所;宠物诊所","area":"","lng":117.693851,"lat":32.531124,"amap_id":"B0I39ZZQ06","order":10,"prev_distance_km":0.553,"cumulative_distance_km":47.577,"amap_marker_url":"https://uri.amap.com/marker?position=117.693851,32.531124&name=%E6%83%9C%E8%B4%9D%E5%AE%A0%E7%89%A9%E8%AF%8A%E6%89%80&src=vetmap&coordinate=gaode&callnative=1","route_id":"r1","route_name":"第1段","global_order":10},{"name":"定远友爱动物医院","address":"金鑫桃园西门旁","phone":"15955033856;18712036392","category":"医疗保健服务;动物医疗场所;宠物诊所","area":"","lng":117.687138,"lat":32.534181,"amap_id":"B0GK1SWJUJ","order":11,"prev_distance_km":0.715,"cumulative_distance_km":48.292,"amap_marker_url":"https://uri.amap.com/marker?position=117.687138,32.534181&name=%E5%AE%9A%E8%BF%9C%E5%8F%8B%E7%88%B1%E5%8A%A8%E7%89%A9%E5%8C%BB%E9%99%A2&src=vetmap&coordinate=gaode&callnative=1","route_id":"r1","route_name":"第1段","global_order":11},{"name":"瑞宠鑫宠物诊所","address":"定远远古城水韵坊8-6号","phone":"","category":"医疗保健服务;动物医疗场所;宠物诊所","area":"","lng":117.711624,"lat":32.537999,"amap_id":"B0L3FA5T13","order":12,"prev_distance_km":2.334,"cumulative_distance_km":50.626,"amap_marker_url":"https://uri.amap.com/marker?position=117.711624,32.537999&name=%E7%91%9E%E5%AE%A0%E9%91%AB%E5%AE%A0%E7%89%A9%E8%AF%8A%E6%89%80&src=vetmap&coordinate=gaode&callnative=1","route_id":"r1","route_name":"第1段","global_order":12},{"name":"定远宠爱有家宠物诊所","address":"冠城公馆南门东50米","phone":"","category":"医疗保健服务;动物医疗场所;宠物诊所","area":"","lng":117.720533,"lat":32.524952,"amap_id":"B0K3ZAGCVY","order":13,"prev_distance_km":1.674,"cumulative_distance_km":52.3,"amap_marker_url":"https://uri.amap.com/marker?position=117.720533,32.524952&name=%E5%AE%9A%E8%BF%9C%E5%AE%A0%E7%88%B1%E6%9C%89%E5%AE%B6%E5%AE%A0%E7%89%A9%E8%AF%8A%E6%89%80&src=vetmap&coordinate=gaode&callnative=1","route_id":"r1","route_name":"第1段","global_order":13},{"name":"红星兽药店","address":"319省道与府前巷交叉口西360米","phone":"","category":"医疗保健服务;动物医疗场所;动物医疗场所","area":"","lng":117.815163,"lat":32.631279,"amap_id":"B0G0MBMYSD","order":14,"prev_distance_km":14.778,"cumulative_distance_km":67.079,"amap_marker_url":"https://uri.amap.com/marker?position=117.815163,32.631279&name=%E7%BA%A2%E6%98%9F%E5%85%BD%E8%8D%AF%E5%BA%97&src=vetmap&coordinate=gaode&callnative=1","route_id":"r1","route_name":"第1段","global_order":14},{"name":"定远县畜牧兽医局桑涧畜牧兽医站","address":"景观大道与小姜路交叉口东400米","phone":"","category":"医疗保健服务;动物医疗场所;兽医站","area":"","lng":117.827011,"lat":32.514893,"amap_id":"B0FFKZYS1R","order":15,"prev_distance_km":12.989,"cumulative_distance_km":80.068,"amap_marker_url":"https://uri.amap.com/marker?position=117.827011,32.514893&name=%E5%AE%9A%E8%BF%9C%E5%8E%BF%E7%95%9C%E7%89%A7%E5%85%BD%E5%8C%BB%E5%B1%80%E6%A1%91%E6%B6%A7%E7%95%9C%E7%89%A7%E5%85%BD%E5%8C%BB%E7%AB%99&src=vetmap&coordinate=gaode&callnative=1","route_id":"r1","route_name":"第1段","global_order":15},{"name":"定远动物防疫","address":"景观大道与小姜路交叉口东420米","phone":"","category":"医疗保健服务;动物医疗场所;动物医疗场所","area":"","lng":117.827236,"lat":32.514907,"amap_id":"B0GK2CJYA2","order":16,"prev_distance_km":0.021,"cumulative_distance_km":80.089,"amap_marker_url":"https://uri.amap.com/marker?position=117.827236,32.514907&name=%E5%AE%9A%E8%BF%9C%E5%8A%A8%E7%89%A9%E9%98%B2%E7%96%AB&src=vetmap&coordinate=gaode&callnative=1","route_id":"r1","route_name":"第1段","global_order":16},{"name":"藕塘兽医站","address":"永宁路与罗巷交叉口西140米","phone":"13965968950","category":"医疗保健服务;动物医疗场所;兽医站","area":"","lng":117.925176,"lat":32.379354,"amap_id":"B0HKUOZHFT","order":17,"prev_distance_km":17.654,"cumulative_distance_km":97.742,"amap_marker_url":"https://uri.amap.com/marker?position=117.925176,32.379354&name=%E8%97%95%E5%A1%98%E5%85%BD%E5%8C%BB%E7%AB%99&src=vetmap&coordinate=gaode&callnative=1","route_id":"r1","route_name":"第1段","global_order":17},{"name":"童其武动物门诊","address":"东二站路与合蚌中路交叉口北120米","phone":"","category":"医疗保健服务;动物医疗场所;宠物诊所","area":"","lng":117.625786,"lat":32.32638,"amap_id":"B0FFKUZGSL","order":18,"prev_distance_km":28.733,"cumulative_distance_km":126.476,"amap_marker_url":"https://uri.amap.com/marker?position=117.625786,32.326380&name=%E7%AB%A5%E5%85%B6%E6%AD%A6%E5%8A%A8%E7%89%A9%E9%97%A8%E8%AF%8A&src=vetmap&coordinate=gaode&callnative=1","route_id":"r1","route_name":"第1段","global_order":18}]}