{"summary":{"id":"d00249","province":"安徽省","city":"宿州市","district":"萧县","count":38,"route_count":1,"max_route_clinics":38,"total_distance_km":132.928,"coordinate_system":"GCJ-02 / Amap","generated_at":"2026-05-08 19:41:46"},"routes":[{"id":"r1","name":"第1段","count":38,"total_distance_km":132.928,"rows":[{"name":"官桥镇畜牧兽医站","address":"官桥镇","phone":"13034005725","category":"医疗保健服务;动物医疗场所;兽医站","area":"","lng":117.124192,"lat":34.088307,"amap_id":"B022D0P9YD","order":1,"prev_distance_km":0.0,"cumulative_distance_km":0.0,"amap_marker_url":"https://uri.amap.com/marker?position=117.124192,34.088307&name=%E5%AE%98%E6%A1%A5%E9%95%87%E7%95%9C%E7%89%A7%E5%85%BD%E5%8C%BB%E7%AB%99&src=vetmap&coordinate=gaode&callnative=1","route_id":"r1","route_name":"第1段"},{"name":"官桥动物门诊","address":"官桥镇官桥街红绿灯路口向西120米路南","phone":"13034005725","category":"医疗保健服务;动物医疗场所;兽医站","area":"","lng":117.12404,"lat":34.088259,"amap_id":"B0FFG003VU","order":2,"prev_distance_km":0.015,"cumulative_distance_km":0.015,"amap_marker_url":"https://uri.amap.com/marker?position=117.124040,34.088259&name=%E5%AE%98%E6%A1%A5%E5%8A%A8%E7%89%A9%E9%97%A8%E8%AF%8A&src=vetmap&coordinate=gaode&callnative=1","route_id":"r1","route_name":"第1段"},{"name":"白土镇畜牧站兽医","address":"019县道与083乡道交叉口东60米","phone":"","category":"医疗保健服务;动物医疗场所;兽医站","area":"","lng":117.040678,"lat":34.093438,"amap_id":"B0FFK7XJCY","order":3,"prev_distance_km":7.698,"cumulative_distance_km":7.713,"amap_marker_url":"https://uri.amap.com/marker?position=117.040678,34.093438&name=%E7%99%BD%E5%9C%9F%E9%95%87%E7%95%9C%E7%89%A7%E7%AB%99%E5%85%BD%E5%8C%BB&src=vetmap&coordinate=gaode&callnative=1","route_id":"r1","route_name":"第1段"},{"name":"玥潼宠物诊所","address":"古萧窑路与019县道交叉口北260米","phone":"18155713219","category":"医疗保健服务;动物医疗场所;宠物诊所","area":"","lng":117.036931,"lat":34.095866,"amap_id":"B0LAR7F7Y8","order":4,"prev_distance_km":0.438,"cumulative_distance_km":8.151,"amap_marker_url":"https://uri.amap.com/marker?position=117.036931,34.095866&name=%E7%8E%A5%E6%BD%BC%E5%AE%A0%E7%89%A9%E8%AF%8A%E6%89%80&src=vetmap&coordinate=gaode&callnative=1","route_id":"r1","route_name":"第1段"},{"name":"萧县康羽动物诊疗有限公司","address":"萧国大道1980号","phone":"15996994788","category":"医疗保健服务;动物医疗场所;动物医疗场所","area":"","lng":116.988023,"lat":34.169973,"amap_id":"B0LGF7RSYZ","order":5,"prev_distance_km":9.39,"cumulative_distance_km":17.541,"amap_marker_url":"https://uri.amap.com/marker?position=116.988023,34.169973&name=%E8%90%A7%E5%8E%BF%E5%BA%B7%E7%BE%BD%E5%8A%A8%E7%89%A9%E8%AF%8A%E7%96%97%E6%9C%89%E9%99%90%E5%85%AC%E5%8F%B8&src=vetmap&coordinate=gaode&callnative=1","route_id":"r1","route_name":"第1段"},{"name":"萧县宠物医院","address":"淮海东路与013县道交叉口西340米","phone":"","category":"医疗保健服务;动物医疗场所;宠物诊所","area":"","lng":116.973091,"lat":34.19791,"amap_id":"B0FFK6RI54","order":6,"prev_distance_km":3.397,"cumulative_distance_km":20.937,"amap_marker_url":"https://uri.amap.com/marker?position=116.973091,34.197910&name=%E8%90%A7%E5%8E%BF%E5%AE%A0%E7%89%A9%E5%8C%BB%E9%99%A2&src=vetmap&coordinate=gaode&callnative=1","route_id":"r1","route_name":"第1段"},{"name":"爱宠宠物门诊","address":"顺河路(嘉泰龙城一号西南侧)33栋104","phone":"15955716591","category":"医疗保健服务;动物医疗场所;宠物诊所","area":"","lng":116.972954,"lat":34.198094,"amap_id":"B0K2ZZ5TO5","order":7,"prev_distance_km":0.024,"cumulative_distance_km":20.961,"amap_marker_url":"https://uri.amap.com/marker?position=116.972954,34.198094&name=%E7%88%B1%E5%AE%A0%E5%AE%A0%E7%89%A9%E9%97%A8%E8%AF%8A&src=vetmap&coordinate=gaode&callnative=1","route_id":"r1","route_name":"第1段"},{"name":"添伴宠物医院(翡翠城店)","address":"新县医院红绿灯北100米路东(翡翠城三期)","phone":"17855716521","category":"医疗保健服务;动物医疗场所;宠物诊所","area":"","lng":116.965625,"lat":34.193225,"amap_id":"B0L14R30CU","order":8,"prev_distance_km":0.865,"cumulative_distance_km":21.826,"amap_marker_url":"https://uri.amap.com/marker?position=116.965625,34.193225&name=%E6%B7%BB%E4%BC%B4%E5%AE%A0%E7%89%A9%E5%8C%BB%E9%99%A2%28%E7%BF%A1%E7%BF%A0%E5%9F%8E%E5%BA%97%29&src=vetmap&coordinate=gaode&callnative=1","route_id":"r1","route_name":"第1段"},{"name":"星辰宠物医院(萧县店)","address":"市场路133号龙山庭院行政大道","phone":"15212530152;19965708885","category":"医疗保健服务;动物医疗场所;宠物诊所","area":"","lng":116.959048,"lat":34.183952,"amap_id":"B0K6NC7BOG","order":9,"prev_distance_km":1.195,"cumulative_distance_km":23.021,"amap_marker_url":"https://uri.amap.com/marker?position=116.959048,34.183952&name=%E6%98%9F%E8%BE%B0%E5%AE%A0%E7%89%A9%E5%8C%BB%E9%99%A2%28%E8%90%A7%E5%8E%BF%E5%BA%97%29&src=vetmap&coordinate=gaode&callnative=1","route_id":"r1","route_name":"第1段"},{"name":"添伴宠物医院(龙山庭苑店)","address":"淮海东路1027号(电力宾馆红绿灯东50米路南)","phone":"17755751555","category":"医疗保健服务;动物医疗场所;宠物诊所","area":"","lng":116.955193,"lat":34.185011,"amap_id":"B0J1DZZPOR","order":10,"prev_distance_km":0.374,"cumulative_distance_km":23.395,"amap_marker_url":"https://uri.amap.com/marker?position=116.955193,34.185011&name=%E6%B7%BB%E4%BC%B4%E5%AE%A0%E7%89%A9%E5%8C%BB%E9%99%A2%28%E9%BE%99%E5%B1%B1%E5%BA%AD%E8%8B%91%E5%BA%97%29&src=vetmap&coordinate=gaode&callnative=1","route_id":"r1","route_name":"第1段"},{"name":"唯医宠物医院(萧县店)","address":"淮海东路嘉鸿花园南门最东面01-103","phone":"13955753678","category":"医疗保健服务;动物医疗场所;宠物诊所","area":"","lng":116.952309,"lat":34.182463,"amap_id":"B0IGYSC0GY","order":11,"prev_distance_km":0.388,"cumulative_distance_km":23.783,"amap_marker_url":"https://uri.amap.com/marker?position=116.952309,34.182463&name=%E5%94%AF%E5%8C%BB%E5%AE%A0%E7%89%A9%E5%8C%BB%E9%99%A2%28%E8%90%A7%E5%8E%BF%E5%BA%97%29&src=vetmap&coordinate=gaode&callnative=1","route_id":"r1","route_name":"第1段"},{"name":"贝爱宠物诊疗中心","address":"嘉鸿花园贝爱宠物诊疗","phone":"15212535891","category":"医疗保健服务;动物医疗场所;宠物诊所","area":"","lng":116.951516,"lat":34.182316,"amap_id":"B0I0JA1TEF","order":12,"prev_distance_km":0.075,"cumulative_distance_km":23.858,"amap_marker_url":"https://uri.amap.com/marker?position=116.951516,34.182316&name=%E8%B4%9D%E7%88%B1%E5%AE%A0%E7%89%A9%E8%AF%8A%E7%96%97%E4%B8%AD%E5%BF%83&src=vetmap&coordinate=gaode&callnative=1","route_id":"r1","route_name":"第1段"},{"name":"关爱动物医院皖北分院","address":"萧县博物馆南门旁","phone":"18949952111","category":"医疗保健服务;动物医疗场所;宠物诊所","area":"","lng":116.943998,"lat":34.186698,"amap_id":"B0FFKRWMTX","order":13,"prev_distance_km":0.846,"cumulative_distance_km":24.704,"amap_marker_url":"https://uri.amap.com/marker?position=116.943998,34.186698&name=%E5%85%B3%E7%88%B1%E5%8A%A8%E7%89%A9%E5%8C%BB%E9%99%A2%E7%9A%96%E5%8C%97%E5%88%86%E9%99%A2&src=vetmap&coordinate=gaode&callnative=1","route_id":"r1","route_name":"第1段"},{"name":"宠医星关爱宠物医院(萧县店)","address":"民治街328号","phone":"","category":"医疗保健服务;动物医疗场所;宠物诊所","area":"","lng":116.943981,"lat":34.186575,"amap_id":"B0K64SOVMI","order":14,"prev_distance_km":0.014,"cumulative_distance_km":24.718,"amap_marker_url":"https://uri.amap.com/marker?position=116.943981,34.186575&name=%E5%AE%A0%E5%8C%BB%E6%98%9F%E5%85%B3%E7%88%B1%E5%AE%A0%E7%89%A9%E5%8C%BB%E9%99%A2%28%E8%90%A7%E5%8E%BF%E5%BA%97%29&src=vetmap&coordinate=gaode&callnative=1","route_id":"r1","route_name":"第1段"},{"name":"萧县蓄禽门诊","address":"马云桥超市西10米路南","phone":"13866697609;15855382291","category":"医疗保健服务;动物医疗场所;兽医站","area":"","lng":116.936003,"lat":34.179625,"amap_id":"B0FFGMDGY4","order":15,"prev_distance_km":1.066,"cumulative_distance_km":25.783,"amap_marker_url":"https://uri.amap.com/marker?position=116.936003,34.179625&name=%E8%90%A7%E5%8E%BF%E8%93%84%E7%A6%BD%E9%97%A8%E8%AF%8A&src=vetmap&coordinate=gaode&callnative=1","route_id":"r1","route_name":"第1段"},{"name":"萧县康畜禽病门诊","address":"马云桥西20米路南","phone":"0557-5016369;13866697609","category":"医疗保健服务;动物医疗场所;兽医站","area":"","lng":116.935597,"lat":34.179118,"amap_id":"B022D00CF5","order":16,"prev_distance_km":0.068,"cumulative_distance_km":25.851,"amap_marker_url":"https://uri.amap.com/marker?position=116.935597,34.179118&name=%E8%90%A7%E5%8E%BF%E5%BA%B7%E7%95%9C%E7%A6%BD%E7%97%85%E9%97%A8%E8%AF%8A&src=vetmap&coordinate=gaode&callnative=1","route_id":"r1","route_name":"第1段"},{"name":"萧县康乐宠物医院","address":"交通西路三鲜米线旁边","phone":"15212530152","category":"医疗保健服务;动物医疗场所;宠物诊所","area":"","lng":116.92988,"lat":34.179515,"amap_id":"B0FFMCMJ6G","order":17,"prev_distance_km":0.528,"cumulative_distance_km":26.379,"amap_marker_url":"https://uri.amap.com/marker?position=116.929880,34.179515&name=%E8%90%A7%E5%8E%BF%E5%BA%B7%E4%B9%90%E5%AE%A0%E7%89%A9%E5%8C%BB%E9%99%A2&src=vetmap&coordinate=gaode&callnative=1","route_id":"r1","route_name":"第1段"},{"name":"贝爱宠物诊疗中心","address":"嘉鸿花园2栋109号","phone":"15212535891","category":"医疗保健服务;动物医疗场所;宠物诊所","area":"淮海西路","lng":116.924481,"lat":34.182213,"amap_id":"B0KBSADZ7J","order":18,"prev_distance_km":0.58,"cumulative_distance_km":26.959,"amap_marker_url":"https://uri.amap.com/marker?position=116.924481,34.182213&name=%E8%B4%9D%E7%88%B1%E5%AE%A0%E7%89%A9%E8%AF%8A%E7%96%97%E4%B8%AD%E5%BF%83&src=vetmap&coordinate=gaode&callnative=1","route_id":"r1","route_name":"第1段"},{"name":"萧县兽医院","address":"311国道与S67徐阜高速出口交叉口西240米","phone":"13955751854","category":"医疗保健服务;动物医疗场所;兽医站","area":"","lng":116.868433,"lat":34.204207,"amap_id":"B0FFLCPZNR","order":19,"prev_distance_km":5.706,"cumulative_distance_km":32.665,"amap_marker_url":"https://uri.amap.com/marker?position=116.868433,34.204207&name=%E8%90%A7%E5%8E%BF%E5%85%BD%E5%8C%BB%E9%99%A2&src=vetmap&coordinate=gaode&callnative=1","route_id":"r1","route_name":"第1段"},{"name":"木集畜禽服务部","address":"木集菜市农资店东侧100米","phone":"","category":"医疗保健服务;动物医疗场所;兽医站","area":"","lng":116.906425,"lat":34.259275,"amap_id":"B0L2BUL2OM","order":20,"prev_distance_km":7.049,"cumulative_distance_km":39.714,"amap_marker_url":"https://uri.amap.com/marker?position=116.906425,34.259275&name=%E6%9C%A8%E9%9B%86%E7%95%9C%E7%A6%BD%E6%9C%8D%E5%8A%A1%E9%83%A8&src=vetmap&coordinate=gaode&callnative=1","route_id":"r1","route_name":"第1段"},{"name":"北城兽医站","address":"北城集村卫生室北侧170米","phone":"","category":"医疗保健服务;动物医疗场所;兽医站","area":"","lng":116.931457,"lat":34.298446,"amap_id":"B0H2MH3XYR","order":21,"prev_distance_km":4.926,"cumulative_distance_km":44.64,"amap_marker_url":"https://uri.amap.com/marker?position=116.931457,34.298446&name=%E5%8C%97%E5%9F%8E%E5%85%BD%E5%8C%BB%E7%AB%99&src=vetmap&coordinate=gaode&callnative=1","route_id":"r1","route_name":"第1段"},{"name":"杨楼镇兽医站畜禽门诊部齐鲁专营店","address":"银河路(地锅城斜对面)","phone":"","category":"医疗保健服务;动物医疗场所;兽医站","area":"","lng":116.861649,"lat":34.33254,"amap_id":"B0GKX5EI5G","order":22,"prev_distance_km":7.448,"cumulative_distance_km":52.088,"amap_marker_url":"https://uri.amap.com/marker?position=116.861649,34.332540&name=%E6%9D%A8%E6%A5%BC%E9%95%87%E5%85%BD%E5%8C%BB%E7%AB%99%E7%95%9C%E7%A6%BD%E9%97%A8%E8%AF%8A%E9%83%A8%E9%BD%90%E9%B2%81%E4%B8%93%E8%90%A5%E5%BA%97&src=vetmap&coordinate=gaode&callnative=1","route_id":"r1","route_name":"第1段"},{"name":"杨楼兽医站门诊部","address":"黄河路与道北路交叉口北460米","phone":"","category":"医疗保健服务;动物医疗场所;兽医站","area":"","lng":116.85446,"lat":34.336409,"amap_id":"B0KK17UMI5","order":23,"prev_distance_km":0.788,"cumulative_distance_km":52.876,"amap_marker_url":"https://uri.amap.com/marker?position=116.854460,34.336409&name=%E6%9D%A8%E6%A5%BC%E5%85%BD%E5%8C%BB%E7%AB%99%E9%97%A8%E8%AF%8A%E9%83%A8&src=vetmap&coordinate=gaode&callnative=1","route_id":"r1","route_name":"第1段"},{"name":"禽病门诊","address":"021县道与014乡道交叉口东南120米","phone":"","category":"医疗保健服务;动物医疗场所;兽医站","area":"","lng":116.818105,"lat":34.27306,"amap_id":"B0H6773J1I","order":24,"prev_distance_km":7.796,"cumulative_distance_km":60.671,"amap_marker_url":"https://uri.amap.com/marker?position=116.818105,34.273060&name=%E7%A6%BD%E7%97%85%E9%97%A8%E8%AF%8A&src=vetmap&coordinate=gaode&callnative=1","route_id":"r1","route_name":"第1段"},{"name":"杨坡兽医站","address":"009乡道与024乡道交叉口北260米","phone":"13865572132","category":"医疗保健服务;动物医疗场所;兽医站","area":"","lng":116.758188,"lat":34.258344,"amap_id":"B0FFIOVEBU","order":25,"prev_distance_km":5.744,"cumulative_distance_km":66.416,"amap_marker_url":"https://uri.amap.com/marker?position=116.758188,34.258344&name=%E6%9D%A8%E5%9D%A1%E5%85%BD%E5%8C%BB%E7%AB%99&src=vetmap&coordinate=gaode&callnative=1","route_id":"r1","route_name":"第1段"},{"name":"动物医院","address":"赵庄镇赵庄村","phone":"18214859388","category":"医疗保健服务;动物医疗场所;宠物诊所","area":"","lng":116.708848,"lat":34.220889,"amap_id":"B0FFKBSY9A","order":26,"prev_distance_km":6.158,"cumulative_distance_km":72.573,"amap_marker_url":"https://uri.amap.com/marker?position=116.708848,34.220889&name=%E5%8A%A8%E7%89%A9%E5%8C%BB%E9%99%A2&src=vetmap&coordinate=gaode&callnative=1","route_id":"r1","route_name":"第1段"},{"name":"动物医院","address":"前塘路与淮海大道交叉口东80米","phone":"","category":"医疗保健服务;动物医疗场所;宠物诊所","area":"","lng":116.605233,"lat":34.127796,"amap_id":"B0LDJ1YQDR","order":27,"prev_distance_km":14.072,"cumulative_distance_km":86.645,"amap_marker_url":"https://uri.amap.com/marker?position=116.605233,34.127796&name=%E5%8A%A8%E7%89%A9%E5%8C%BB%E9%99%A2&src=vetmap&coordinate=gaode&callnative=1","route_id":"r1","route_name":"第1段"},{"name":"大屯禽病防治中心","address":"胜利家具城南侧180米","phone":"","category":"医疗保健服务;动物医疗场所;兽医站","area":"","lng":116.621972,"lat":34.213748,"amap_id":"B0I2X52A99","order":28,"prev_distance_km":9.681,"cumulative_distance_km":96.326,"amap_marker_url":"https://uri.amap.com/marker?position=116.621972,34.213748&name=%E5%A4%A7%E5%B1%AF%E7%A6%BD%E7%97%85%E9%98%B2%E6%B2%BB%E4%B8%AD%E5%BF%83&src=vetmap&coordinate=gaode&callnative=1","route_id":"r1","route_name":"第1段"},{"name":"兽医站","address":"237国道与405省道交叉口北500米","phone":"","category":"医疗保健服务;动物医疗场所;兽医站","area":"","lng":116.625655,"lat":34.227802,"amap_id":"B0HKA7J2BM","order":29,"prev_distance_km":1.599,"cumulative_distance_km":97.925,"amap_marker_url":"https://uri.amap.com/marker?position=116.625655,34.227802&name=%E5%85%BD%E5%8C%BB%E7%AB%99&src=vetmap&coordinate=gaode&callnative=1","route_id":"r1","route_name":"第1段"},{"name":"兽医站","address":"237国道与043乡道交叉口南60米","phone":"13956883181","category":"医疗保健服务;动物医疗场所;兽医站","area":"","lng":116.589367,"lat":34.276703,"amap_id":"B0FFK5DVH1","order":30,"prev_distance_km":6.379,"cumulative_distance_km":104.304,"amap_marker_url":"https://uri.amap.com/marker?position=116.589367,34.276703&name=%E5%85%BD%E5%8C%BB%E7%AB%99&src=vetmap&coordinate=gaode&callnative=1","route_id":"r1","route_name":"第1段"},{"name":"盛源禽兽门诊","address":"盛源禽病门诊北侧","phone":"","category":"医疗保健服务;动物医疗场所;兽医站","area":"","lng":116.654937,"lat":34.386744,"amap_id":"B0JU2OIFMY","order":31,"prev_distance_km":13.637,"cumulative_distance_km":117.941,"amap_marker_url":"https://uri.amap.com/marker?position=116.654937,34.386744&name=%E7%9B%9B%E6%BA%90%E7%A6%BD%E5%85%BD%E9%97%A8%E8%AF%8A&src=vetmap&coordinate=gaode&callnative=1","route_id":"r1","route_name":"第1段"},{"name":"宠迷宠物门诊","address":"黄口镇北大桥南路东","phone":"15856711053","category":"医疗保健服务;动物医疗场所;宠物诊所","area":"","lng":116.692313,"lat":34.370461,"amap_id":"B0FFLQDPXW","order":32,"prev_distance_km":3.879,"cumulative_distance_km":121.819,"amap_marker_url":"https://uri.amap.com/marker?position=116.692313,34.370461&name=%E5%AE%A0%E8%BF%B7%E5%AE%A0%E7%89%A9%E9%97%A8%E8%AF%8A&src=vetmap&coordinate=gaode&callnative=1","route_id":"r1","route_name":"第1段"},{"name":"尤氏动物医院","address":"403省道与连天线交叉口西南240米","phone":"13866581314","category":"医疗保健服务;动物医疗场所;兽医站","area":"","lng":116.691348,"lat":34.369313,"amap_id":"B0G10CGAFP","order":33,"prev_distance_km":0.155,"cumulative_distance_km":121.975,"amap_marker_url":"https://uri.amap.com/marker?position=116.691348,34.369313&name=%E5%B0%A4%E6%B0%8F%E5%8A%A8%E7%89%A9%E5%8C%BB%E9%99%A2&src=vetmap&coordinate=gaode&callnative=1","route_id":"r1","route_name":"第1段"},{"name":"畜禽门诊","address":"403省道与025县道交叉口东220米","phone":"","category":"医疗保健服务;动物医疗场所;动物医疗场所","area":"","lng":116.690327,"lat":34.358076,"amap_id":"B0FFL3X4YJ","order":34,"prev_distance_km":1.253,"cumulative_distance_km":123.228,"amap_marker_url":"https://uri.amap.com/marker?position=116.690327,34.358076&name=%E7%95%9C%E7%A6%BD%E9%97%A8%E8%AF%8A&src=vetmap&coordinate=gaode&callnative=1","route_id":"r1","route_name":"第1段"},{"name":"赵兽医门诊宠物医院","address":"车站石化加油站西侧90米","phone":"","category":"医疗保健服务;动物医疗场所;宠物诊所","area":"","lng":116.699875,"lat":34.355782,"amap_id":"B0KBOH5S50","order":35,"prev_distance_km":0.913,"cumulative_distance_km":124.141,"amap_marker_url":"https://uri.amap.com/marker?position=116.699875,34.355782&name=%E8%B5%B5%E5%85%BD%E5%8C%BB%E9%97%A8%E8%AF%8A%E5%AE%A0%E7%89%A9%E5%8C%BB%E9%99%A2&src=vetmap&coordinate=gaode&callnative=1","route_id":"r1","route_name":"第1段"},{"name":"宠爱宠物医院(黄口店)","address":"黄口镇红旗路建行东200米","phone":"15255778880","category":"医疗保健服务;动物医疗场所;宠物诊所","area":"","lng":116.699914,"lat":34.362337,"amap_id":"B0FFJLQHY0","order":36,"prev_distance_km":0.729,"cumulative_distance_km":124.869,"amap_marker_url":"https://uri.amap.com/marker?position=116.699914,34.362337&name=%E5%AE%A0%E7%88%B1%E5%AE%A0%E7%89%A9%E5%8C%BB%E9%99%A2%28%E9%BB%84%E5%8F%A3%E5%BA%97%29&src=vetmap&coordinate=gaode&callnative=1","route_id":"r1","route_name":"第1段"},{"name":"萧县畜牧兽医技术服务站","address":"G310(连天线)","phone":"","category":"医疗保健服务;动物医疗场所;兽医站","area":"","lng":116.706686,"lat":34.368484,"amap_id":"B0FFK51UXB","order":37,"prev_distance_km":0.924,"cumulative_distance_km":125.793,"amap_marker_url":"https://uri.amap.com/marker?position=116.706686,34.368484&name=%E8%90%A7%E5%8E%BF%E7%95%9C%E7%89%A7%E5%85%BD%E5%8C%BB%E6%8A%80%E6%9C%AF%E6%9C%8D%E5%8A%A1%E7%AB%99&src=vetmap&coordinate=gaode&callnative=1","route_id":"r1","route_name":"第1段"},{"name":"新庄镇动物医院","address":"紫薇西路与兴旺路交叉口南180米","phone":"","category":"医疗保健服务;动物医疗场所;宠物诊所","area":"","lng":116.740191,"lat":34.426382,"amap_id":"B0JRJHGSK0","order":38,"prev_distance_km":7.134,"cumulative_distance_km":132.928,"amap_marker_url":"https://uri.amap.com/marker?position=116.740191,34.426382&name=%E6%96%B0%E5%BA%84%E9%95%87%E5%8A%A8%E7%89%A9%E5%8C%BB%E9%99%A2&src=vetmap&coordinate=gaode&callnative=1","route_id":"r1","route_name":"第1段"}]}],"rows":[{"name":"官桥镇畜牧兽医站","address":"官桥镇","phone":"13034005725","category":"医疗保健服务;动物医疗场所;兽医站","area":"","lng":117.124192,"lat":34.088307,"amap_id":"B022D0P9YD","order":1,"prev_distance_km":0.0,"cumulative_distance_km":0.0,"amap_marker_url":"https://uri.amap.com/marker?position=117.124192,34.088307&name=%E5%AE%98%E6%A1%A5%E9%95%87%E7%95%9C%E7%89%A7%E5%85%BD%E5%8C%BB%E7%AB%99&src=vetmap&coordinate=gaode&callnative=1","route_id":"r1","route_name":"第1段","global_order":1},{"name":"官桥动物门诊","address":"官桥镇官桥街红绿灯路口向西120米路南","phone":"13034005725","category":"医疗保健服务;动物医疗场所;兽医站","area":"","lng":117.12404,"lat":34.088259,"amap_id":"B0FFG003VU","order":2,"prev_distance_km":0.015,"cumulative_distance_km":0.015,"amap_marker_url":"https://uri.amap.com/marker?position=117.124040,34.088259&name=%E5%AE%98%E6%A1%A5%E5%8A%A8%E7%89%A9%E9%97%A8%E8%AF%8A&src=vetmap&coordinate=gaode&callnative=1","route_id":"r1","route_name":"第1段","global_order":2},{"name":"白土镇畜牧站兽医","address":"019县道与083乡道交叉口东60米","phone":"","category":"医疗保健服务;动物医疗场所;兽医站","area":"","lng":117.040678,"lat":34.093438,"amap_id":"B0FFK7XJCY","order":3,"prev_distance_km":7.698,"cumulative_distance_km":7.713,"amap_marker_url":"https://uri.amap.com/marker?position=117.040678,34.093438&name=%E7%99%BD%E5%9C%9F%E9%95%87%E7%95%9C%E7%89%A7%E7%AB%99%E5%85%BD%E5%8C%BB&src=vetmap&coordinate=gaode&callnative=1","route_id":"r1","route_name":"第1段","global_order":3},{"name":"玥潼宠物诊所","address":"古萧窑路与019县道交叉口北260米","phone":"18155713219","category":"医疗保健服务;动物医疗场所;宠物诊所","area":"","lng":117.036931,"lat":34.095866,"amap_id":"B0LAR7F7Y8","order":4,"prev_distance_km":0.438,"cumulative_distance_km":8.151,"amap_marker_url":"https://uri.amap.com/marker?position=117.036931,34.095866&name=%E7%8E%A5%E6%BD%BC%E5%AE%A0%E7%89%A9%E8%AF%8A%E6%89%80&src=vetmap&coordinate=gaode&callnative=1","route_id":"r1","route_name":"第1段","global_order":4},{"name":"萧县康羽动物诊疗有限公司","address":"萧国大道1980号","phone":"15996994788","category":"医疗保健服务;动物医疗场所;动物医疗场所","area":"","lng":116.988023,"lat":34.169973,"amap_id":"B0LGF7RSYZ","order":5,"prev_distance_km":9.39,"cumulative_distance_km":17.541,"amap_marker_url":"https://uri.amap.com/marker?position=116.988023,34.169973&name=%E8%90%A7%E5%8E%BF%E5%BA%B7%E7%BE%BD%E5%8A%A8%E7%89%A9%E8%AF%8A%E7%96%97%E6%9C%89%E9%99%90%E5%85%AC%E5%8F%B8&src=vetmap&coordinate=gaode&callnative=1","route_id":"r1","route_name":"第1段","global_order":5},{"name":"萧县宠物医院","address":"淮海东路与013县道交叉口西340米","phone":"","category":"医疗保健服务;动物医疗场所;宠物诊所","area":"","lng":116.973091,"lat":34.19791,"amap_id":"B0FFK6RI54","order":6,"prev_distance_km":3.397,"cumulative_distance_km":20.937,"amap_marker_url":"https://uri.amap.com/marker?position=116.973091,34.197910&name=%E8%90%A7%E5%8E%BF%E5%AE%A0%E7%89%A9%E5%8C%BB%E9%99%A2&src=vetmap&coordinate=gaode&callnative=1","route_id":"r1","route_name":"第1段","global_order":6},{"name":"爱宠宠物门诊","address":"顺河路(嘉泰龙城一号西南侧)33栋104","phone":"15955716591","category":"医疗保健服务;动物医疗场所;宠物诊所","area":"","lng":116.972954,"lat":34.198094,"amap_id":"B0K2ZZ5TO5","order":7,"prev_distance_km":0.024,"cumulative_distance_km":20.961,"amap_marker_url":"https://uri.amap.com/marker?position=116.972954,34.198094&name=%E7%88%B1%E5%AE%A0%E5%AE%A0%E7%89%A9%E9%97%A8%E8%AF%8A&src=vetmap&coordinate=gaode&callnative=1","route_id":"r1","route_name":"第1段","global_order":7},{"name":"添伴宠物医院(翡翠城店)","address":"新县医院红绿灯北100米路东(翡翠城三期)","phone":"17855716521","category":"医疗保健服务;动物医疗场所;宠物诊所","area":"","lng":116.965625,"lat":34.193225,"amap_id":"B0L14R30CU","order":8,"prev_distance_km":0.865,"cumulative_distance_km":21.826,"amap_marker_url":"https://uri.amap.com/marker?position=116.965625,34.193225&name=%E6%B7%BB%E4%BC%B4%E5%AE%A0%E7%89%A9%E5%8C%BB%E9%99%A2%28%E7%BF%A1%E7%BF%A0%E5%9F%8E%E5%BA%97%29&src=vetmap&coordinate=gaode&callnative=1","route_id":"r1","route_name":"第1段","global_order":8},{"name":"星辰宠物医院(萧县店)","address":"市场路133号龙山庭院行政大道","phone":"15212530152;19965708885","category":"医疗保健服务;动物医疗场所;宠物诊所","area":"","lng":116.959048,"lat":34.183952,"amap_id":"B0K6NC7BOG","order":9,"prev_distance_km":1.195,"cumulative_distance_km":23.021,"amap_marker_url":"https://uri.amap.com/marker?position=116.959048,34.183952&name=%E6%98%9F%E8%BE%B0%E5%AE%A0%E7%89%A9%E5%8C%BB%E9%99%A2%28%E8%90%A7%E5%8E%BF%E5%BA%97%29&src=vetmap&coordinate=gaode&callnative=1","route_id":"r1","route_name":"第1段","global_order":9},{"name":"添伴宠物医院(龙山庭苑店)","address":"淮海东路1027号(电力宾馆红绿灯东50米路南)","phone":"17755751555","category":"医疗保健服务;动物医疗场所;宠物诊所","area":"","lng":116.955193,"lat":34.185011,"amap_id":"B0J1DZZPOR","order":10,"prev_distance_km":0.374,"cumulative_distance_km":23.395,"amap_marker_url":"https://uri.amap.com/marker?position=116.955193,34.185011&name=%E6%B7%BB%E4%BC%B4%E5%AE%A0%E7%89%A9%E5%8C%BB%E9%99%A2%28%E9%BE%99%E5%B1%B1%E5%BA%AD%E8%8B%91%E5%BA%97%29&src=vetmap&coordinate=gaode&callnative=1","route_id":"r1","route_name":"第1段","global_order":10},{"name":"唯医宠物医院(萧县店)","address":"淮海东路嘉鸿花园南门最东面01-103","phone":"13955753678","category":"医疗保健服务;动物医疗场所;宠物诊所","area":"","lng":116.952309,"lat":34.182463,"amap_id":"B0IGYSC0GY","order":11,"prev_distance_km":0.388,"cumulative_distance_km":23.783,"amap_marker_url":"https://uri.amap.com/marker?position=116.952309,34.182463&name=%E5%94%AF%E5%8C%BB%E5%AE%A0%E7%89%A9%E5%8C%BB%E9%99%A2%28%E8%90%A7%E5%8E%BF%E5%BA%97%29&src=vetmap&coordinate=gaode&callnative=1","route_id":"r1","route_name":"第1段","global_order":11},{"name":"贝爱宠物诊疗中心","address":"嘉鸿花园贝爱宠物诊疗","phone":"15212535891","category":"医疗保健服务;动物医疗场所;宠物诊所","area":"","lng":116.951516,"lat":34.182316,"amap_id":"B0I0JA1TEF","order":12,"prev_distance_km":0.075,"cumulative_distance_km":23.858,"amap_marker_url":"https://uri.amap.com/marker?position=116.951516,34.182316&name=%E8%B4%9D%E7%88%B1%E5%AE%A0%E7%89%A9%E8%AF%8A%E7%96%97%E4%B8%AD%E5%BF%83&src=vetmap&coordinate=gaode&callnative=1","route_id":"r1","route_name":"第1段","global_order":12},{"name":"关爱动物医院皖北分院","address":"萧县博物馆南门旁","phone":"18949952111","category":"医疗保健服务;动物医疗场所;宠物诊所","area":"","lng":116.943998,"lat":34.186698,"amap_id":"B0FFKRWMTX","order":13,"prev_distance_km":0.846,"cumulative_distance_km":24.704,"amap_marker_url":"https://uri.amap.com/marker?position=116.943998,34.186698&name=%E5%85%B3%E7%88%B1%E5%8A%A8%E7%89%A9%E5%8C%BB%E9%99%A2%E7%9A%96%E5%8C%97%E5%88%86%E9%99%A2&src=vetmap&coordinate=gaode&callnative=1","route_id":"r1","route_name":"第1段","global_order":13},{"name":"宠医星关爱宠物医院(萧县店)","address":"民治街328号","phone":"","category":"医疗保健服务;动物医疗场所;宠物诊所","area":"","lng":116.943981,"lat":34.186575,"amap_id":"B0K64SOVMI","order":14,"prev_distance_km":0.014,"cumulative_distance_km":24.718,"amap_marker_url":"https://uri.amap.com/marker?position=116.943981,34.186575&name=%E5%AE%A0%E5%8C%BB%E6%98%9F%E5%85%B3%E7%88%B1%E5%AE%A0%E7%89%A9%E5%8C%BB%E9%99%A2%28%E8%90%A7%E5%8E%BF%E5%BA%97%29&src=vetmap&coordinate=gaode&callnative=1","route_id":"r1","route_name":"第1段","global_order":14},{"name":"萧县蓄禽门诊","address":"马云桥超市西10米路南","phone":"13866697609;15855382291","category":"医疗保健服务;动物医疗场所;兽医站","area":"","lng":116.936003,"lat":34.179625,"amap_id":"B0FFGMDGY4","order":15,"prev_distance_km":1.066,"cumulative_distance_km":25.783,"amap_marker_url":"https://uri.amap.com/marker?position=116.936003,34.179625&name=%E8%90%A7%E5%8E%BF%E8%93%84%E7%A6%BD%E9%97%A8%E8%AF%8A&src=vetmap&coordinate=gaode&callnative=1","route_id":"r1","route_name":"第1段","global_order":15},{"name":"萧县康畜禽病门诊","address":"马云桥西20米路南","phone":"0557-5016369;13866697609","category":"医疗保健服务;动物医疗场所;兽医站","area":"","lng":116.935597,"lat":34.179118,"amap_id":"B022D00CF5","order":16,"prev_distance_km":0.068,"cumulative_distance_km":25.851,"amap_marker_url":"https://uri.amap.com/marker?position=116.935597,34.179118&name=%E8%90%A7%E5%8E%BF%E5%BA%B7%E7%95%9C%E7%A6%BD%E7%97%85%E9%97%A8%E8%AF%8A&src=vetmap&coordinate=gaode&callnative=1","route_id":"r1","route_name":"第1段","global_order":16},{"name":"萧县康乐宠物医院","address":"交通西路三鲜米线旁边","phone":"15212530152","category":"医疗保健服务;动物医疗场所;宠物诊所","area":"","lng":116.92988,"lat":34.179515,"amap_id":"B0FFMCMJ6G","order":17,"prev_distance_km":0.528,"cumulative_distance_km":26.379,"amap_marker_url":"https://uri.amap.com/marker?position=116.929880,34.179515&name=%E8%90%A7%E5%8E%BF%E5%BA%B7%E4%B9%90%E5%AE%A0%E7%89%A9%E5%8C%BB%E9%99%A2&src=vetmap&coordinate=gaode&callnative=1","route_id":"r1","route_name":"第1段","global_order":17},{"name":"贝爱宠物诊疗中心","address":"嘉鸿花园2栋109号","phone":"15212535891","category":"医疗保健服务;动物医疗场所;宠物诊所","area":"淮海西路","lng":116.924481,"lat":34.182213,"amap_id":"B0KBSADZ7J","order":18,"prev_distance_km":0.58,"cumulative_distance_km":26.959,"amap_marker_url":"https://uri.amap.com/marker?position=116.924481,34.182213&name=%E8%B4%9D%E7%88%B1%E5%AE%A0%E7%89%A9%E8%AF%8A%E7%96%97%E4%B8%AD%E5%BF%83&src=vetmap&coordinate=gaode&callnative=1","route_id":"r1","route_name":"第1段","global_order":18},{"name":"萧县兽医院","address":"311国道与S67徐阜高速出口交叉口西240米","phone":"13955751854","category":"医疗保健服务;动物医疗场所;兽医站","area":"","lng":116.868433,"lat":34.204207,"amap_id":"B0FFLCPZNR","order":19,"prev_distance_km":5.706,"cumulative_distance_km":32.665,"amap_marker_url":"https://uri.amap.com/marker?position=116.868433,34.204207&name=%E8%90%A7%E5%8E%BF%E5%85%BD%E5%8C%BB%E9%99%A2&src=vetmap&coordinate=gaode&callnative=1","route_id":"r1","route_name":"第1段","global_order":19},{"name":"木集畜禽服务部","address":"木集菜市农资店东侧100米","phone":"","category":"医疗保健服务;动物医疗场所;兽医站","area":"","lng":116.906425,"lat":34.259275,"amap_id":"B0L2BUL2OM","order":20,"prev_distance_km":7.049,"cumulative_distance_km":39.714,"amap_marker_url":"https://uri.amap.com/marker?position=116.906425,34.259275&name=%E6%9C%A8%E9%9B%86%E7%95%9C%E7%A6%BD%E6%9C%8D%E5%8A%A1%E9%83%A8&src=vetmap&coordinate=gaode&callnative=1","route_id":"r1","route_name":"第1段","global_order":20},{"name":"北城兽医站","address":"北城集村卫生室北侧170米","phone":"","category":"医疗保健服务;动物医疗场所;兽医站","area":"","lng":116.931457,"lat":34.298446,"amap_id":"B0H2MH3XYR","order":21,"prev_distance_km":4.926,"cumulative_distance_km":44.64,"amap_marker_url":"https://uri.amap.com/marker?position=116.931457,34.298446&name=%E5%8C%97%E5%9F%8E%E5%85%BD%E5%8C%BB%E7%AB%99&src=vetmap&coordinate=gaode&callnative=1","route_id":"r1","route_name":"第1段","global_order":21},{"name":"杨楼镇兽医站畜禽门诊部齐鲁专营店","address":"银河路(地锅城斜对面)","phone":"","category":"医疗保健服务;动物医疗场所;兽医站","area":"","lng":116.861649,"lat":34.33254,"amap_id":"B0GKX5EI5G","order":22,"prev_distance_km":7.448,"cumulative_distance_km":52.088,"amap_marker_url":"https://uri.amap.com/marker?position=116.861649,34.332540&name=%E6%9D%A8%E6%A5%BC%E9%95%87%E5%85%BD%E5%8C%BB%E7%AB%99%E7%95%9C%E7%A6%BD%E9%97%A8%E8%AF%8A%E9%83%A8%E9%BD%90%E9%B2%81%E4%B8%93%E8%90%A5%E5%BA%97&src=vetmap&coordinate=gaode&callnative=1","route_id":"r1","route_name":"第1段","global_order":22},{"name":"杨楼兽医站门诊部","address":"黄河路与道北路交叉口北460米","phone":"","category":"医疗保健服务;动物医疗场所;兽医站","area":"","lng":116.85446,"lat":34.336409,"amap_id":"B0KK17UMI5","order":23,"prev_distance_km":0.788,"cumulative_distance_km":52.876,"amap_marker_url":"https://uri.amap.com/marker?position=116.854460,34.336409&name=%E6%9D%A8%E6%A5%BC%E5%85%BD%E5%8C%BB%E7%AB%99%E9%97%A8%E8%AF%8A%E9%83%A8&src=vetmap&coordinate=gaode&callnative=1","route_id":"r1","route_name":"第1段","global_order":23},{"name":"禽病门诊","address":"021县道与014乡道交叉口东南120米","phone":"","category":"医疗保健服务;动物医疗场所;兽医站","area":"","lng":116.818105,"lat":34.27306,"amap_id":"B0H6773J1I","order":24,"prev_distance_km":7.796,"cumulative_distance_km":60.671,"amap_marker_url":"https://uri.amap.com/marker?position=116.818105,34.273060&name=%E7%A6%BD%E7%97%85%E9%97%A8%E8%AF%8A&src=vetmap&coordinate=gaode&callnative=1","route_id":"r1","route_name":"第1段","global_order":24},{"name":"杨坡兽医站","address":"009乡道与024乡道交叉口北260米","phone":"13865572132","category":"医疗保健服务;动物医疗场所;兽医站","area":"","lng":116.758188,"lat":34.258344,"amap_id":"B0FFIOVEBU","order":25,"prev_distance_km":5.744,"cumulative_distance_km":66.416,"amap_marker_url":"https://uri.amap.com/marker?position=116.758188,34.258344&name=%E6%9D%A8%E5%9D%A1%E5%85%BD%E5%8C%BB%E7%AB%99&src=vetmap&coordinate=gaode&callnative=1","route_id":"r1","route_name":"第1段","global_order":25},{"name":"动物医院","address":"赵庄镇赵庄村","phone":"18214859388","category":"医疗保健服务;动物医疗场所;宠物诊所","area":"","lng":116.708848,"lat":34.220889,"amap_id":"B0FFKBSY9A","order":26,"prev_distance_km":6.158,"cumulative_distance_km":72.573,"amap_marker_url":"https://uri.amap.com/marker?position=116.708848,34.220889&name=%E5%8A%A8%E7%89%A9%E5%8C%BB%E9%99%A2&src=vetmap&coordinate=gaode&callnative=1","route_id":"r1","route_name":"第1段","global_order":26},{"name":"动物医院","address":"前塘路与淮海大道交叉口东80米","phone":"","category":"医疗保健服务;动物医疗场所;宠物诊所","area":"","lng":116.605233,"lat":34.127796,"amap_id":"B0LDJ1YQDR","order":27,"prev_distance_km":14.072,"cumulative_distance_km":86.645,"amap_marker_url":"https://uri.amap.com/marker?position=116.605233,34.127796&name=%E5%8A%A8%E7%89%A9%E5%8C%BB%E9%99%A2&src=vetmap&coordinate=gaode&callnative=1","route_id":"r1","route_name":"第1段","global_order":27},{"name":"大屯禽病防治中心","address":"胜利家具城南侧180米","phone":"","category":"医疗保健服务;动物医疗场所;兽医站","area":"","lng":116.621972,"lat":34.213748,"amap_id":"B0I2X52A99","order":28,"prev_distance_km":9.681,"cumulative_distance_km":96.326,"amap_marker_url":"https://uri.amap.com/marker?position=116.621972,34.213748&name=%E5%A4%A7%E5%B1%AF%E7%A6%BD%E7%97%85%E9%98%B2%E6%B2%BB%E4%B8%AD%E5%BF%83&src=vetmap&coordinate=gaode&callnative=1","route_id":"r1","route_name":"第1段","global_order":28},{"name":"兽医站","address":"237国道与405省道交叉口北500米","phone":"","category":"医疗保健服务;动物医疗场所;兽医站","area":"","lng":116.625655,"lat":34.227802,"amap_id":"B0HKA7J2BM","order":29,"prev_distance_km":1.599,"cumulative_distance_km":97.925,"amap_marker_url":"https://uri.amap.com/marker?position=116.625655,34.227802&name=%E5%85%BD%E5%8C%BB%E7%AB%99&src=vetmap&coordinate=gaode&callnative=1","route_id":"r1","route_name":"第1段","global_order":29},{"name":"兽医站","address":"237国道与043乡道交叉口南60米","phone":"13956883181","category":"医疗保健服务;动物医疗场所;兽医站","area":"","lng":116.589367,"lat":34.276703,"amap_id":"B0FFK5DVH1","order":30,"prev_distance_km":6.379,"cumulative_distance_km":104.304,"amap_marker_url":"https://uri.amap.com/marker?position=116.589367,34.276703&name=%E5%85%BD%E5%8C%BB%E7%AB%99&src=vetmap&coordinate=gaode&callnative=1","route_id":"r1","route_name":"第1段","global_order":30},{"name":"盛源禽兽门诊","address":"盛源禽病门诊北侧","phone":"","category":"医疗保健服务;动物医疗场所;兽医站","area":"","lng":116.654937,"lat":34.386744,"amap_id":"B0JU2OIFMY","order":31,"prev_distance_km":13.637,"cumulative_distance_km":117.941,"amap_marker_url":"https://uri.amap.com/marker?position=116.654937,34.386744&name=%E7%9B%9B%E6%BA%90%E7%A6%BD%E5%85%BD%E9%97%A8%E8%AF%8A&src=vetmap&coordinate=gaode&callnative=1","route_id":"r1","route_name":"第1段","global_order":31},{"name":"宠迷宠物门诊","address":"黄口镇北大桥南路东","phone":"15856711053","category":"医疗保健服务;动物医疗场所;宠物诊所","area":"","lng":116.692313,"lat":34.370461,"amap_id":"B0FFLQDPXW","order":32,"prev_distance_km":3.879,"cumulative_distance_km":121.819,"amap_marker_url":"https://uri.amap.com/marker?position=116.692313,34.370461&name=%E5%AE%A0%E8%BF%B7%E5%AE%A0%E7%89%A9%E9%97%A8%E8%AF%8A&src=vetmap&coordinate=gaode&callnative=1","route_id":"r1","route_name":"第1段","global_order":32},{"name":"尤氏动物医院","address":"403省道与连天线交叉口西南240米","phone":"13866581314","category":"医疗保健服务;动物医疗场所;兽医站","area":"","lng":116.691348,"lat":34.369313,"amap_id":"B0G10CGAFP","order":33,"prev_distance_km":0.155,"cumulative_distance_km":121.975,"amap_marker_url":"https://uri.amap.com/marker?position=116.691348,34.369313&name=%E5%B0%A4%E6%B0%8F%E5%8A%A8%E7%89%A9%E5%8C%BB%E9%99%A2&src=vetmap&coordinate=gaode&callnative=1","route_id":"r1","route_name":"第1段","global_order":33},{"name":"畜禽门诊","address":"403省道与025县道交叉口东220米","phone":"","category":"医疗保健服务;动物医疗场所;动物医疗场所","area":"","lng":116.690327,"lat":34.358076,"amap_id":"B0FFL3X4YJ","order":34,"prev_distance_km":1.253,"cumulative_distance_km":123.228,"amap_marker_url":"https://uri.amap.com/marker?position=116.690327,34.358076&name=%E7%95%9C%E7%A6%BD%E9%97%A8%E8%AF%8A&src=vetmap&coordinate=gaode&callnative=1","route_id":"r1","route_name":"第1段","global_order":34},{"name":"赵兽医门诊宠物医院","address":"车站石化加油站西侧90米","phone":"","category":"医疗保健服务;动物医疗场所;宠物诊所","area":"","lng":116.699875,"lat":34.355782,"amap_id":"B0KBOH5S50","order":35,"prev_distance_km":0.913,"cumulative_distance_km":124.141,"amap_marker_url":"https://uri.amap.com/marker?position=116.699875,34.355782&name=%E8%B5%B5%E5%85%BD%E5%8C%BB%E9%97%A8%E8%AF%8A%E5%AE%A0%E7%89%A9%E5%8C%BB%E9%99%A2&src=vetmap&coordinate=gaode&callnative=1","route_id":"r1","route_name":"第1段","global_order":35},{"name":"宠爱宠物医院(黄口店)","address":"黄口镇红旗路建行东200米","phone":"15255778880","category":"医疗保健服务;动物医疗场所;宠物诊所","area":"","lng":116.699914,"lat":34.362337,"amap_id":"B0FFJLQHY0","order":36,"prev_distance_km":0.729,"cumulative_distance_km":124.869,"amap_marker_url":"https://uri.amap.com/marker?position=116.699914,34.362337&name=%E5%AE%A0%E7%88%B1%E5%AE%A0%E7%89%A9%E5%8C%BB%E9%99%A2%28%E9%BB%84%E5%8F%A3%E5%BA%97%29&src=vetmap&coordinate=gaode&callnative=1","route_id":"r1","route_name":"第1段","global_order":36},{"name":"萧县畜牧兽医技术服务站","address":"G310(连天线)","phone":"","category":"医疗保健服务;动物医疗场所;兽医站","area":"","lng":116.706686,"lat":34.368484,"amap_id":"B0FFK51UXB","order":37,"prev_distance_km":0.924,"cumulative_distance_km":125.793,"amap_marker_url":"https://uri.amap.com/marker?position=116.706686,34.368484&name=%E8%90%A7%E5%8E%BF%E7%95%9C%E7%89%A7%E5%85%BD%E5%8C%BB%E6%8A%80%E6%9C%AF%E6%9C%8D%E5%8A%A1%E7%AB%99&src=vetmap&coordinate=gaode&callnative=1","route_id":"r1","route_name":"第1段","global_order":37},{"name":"新庄镇动物医院","address":"紫薇西路与兴旺路交叉口南180米","phone":"","category":"医疗保健服务;动物医疗场所;宠物诊所","area":"","lng":116.740191,"lat":34.426382,"amap_id":"B0JRJHGSK0","order":38,"prev_distance_km":7.134,"cumulative_distance_km":132.928,"amap_marker_url":"https://uri.amap.com/marker?position=116.740191,34.426382&name=%E6%96%B0%E5%BA%84%E9%95%87%E5%8A%A8%E7%89%A9%E5%8C%BB%E9%99%A2&src=vetmap&coordinate=gaode&callnative=1","route_id":"r1","route_name":"第1段","global_order":38}]}