{"summary":{"id":"d00235","province":"安徽省","city":"安庆市","district":"桐城市","count":9,"total_distance_km":21.898,"coordinate_system":"GCJ-02 / Amap","generated_at":"2026-05-07 20:21:39"},"rows":[{"name":"大关镇卅新路畜禽服务部","address":"卅新路12号","phone":"","category":"医疗保健服务;动物医疗场所;兽医站","area":"","lng":117.031458,"lat":31.175587,"amap_id":"B0L3XU113B","order":1,"prev_distance_km":0.0,"cumulative_distance_km":0.0,"amap_marker_url":"https://uri.amap.com/marker?position=117.031458,31.175587&name=%E5%A4%A7%E5%85%B3%E9%95%87%E5%8D%85%E6%96%B0%E8%B7%AF%E7%95%9C%E7%A6%BD%E6%9C%8D%E5%8A%A1%E9%83%A8&src=vetmap&coordinate=gaode&callnative=1"},{"name":"大嘴狗宠物医院","address":"海峰路100号","phone":"18055659222","category":"医疗保健服务;动物医疗场所;宠物诊所","area":"","lng":116.967861,"lat":31.053975,"amap_id":"B0KDAUDUID","order":2,"prev_distance_km":14.816,"cumulative_distance_km":14.816,"amap_marker_url":"https://uri.amap.com/marker?position=116.967861,31.053975&name=%E5%A4%A7%E5%98%B4%E7%8B%97%E5%AE%A0%E7%89%A9%E5%8C%BB%E9%99%A2&src=vetmap&coordinate=gaode&callnative=1"},{"name":"旺财宠物医院","address":"龙眠东路133号","phone":"13966956887","category":"医疗保健服务;动物医疗场所;宠物诊所","area":"龙眠","lng":116.966663,"lat":31.049484,"amap_id":"B0JKZCUNFL","order":3,"prev_distance_km":0.512,"cumulative_distance_km":15.328,"amap_marker_url":"https://uri.amap.com/marker?position=116.966663,31.049484&name=%E6%97%BA%E8%B4%A2%E5%AE%A0%E7%89%A9%E5%8C%BB%E9%99%A2&src=vetmap&coordinate=gaode&callnative=1"},{"name":"双龙宠物医院(桐城店)","address":"龙眠街道龙达商贸彤达阁1-2门面1幢1-2号双龙宠物医院","phone":"15869580098","category":"医疗保健服务;动物医疗场所;宠物诊所","area":"龙眠","lng":116.961212,"lat":31.05023,"amap_id":"B0FFG7JI8L","order":4,"prev_distance_km":0.526,"cumulative_distance_km":15.854,"amap_marker_url":"https://uri.amap.com/marker?position=116.961212,31.050230&name=%E5%8F%8C%E9%BE%99%E5%AE%A0%E7%89%A9%E5%8C%BB%E9%99%A2%28%E6%A1%90%E5%9F%8E%E5%BA%97%29&src=vetmap&coordinate=gaode&callnative=1"},{"name":"优宠宠物医院","address":"文城东路金凯大都会17号","phone":"15255555775","category":"医疗保健服务;动物医疗场所;宠物诊所","area":"文昌","lng":116.95451,"lat":31.054956,"amap_id":"B0FFIASYAP","order":5,"prev_distance_km":0.827,"cumulative_distance_km":16.681,"amap_marker_url":"https://uri.amap.com/marker?position=116.954510,31.054956&name=%E4%BC%98%E5%AE%A0%E5%AE%A0%E7%89%A9%E5%8C%BB%E9%99%A2&src=vetmap&coordinate=gaode&callnative=1"},{"name":"宠爱有家动物医院(龙眠西路店)","address":"龙眠西路129号","phone":"13966973090","category":"医疗保健服务;动物医疗场所;宠物诊所","area":"文昌","lng":116.942123,"lat":31.046691,"amap_id":"B0FFGAIVMS","order":6,"prev_distance_km":1.496,"cumulative_distance_km":18.177,"amap_marker_url":"https://uri.amap.com/marker?position=116.942123,31.046691&name=%E5%AE%A0%E7%88%B1%E6%9C%89%E5%AE%B6%E5%8A%A8%E7%89%A9%E5%8C%BB%E9%99%A2%28%E9%BE%99%E7%9C%A0%E8%A5%BF%E8%B7%AF%E5%BA%97%29&src=vetmap&coordinate=gaode&callnative=1"},{"name":"桐城畜牧兽医中心","address":"昌平路29号","phone":"","category":"医疗保健服务;动物医疗场所;兽医站","area":"文昌","lng":116.951312,"lat":31.040013,"amap_id":"B0JDZCCU2S","order":7,"prev_distance_km":1.148,"cumulative_distance_km":19.325,"amap_marker_url":"https://uri.amap.com/marker?position=116.951312,31.040013&name=%E6%A1%90%E5%9F%8E%E7%95%9C%E7%89%A7%E5%85%BD%E5%8C%BB%E4%B8%AD%E5%BF%83&src=vetmap&coordinate=gaode&callnative=1"},{"name":"桐城市文昌街道畜牧兽医站","address":"和平路17号","phone":"","category":"医疗保健服务;动物医疗场所;兽医站","area":"文昌","lng":116.952783,"lat":31.042117,"amap_id":"B0FFH2GR3P","order":8,"prev_distance_km":0.273,"cumulative_distance_km":19.597,"amap_marker_url":"https://uri.amap.com/marker?position=116.952783,31.042117&name=%E6%A1%90%E5%9F%8E%E5%B8%82%E6%96%87%E6%98%8C%E8%A1%97%E9%81%93%E7%95%9C%E7%89%A7%E5%85%BD%E5%8C%BB%E7%AB%99&src=vetmap&coordinate=gaode&callnative=1"},{"name":"双龙宠物诊疗中心·骨科·微创绝育·心脏彩超转诊中心","address":"学府名城S2幢101号","phone":"0556-6083800;19159171563","category":"医疗保健服务;动物医疗场所;宠物诊所","area":"","lng":116.976869,"lat":31.040643,"amap_id":"B0K1AUKJX9","order":9,"prev_distance_km":2.301,"cumulative_distance_km":21.898,"amap_marker_url":"https://uri.amap.com/marker?position=116.976869,31.040643&name=%E5%8F%8C%E9%BE%99%E5%AE%A0%E7%89%A9%E8%AF%8A%E7%96%97%E4%B8%AD%E5%BF%83%C2%B7%E9%AA%A8%E7%A7%91%C2%B7%E5%BE%AE%E5%88%9B%E7%BB%9D%E8%82%B2%C2%B7%E5%BF%83%E8%84%8F%E5%BD%A9%E8%B6%85%E8%BD%AC%E8%AF%8A%E4%B8%AD%E5%BF%83&src=vetmap&coordinate=gaode&callnative=1"}]}