{"summary":{"id":"d00218","province":"安徽省","city":"六安市","district":"霍邱县","count":15,"route_count":1,"max_route_clinics":15,"total_distance_km":125.719,"coordinate_system":"GCJ-02 / Amap","generated_at":"2026-05-08 19:41:33"},"routes":[{"id":"r1","name":"第1段","count":15,"total_distance_km":125.719,"rows":[{"name":"周集福七宠物医院","address":"周集镇周李路","phone":"","category":"医疗保健服务;动物医疗场所;宠物诊所","area":"","lng":115.997351,"lat":32.512483,"amap_id":"B0M6ZS1XGV","order":1,"prev_distance_km":0.0,"cumulative_distance_km":0.0,"amap_marker_url":"https://uri.amap.com/marker?position=115.997351,32.512483&name=%E5%91%A8%E9%9B%86%E7%A6%8F%E4%B8%83%E5%AE%A0%E7%89%A9%E5%8C%BB%E9%99%A2&src=vetmap&coordinate=gaode&callnative=1","route_id":"r1","route_name":"第1段"},{"name":"宠物门诊","address":"玉泉路与105国道交叉口西北140米","phone":"13965465420","category":"医疗保健服务;动物医疗场所;宠物诊所","area":"","lng":115.939447,"lat":32.437706,"amap_id":"B0JK11KJPW","order":2,"prev_distance_km":9.932,"cumulative_distance_km":9.932,"amap_marker_url":"https://uri.amap.com/marker?position=115.939447,32.437706&name=%E5%AE%A0%E7%89%A9%E9%97%A8%E8%AF%8A&src=vetmap&coordinate=gaode&callnative=1","route_id":"r1","route_name":"第1段"},{"name":"犬病治疗","address":"开发街与明德路交叉口东160米","phone":"","category":"医疗保健服务;动物医疗场所;宠物诊所","area":"","lng":116.037735,"lat":32.398725,"amap_id":"B0JR3MCG6O","order":3,"prev_distance_km":10.193,"cumulative_distance_km":20.125,"amap_marker_url":"https://uri.amap.com/marker?position=116.037735,32.398725&name=%E7%8A%AC%E7%97%85%E6%B2%BB%E7%96%97&src=vetmap&coordinate=gaode&callnative=1","route_id":"r1","route_name":"第1段"},{"name":"秀宝畜禽服务中心","address":"石店街道与府前路交叉口东200米","phone":"","category":"医疗保健服务;动物医疗场所;兽医站","area":"","lng":116.047666,"lat":32.267468,"amap_id":"B0LGLS6SU4","order":4,"prev_distance_km":14.625,"cumulative_distance_km":34.75,"amap_marker_url":"https://uri.amap.com/marker?position=116.047666,32.267468&name=%E7%A7%80%E5%AE%9D%E7%95%9C%E7%A6%BD%E6%9C%8D%E5%8A%A1%E4%B8%AD%E5%BF%83&src=vetmap&coordinate=gaode&callnative=1","route_id":"r1","route_name":"第1段"},{"name":"郝发东兽药店","address":"邵岗中心小学西北侧120米","phone":"13966310099","category":"医疗保健服务;动物医疗场所;动物医疗场所","area":"","lng":116.146883,"lat":32.30703,"amap_id":"B0G0BX4DTW","order":5,"prev_distance_km":10.312,"cumulative_distance_km":45.062,"amap_marker_url":"https://uri.amap.com/marker?position=116.146883,32.307030&name=%E9%83%9D%E5%8F%91%E4%B8%9C%E5%85%BD%E8%8D%AF%E5%BA%97&src=vetmap&coordinate=gaode&callnative=1","route_id":"r1","route_name":"第1段"},{"name":"修猫修狗宠物诊所生活馆","address":"光明大道与育才路交叉口","phone":"13665649434","category":"医疗保健服务;动物医疗场所;宠物诊所","area":"","lng":116.276413,"lat":32.338832,"amap_id":"B0LR9AP0QU","order":6,"prev_distance_km":12.675,"cumulative_distance_km":57.737,"amap_marker_url":"https://uri.amap.com/marker?position=116.276413,32.338832&name=%E4%BF%AE%E7%8C%AB%E4%BF%AE%E7%8B%97%E5%AE%A0%E7%89%A9%E8%AF%8A%E6%89%80%E7%94%9F%E6%B4%BB%E9%A6%86&src=vetmap&coordinate=gaode&callnative=1","route_id":"r1","route_name":"第1段"},{"name":"爱犬宠物诊所","address":"玉泉路116号附近","phone":"15156928858","category":"医疗保健服务;动物医疗场所;宠物诊所","area":"","lng":116.27832,"lat":32.340042,"amap_id":"B0FFJOUQSE","order":7,"prev_distance_km":0.224,"cumulative_distance_km":57.961,"amap_marker_url":"https://uri.amap.com/marker?position=116.278320,32.340042&name=%E7%88%B1%E7%8A%AC%E5%AE%A0%E7%89%A9%E8%AF%8A%E6%89%80&src=vetmap&coordinate=gaode&callnative=1","route_id":"r1","route_name":"第1段"},{"name":"爱犬宠物诊所","address":"玉泉路与光明大道交叉口东140米","phone":"15156928858","category":"医疗保健服务;动物医疗场所;宠物诊所","area":"","lng":116.278497,"lat":32.340028,"amap_id":"B0HG2AZFWJ","order":8,"prev_distance_km":0.017,"cumulative_distance_km":57.978,"amap_marker_url":"https://uri.amap.com/marker?position=116.278497,32.340028&name=%E7%88%B1%E7%8A%AC%E5%AE%A0%E7%89%A9%E8%AF%8A%E6%89%80&src=vetmap&coordinate=gaode&callnative=1","route_id":"r1","route_name":"第1段"},{"name":"爱博宠物门诊部","address":"霍邱老年大学西南门旁","phone":"13505643240","category":"医疗保健服务;动物医疗场所;宠物诊所","area":"","lng":116.281434,"lat":32.33959,"amap_id":"B0FFFV4QA0","order":9,"prev_distance_km":0.28,"cumulative_distance_km":58.258,"amap_marker_url":"https://uri.amap.com/marker?position=116.281434,32.339590&name=%E7%88%B1%E5%8D%9A%E5%AE%A0%E7%89%A9%E9%97%A8%E8%AF%8A%E9%83%A8&src=vetmap&coordinate=gaode&callnative=1","route_id":"r1","route_name":"第1段"},{"name":"顽皮宠物诊所(建新路店)","address":"新蓼大道与双湖路交叉口向北150米","phone":"15256093151;18919761997","category":"医疗保健服务;动物医疗场所;宠物诊所","area":"","lng":116.284209,"lat":32.345067,"amap_id":"B0FFLG9FLS","order":10,"prev_distance_km":0.662,"cumulative_distance_km":58.92,"amap_marker_url":"https://uri.amap.com/marker?position=116.284209,32.345067&name=%E9%A1%BD%E7%9A%AE%E5%AE%A0%E7%89%A9%E8%AF%8A%E6%89%80%28%E5%BB%BA%E6%96%B0%E8%B7%AF%E5%BA%97%29&src=vetmap&coordinate=gaode&callnative=1","route_id":"r1","route_name":"第1段"},{"name":"霍邱县畜禽疾病防治服务部","address":"蓼东大道与蓼城大道东交叉口西南180米","phone":"","category":"医疗保健服务;动物医疗场所;动物医疗场所","area":"","lng":116.291093,"lat":32.33248,"amap_id":"B0L0T1C25Q","order":11,"prev_distance_km":1.542,"cumulative_distance_km":60.462,"amap_marker_url":"https://uri.amap.com/marker?position=116.291093,32.332480&name=%E9%9C%8D%E9%82%B1%E5%8E%BF%E7%95%9C%E7%A6%BD%E7%96%BE%E7%97%85%E9%98%B2%E6%B2%BB%E6%9C%8D%E5%8A%A1%E9%83%A8&src=vetmap&coordinate=gaode&callnative=1","route_id":"r1","route_name":"第1段"},{"name":"畜禽防治","address":"310省道与131乡道交叉口西南180米","phone":"","category":"医疗保健服务;动物医疗场所;兽医站","area":"","lng":116.222328,"lat":32.141066,"amap_id":"B0JA75W0LC","order":12,"prev_distance_km":22.245,"cumulative_distance_km":82.707,"amap_marker_url":"https://uri.amap.com/marker?position=116.222328,32.141066&name=%E7%95%9C%E7%A6%BD%E9%98%B2%E6%B2%BB&src=vetmap&coordinate=gaode&callnative=1","route_id":"r1","route_name":"第1段"},{"name":"花园畜禽养殖服务部","address":"245省道","phone":"","category":"医疗保健服务;动物医疗场所;兽医站","area":"","lng":116.388857,"lat":32.044379,"amap_id":"B0L3MDK2GP","order":13,"prev_distance_km":19.018,"cumulative_distance_km":101.725,"amap_marker_url":"https://uri.amap.com/marker?position=116.388857,32.044379&name=%E8%8A%B1%E5%9B%AD%E7%95%9C%E7%A6%BD%E5%85%BB%E6%AE%96%E6%9C%8D%E5%8A%A1%E9%83%A8&src=vetmap&coordinate=gaode&callnative=1","route_id":"r1","route_name":"第1段"},{"name":"霍邱县延朗禽业技术服务中心","address":"孟集镇245省道1号","phone":"","category":"医疗保健服务;动物医疗场所;兽医站","area":"","lng":116.405529,"lat":32.182931,"amap_id":"B0LKRD6VVW","order":14,"prev_distance_km":15.486,"cumulative_distance_km":117.211,"amap_marker_url":"https://uri.amap.com/marker?position=116.405529,32.182931&name=%E9%9C%8D%E9%82%B1%E5%8E%BF%E5%BB%B6%E6%9C%97%E7%A6%BD%E4%B8%9A%E6%8A%80%E6%9C%AF%E6%9C%8D%E5%8A%A1%E4%B8%AD%E5%BF%83&src=vetmap&coordinate=gaode&callnative=1","route_id":"r1","route_name":"第1段"},{"name":"霍邱县科牧动物诊疗中心","address":"冯瓴镇人民政府对面","phone":"","category":"医疗保健服务;动物医疗场所;动物医疗场所","area":"","lng":116.490393,"lat":32.20932,"amap_id":"B0L2JH72X5","order":15,"prev_distance_km":8.507,"cumulative_distance_km":125.719,"amap_marker_url":"https://uri.amap.com/marker?position=116.490393,32.209320&name=%E9%9C%8D%E9%82%B1%E5%8E%BF%E7%A7%91%E7%89%A7%E5%8A%A8%E7%89%A9%E8%AF%8A%E7%96%97%E4%B8%AD%E5%BF%83&src=vetmap&coordinate=gaode&callnative=1","route_id":"r1","route_name":"第1段"}]}],"rows":[{"name":"周集福七宠物医院","address":"周集镇周李路","phone":"","category":"医疗保健服务;动物医疗场所;宠物诊所","area":"","lng":115.997351,"lat":32.512483,"amap_id":"B0M6ZS1XGV","order":1,"prev_distance_km":0.0,"cumulative_distance_km":0.0,"amap_marker_url":"https://uri.amap.com/marker?position=115.997351,32.512483&name=%E5%91%A8%E9%9B%86%E7%A6%8F%E4%B8%83%E5%AE%A0%E7%89%A9%E5%8C%BB%E9%99%A2&src=vetmap&coordinate=gaode&callnative=1","route_id":"r1","route_name":"第1段","global_order":1},{"name":"宠物门诊","address":"玉泉路与105国道交叉口西北140米","phone":"13965465420","category":"医疗保健服务;动物医疗场所;宠物诊所","area":"","lng":115.939447,"lat":32.437706,"amap_id":"B0JK11KJPW","order":2,"prev_distance_km":9.932,"cumulative_distance_km":9.932,"amap_marker_url":"https://uri.amap.com/marker?position=115.939447,32.437706&name=%E5%AE%A0%E7%89%A9%E9%97%A8%E8%AF%8A&src=vetmap&coordinate=gaode&callnative=1","route_id":"r1","route_name":"第1段","global_order":2},{"name":"犬病治疗","address":"开发街与明德路交叉口东160米","phone":"","category":"医疗保健服务;动物医疗场所;宠物诊所","area":"","lng":116.037735,"lat":32.398725,"amap_id":"B0JR3MCG6O","order":3,"prev_distance_km":10.193,"cumulative_distance_km":20.125,"amap_marker_url":"https://uri.amap.com/marker?position=116.037735,32.398725&name=%E7%8A%AC%E7%97%85%E6%B2%BB%E7%96%97&src=vetmap&coordinate=gaode&callnative=1","route_id":"r1","route_name":"第1段","global_order":3},{"name":"秀宝畜禽服务中心","address":"石店街道与府前路交叉口东200米","phone":"","category":"医疗保健服务;动物医疗场所;兽医站","area":"","lng":116.047666,"lat":32.267468,"amap_id":"B0LGLS6SU4","order":4,"prev_distance_km":14.625,"cumulative_distance_km":34.75,"amap_marker_url":"https://uri.amap.com/marker?position=116.047666,32.267468&name=%E7%A7%80%E5%AE%9D%E7%95%9C%E7%A6%BD%E6%9C%8D%E5%8A%A1%E4%B8%AD%E5%BF%83&src=vetmap&coordinate=gaode&callnative=1","route_id":"r1","route_name":"第1段","global_order":4},{"name":"郝发东兽药店","address":"邵岗中心小学西北侧120米","phone":"13966310099","category":"医疗保健服务;动物医疗场所;动物医疗场所","area":"","lng":116.146883,"lat":32.30703,"amap_id":"B0G0BX4DTW","order":5,"prev_distance_km":10.312,"cumulative_distance_km":45.062,"amap_marker_url":"https://uri.amap.com/marker?position=116.146883,32.307030&name=%E9%83%9D%E5%8F%91%E4%B8%9C%E5%85%BD%E8%8D%AF%E5%BA%97&src=vetmap&coordinate=gaode&callnative=1","route_id":"r1","route_name":"第1段","global_order":5},{"name":"修猫修狗宠物诊所生活馆","address":"光明大道与育才路交叉口","phone":"13665649434","category":"医疗保健服务;动物医疗场所;宠物诊所","area":"","lng":116.276413,"lat":32.338832,"amap_id":"B0LR9AP0QU","order":6,"prev_distance_km":12.675,"cumulative_distance_km":57.737,"amap_marker_url":"https://uri.amap.com/marker?position=116.276413,32.338832&name=%E4%BF%AE%E7%8C%AB%E4%BF%AE%E7%8B%97%E5%AE%A0%E7%89%A9%E8%AF%8A%E6%89%80%E7%94%9F%E6%B4%BB%E9%A6%86&src=vetmap&coordinate=gaode&callnative=1","route_id":"r1","route_name":"第1段","global_order":6},{"name":"爱犬宠物诊所","address":"玉泉路116号附近","phone":"15156928858","category":"医疗保健服务;动物医疗场所;宠物诊所","area":"","lng":116.27832,"lat":32.340042,"amap_id":"B0FFJOUQSE","order":7,"prev_distance_km":0.224,"cumulative_distance_km":57.961,"amap_marker_url":"https://uri.amap.com/marker?position=116.278320,32.340042&name=%E7%88%B1%E7%8A%AC%E5%AE%A0%E7%89%A9%E8%AF%8A%E6%89%80&src=vetmap&coordinate=gaode&callnative=1","route_id":"r1","route_name":"第1段","global_order":7},{"name":"爱犬宠物诊所","address":"玉泉路与光明大道交叉口东140米","phone":"15156928858","category":"医疗保健服务;动物医疗场所;宠物诊所","area":"","lng":116.278497,"lat":32.340028,"amap_id":"B0HG2AZFWJ","order":8,"prev_distance_km":0.017,"cumulative_distance_km":57.978,"amap_marker_url":"https://uri.amap.com/marker?position=116.278497,32.340028&name=%E7%88%B1%E7%8A%AC%E5%AE%A0%E7%89%A9%E8%AF%8A%E6%89%80&src=vetmap&coordinate=gaode&callnative=1","route_id":"r1","route_name":"第1段","global_order":8},{"name":"爱博宠物门诊部","address":"霍邱老年大学西南门旁","phone":"13505643240","category":"医疗保健服务;动物医疗场所;宠物诊所","area":"","lng":116.281434,"lat":32.33959,"amap_id":"B0FFFV4QA0","order":9,"prev_distance_km":0.28,"cumulative_distance_km":58.258,"amap_marker_url":"https://uri.amap.com/marker?position=116.281434,32.339590&name=%E7%88%B1%E5%8D%9A%E5%AE%A0%E7%89%A9%E9%97%A8%E8%AF%8A%E9%83%A8&src=vetmap&coordinate=gaode&callnative=1","route_id":"r1","route_name":"第1段","global_order":9},{"name":"顽皮宠物诊所(建新路店)","address":"新蓼大道与双湖路交叉口向北150米","phone":"15256093151;18919761997","category":"医疗保健服务;动物医疗场所;宠物诊所","area":"","lng":116.284209,"lat":32.345067,"amap_id":"B0FFLG9FLS","order":10,"prev_distance_km":0.662,"cumulative_distance_km":58.92,"amap_marker_url":"https://uri.amap.com/marker?position=116.284209,32.345067&name=%E9%A1%BD%E7%9A%AE%E5%AE%A0%E7%89%A9%E8%AF%8A%E6%89%80%28%E5%BB%BA%E6%96%B0%E8%B7%AF%E5%BA%97%29&src=vetmap&coordinate=gaode&callnative=1","route_id":"r1","route_name":"第1段","global_order":10},{"name":"霍邱县畜禽疾病防治服务部","address":"蓼东大道与蓼城大道东交叉口西南180米","phone":"","category":"医疗保健服务;动物医疗场所;动物医疗场所","area":"","lng":116.291093,"lat":32.33248,"amap_id":"B0L0T1C25Q","order":11,"prev_distance_km":1.542,"cumulative_distance_km":60.462,"amap_marker_url":"https://uri.amap.com/marker?position=116.291093,32.332480&name=%E9%9C%8D%E9%82%B1%E5%8E%BF%E7%95%9C%E7%A6%BD%E7%96%BE%E7%97%85%E9%98%B2%E6%B2%BB%E6%9C%8D%E5%8A%A1%E9%83%A8&src=vetmap&coordinate=gaode&callnative=1","route_id":"r1","route_name":"第1段","global_order":11},{"name":"畜禽防治","address":"310省道与131乡道交叉口西南180米","phone":"","category":"医疗保健服务;动物医疗场所;兽医站","area":"","lng":116.222328,"lat":32.141066,"amap_id":"B0JA75W0LC","order":12,"prev_distance_km":22.245,"cumulative_distance_km":82.707,"amap_marker_url":"https://uri.amap.com/marker?position=116.222328,32.141066&name=%E7%95%9C%E7%A6%BD%E9%98%B2%E6%B2%BB&src=vetmap&coordinate=gaode&callnative=1","route_id":"r1","route_name":"第1段","global_order":12},{"name":"花园畜禽养殖服务部","address":"245省道","phone":"","category":"医疗保健服务;动物医疗场所;兽医站","area":"","lng":116.388857,"lat":32.044379,"amap_id":"B0L3MDK2GP","order":13,"prev_distance_km":19.018,"cumulative_distance_km":101.725,"amap_marker_url":"https://uri.amap.com/marker?position=116.388857,32.044379&name=%E8%8A%B1%E5%9B%AD%E7%95%9C%E7%A6%BD%E5%85%BB%E6%AE%96%E6%9C%8D%E5%8A%A1%E9%83%A8&src=vetmap&coordinate=gaode&callnative=1","route_id":"r1","route_name":"第1段","global_order":13},{"name":"霍邱县延朗禽业技术服务中心","address":"孟集镇245省道1号","phone":"","category":"医疗保健服务;动物医疗场所;兽医站","area":"","lng":116.405529,"lat":32.182931,"amap_id":"B0LKRD6VVW","order":14,"prev_distance_km":15.486,"cumulative_distance_km":117.211,"amap_marker_url":"https://uri.amap.com/marker?position=116.405529,32.182931&name=%E9%9C%8D%E9%82%B1%E5%8E%BF%E5%BB%B6%E6%9C%97%E7%A6%BD%E4%B8%9A%E6%8A%80%E6%9C%AF%E6%9C%8D%E5%8A%A1%E4%B8%AD%E5%BF%83&src=vetmap&coordinate=gaode&callnative=1","route_id":"r1","route_name":"第1段","global_order":14},{"name":"霍邱县科牧动物诊疗中心","address":"冯瓴镇人民政府对面","phone":"","category":"医疗保健服务;动物医疗场所;动物医疗场所","area":"","lng":116.490393,"lat":32.20932,"amap_id":"B0L2JH72X5","order":15,"prev_distance_km":8.507,"cumulative_distance_km":125.719,"amap_marker_url":"https://uri.amap.com/marker?position=116.490393,32.209320&name=%E9%9C%8D%E9%82%B1%E5%8E%BF%E7%A7%91%E7%89%A7%E5%8A%A8%E7%89%A9%E8%AF%8A%E7%96%97%E4%B8%AD%E5%BF%83&src=vetmap&coordinate=gaode&callnative=1","route_id":"r1","route_name":"第1段","global_order":15}]}