{"summary":{"id":"d00245","province":"安徽省","city":"宿州市","district":"埇桥区","count":66,"route_count":2,"max_route_clinics":33,"total_distance_km":196.816,"coordinate_system":"GCJ-02 / Amap","generated_at":"2026-05-07 21:27:10"},"routes":[{"id":"r1","name":"第1段","count":33,"total_distance_km":84.258,"rows":[{"name":"畜禽服务门诊部","address":"永大路与032县道交叉口东40米","phone":"","category":"医疗保健服务;动物医疗场所;兽医站","area":"","lng":116.983245,"lat":33.341986,"amap_id":"B0FFL3Z9IA","order":1,"prev_distance_km":0.0,"cumulative_distance_km":0.0,"amap_marker_url":"https://uri.amap.com/marker?position=116.983245,33.341986&name=%E7%95%9C%E7%A6%BD%E6%9C%8D%E5%8A%A1%E9%97%A8%E8%AF%8A%E9%83%A8&src=vetmap&coordinate=gaode&callnative=1","route_id":"r1","route_name":"第1段"},{"name":"宿州市埇桥区永镇乡动物防疫站","address":"032县道与206国道交叉口西300米","phone":"","category":"医疗保健服务;动物医疗场所;动物医疗场所","area":"","lng":117.039507,"lat":33.353812,"amap_id":"B0FFKI3SR8","order":2,"prev_distance_km":5.389,"cumulative_distance_km":5.389,"amap_marker_url":"https://uri.amap.com/marker?position=117.039507,33.353812&name=%E5%AE%BF%E5%B7%9E%E5%B8%82%E5%9F%87%E6%A1%A5%E5%8C%BA%E6%B0%B8%E9%95%87%E4%B9%A1%E5%8A%A8%E7%89%A9%E9%98%B2%E7%96%AB%E7%AB%99&src=vetmap&coordinate=gaode&callnative=1","route_id":"r1","route_name":"第1段"},{"name":"祁县镇畜牧兽医水产站","address":"祁县市场监督管理所北侧160米","phone":"","category":"医疗保健服务;动物医疗场所;兽医站","area":"","lng":117.021759,"lat":33.439068,"amap_id":"B0JD47L8YS","order":3,"prev_distance_km":9.622,"cumulative_distance_km":15.011,"amap_marker_url":"https://uri.amap.com/marker?position=117.021759,33.439068&name=%E7%A5%81%E5%8E%BF%E9%95%87%E7%95%9C%E7%89%A7%E5%85%BD%E5%8C%BB%E6%B0%B4%E4%BA%A7%E7%AB%99&src=vetmap&coordinate=gaode&callnative=1","route_id":"r1","route_name":"第1段"},{"name":"动物医院","address":"康园小区东侧","phone":"","category":"医疗保健服务;动物医疗场所;宠物诊所","area":"","lng":117.032448,"lat":33.4404,"amap_id":"B0IDVUBXTJ","order":4,"prev_distance_km":1.003,"cumulative_distance_km":16.014,"amap_marker_url":"https://uri.amap.com/marker?position=117.032448,33.440400&name=%E5%8A%A8%E7%89%A9%E5%8C%BB%E9%99%A2&src=vetmap&coordinate=gaode&callnative=1","route_id":"r1","route_name":"第1段"},{"name":"兽医站","address":"中兴街与西涉路交叉口西60米","phone":"","category":"医疗保健服务;动物医疗场所;兽医站","area":"","lng":117.098866,"lat":33.513933,"amap_id":"B0HKXCU0PC","order":5,"prev_distance_km":10.237,"cumulative_distance_km":26.251,"amap_marker_url":"https://uri.amap.com/marker?position=117.098866,33.513933&name=%E5%85%BD%E5%8C%BB%E7%AB%99&src=vetmap&coordinate=gaode&callnative=1","route_id":"r1","route_name":"第1段"},{"name":"广岭畜禽门诊","address":"156乡道与中兴街交叉口西140米","phone":"","category":"医疗保健服务;动物医疗场所;兽医站","area":"","lng":117.178971,"lat":33.518934,"amap_id":"B0L0V9JS7X","order":6,"prev_distance_km":7.447,"cumulative_distance_km":33.698,"amap_marker_url":"https://uri.amap.com/marker?position=117.178971,33.518934&name=%E5%B9%BF%E5%B2%AD%E7%95%9C%E7%A6%BD%E9%97%A8%E8%AF%8A&src=vetmap&coordinate=gaode&callnative=1","route_id":"r1","route_name":"第1段"},{"name":"潘维斌畜禽疾病诊疗中心","address":"大店镇303省道","phone":"","category":"医疗保健服务;动物医疗场所;宠物诊所","area":"","lng":117.256211,"lat":33.589172,"amap_id":"B0FFFTDN2H","order":7,"prev_distance_km":10.594,"cumulative_distance_km":44.292,"amap_marker_url":"https://uri.amap.com/marker?position=117.256211,33.589172&name=%E6%BD%98%E7%BB%B4%E6%96%8C%E7%95%9C%E7%A6%BD%E7%96%BE%E7%97%85%E8%AF%8A%E7%96%97%E4%B8%AD%E5%BF%83&src=vetmap&coordinate=gaode&callnative=1","route_id":"r1","route_name":"第1段"},{"name":"畜禽疾病防治经营部","address":"","phone":"","category":"医疗保健服务;动物医疗场所;兽医站","area":"","lng":117.104179,"lat":33.610795,"amap_id":"B0LDRRI8KZ","order":8,"prev_distance_km":14.285,"cumulative_distance_km":58.577,"amap_marker_url":"https://uri.amap.com/marker?position=117.104179,33.610795&name=%E7%95%9C%E7%A6%BD%E7%96%BE%E7%97%85%E9%98%B2%E6%B2%BB%E7%BB%8F%E8%90%A5%E9%83%A8&src=vetmap&coordinate=gaode&callnative=1","route_id":"r1","route_name":"第1段"},{"name":"宿州市曙光宠物诊疗中心","address":"商业街22-24号","phone":"15399550770","category":"医疗保健服务;动物医疗场所;宠物诊所","area":"","lng":117.080758,"lat":33.632311,"amap_id":"B0K6YU3699","order":9,"prev_distance_km":3.229,"cumulative_distance_km":61.806,"amap_marker_url":"https://uri.amap.com/marker?position=117.080758,33.632311&name=%E5%AE%BF%E5%B7%9E%E5%B8%82%E6%9B%99%E5%85%89%E5%AE%A0%E7%89%A9%E8%AF%8A%E7%96%97%E4%B8%AD%E5%BF%83&src=vetmap&coordinate=gaode&callnative=1","route_id":"r1","route_name":"第1段"},{"name":"康美宠物医院(汴河东路店)","address":"汴河东路191号","phone":"15855396106","category":"医疗保健服务;动物医疗场所;宠物诊所","area":"","lng":117.010314,"lat":33.630519,"amap_id":"B0FFHEVIOG","order":10,"prev_distance_km":6.525,"cumulative_distance_km":68.331,"amap_marker_url":"https://uri.amap.com/marker?position=117.010314,33.630519&name=%E5%BA%B7%E7%BE%8E%E5%AE%A0%E7%89%A9%E5%8C%BB%E9%99%A2%28%E6%B1%B4%E6%B2%B3%E4%B8%9C%E8%B7%AF%E5%BA%97%29&src=vetmap&coordinate=gaode&callnative=1","route_id":"r1","route_name":"第1段"},{"name":"华府动物门诊","address":"华府春天西南门西120米","phone":"","category":"医疗保健服务;动物医疗场所;宠物诊所","area":"","lng":117.006493,"lat":33.634258,"amap_id":"B0FFK51W18","order":11,"prev_distance_km":0.546,"cumulative_distance_km":68.876,"amap_marker_url":"https://uri.amap.com/marker?position=117.006493,33.634258&name=%E5%8D%8E%E5%BA%9C%E5%8A%A8%E7%89%A9%E9%97%A8%E8%AF%8A&src=vetmap&coordinate=gaode&callnative=1","route_id":"r1","route_name":"第1段"},{"name":"畜牧兽医","address":"顺河路与宿怀北路交叉口西北20米","phone":"","category":"医疗保健服务;动物医疗场所;兽医站","area":"宿怀路","lng":116.991769,"lat":33.634595,"amap_id":"B0H0U5MFWP","order":12,"prev_distance_km":1.364,"cumulative_distance_km":70.24,"amap_marker_url":"https://uri.amap.com/marker?position=116.991769,33.634595&name=%E7%95%9C%E7%89%A7%E5%85%BD%E5%8C%BB&src=vetmap&coordinate=gaode&callnative=1","route_id":"r1","route_name":"第1段"},{"name":"琼安动物诊所","address":"裕城街与江庄北巷交叉口西120米","phone":"","category":"医疗保健服务;动物医疗场所;宠物诊所","area":"西昌南路","lng":116.975292,"lat":33.635051,"amap_id":"B0KUXXYK7P","order":13,"prev_distance_km":1.526,"cumulative_distance_km":71.766,"amap_marker_url":"https://uri.amap.com/marker?position=116.975292,33.635051&name=%E7%90%BC%E5%AE%89%E5%8A%A8%E7%89%A9%E8%AF%8A%E6%89%80&src=vetmap&coordinate=gaode&callnative=1","route_id":"r1","route_name":"第1段"},{"name":"金典宠物医院","address":"西昌路66号","phone":"13093575358;15955768788","category":"医疗保健服务;动物医疗场所;宠物诊所","area":"西昌南路","lng":116.971999,"lat":33.62946,"amap_id":"B0FFFZ57ET","order":14,"prev_distance_km":0.692,"cumulative_distance_km":72.459,"amap_marker_url":"https://uri.amap.com/marker?position=116.971999,33.629460&name=%E9%87%91%E5%85%B8%E5%AE%A0%E7%89%A9%E5%8C%BB%E9%99%A2&src=vetmap&coordinate=gaode&callnative=1","route_id":"r1","route_name":"第1段"},{"name":"宿州市专业洗猫洗狗宠物店","address":"西苑新村c区南门2栋商铺0111室","phone":"18105576368","category":"医疗保健服务;动物医疗场所;动物医疗场所","area":"浍水路","lng":116.961782,"lat":33.626998,"amap_id":"B0K16HUOER","order":15,"prev_distance_km":0.985,"cumulative_distance_km":73.444,"amap_marker_url":"https://uri.amap.com/marker?position=116.961782,33.626998&name=%E5%AE%BF%E5%B7%9E%E5%B8%82%E4%B8%93%E4%B8%9A%E6%B4%97%E7%8C%AB%E6%B4%97%E7%8B%97%E5%AE%A0%E7%89%A9%E5%BA%97&src=vetmap&coordinate=gaode&callnative=1","route_id":"r1","route_name":"第1段"},{"name":"安心宠物恒大名都店","address":"恒大名都南门往东116商号","phone":"17355708835;17355763558","category":"医疗保健服务;动物医疗场所;动物医疗场所","area":"","lng":116.947092,"lat":33.634884,"amap_id":"B0K3R74XUP","order":16,"prev_distance_km":1.618,"cumulative_distance_km":75.062,"amap_marker_url":"https://uri.amap.com/marker?position=116.947092,33.634884&name=%E5%AE%89%E5%BF%83%E5%AE%A0%E7%89%A9%E6%81%92%E5%A4%A7%E5%90%8D%E9%83%BD%E5%BA%97&src=vetmap&coordinate=gaode&callnative=1","route_id":"r1","route_name":"第1段"},{"name":"百信宠物诊疗中心","address":"拂晓三号路37号","phone":"18155768126;18521531989","category":"医疗保健服务;动物医疗场所;宠物诊所","area":"","lng":116.946932,"lat":33.634811,"amap_id":"B0K3ZADD2H","order":17,"prev_distance_km":0.017,"cumulative_distance_km":75.079,"amap_marker_url":"https://uri.amap.com/marker?position=116.946932,33.634811&name=%E7%99%BE%E4%BF%A1%E5%AE%A0%E7%89%A9%E8%AF%8A%E7%96%97%E4%B8%AD%E5%BF%83&src=vetmap&coordinate=gaode&callnative=1","route_id":"r1","route_name":"第1段"},{"name":"西南宠物诊所","address":"宿涡路与拂晓大道交叉口西120米","phone":"","category":"医疗保健服务;动物医疗场所;宠物诊所","area":"","lng":116.947486,"lat":33.632952,"amap_id":"B0JUOLENS1","order":18,"prev_distance_km":0.213,"cumulative_distance_km":75.292,"amap_marker_url":"https://uri.amap.com/marker?position=116.947486,33.632952&name=%E8%A5%BF%E5%8D%97%E5%AE%A0%E7%89%A9%E8%AF%8A%E6%89%80&src=vetmap&coordinate=gaode&callnative=1","route_id":"r1","route_name":"第1段"},{"name":"宿州英铭畜禽疾病诊疗中心","address":"沈庄六巷盛腾兽药旁","phone":"0557-3901032;13705576044","category":"医疗保健服务;动物医疗场所;兽医站","area":"光彩城","lng":116.950637,"lat":33.623418,"amap_id":"B0FFFQVGD6","order":19,"prev_distance_km":1.1,"cumulative_distance_km":76.391,"amap_marker_url":"https://uri.amap.com/marker?position=116.950637,33.623418&name=%E5%AE%BF%E5%B7%9E%E8%8B%B1%E9%93%AD%E7%95%9C%E7%A6%BD%E7%96%BE%E7%97%85%E8%AF%8A%E7%96%97%E4%B8%AD%E5%BF%83&src=vetmap&coordinate=gaode&callnative=1","route_id":"r1","route_name":"第1段"},{"name":"善宠宠物医院","address":"纺织西路523号","phone":"0557-2963665;19166715998","category":"医疗保健服务;动物医疗场所;宠物诊所","area":"","lng":116.956649,"lat":33.618047,"amap_id":"B0I36U8GBQ","order":20,"prev_distance_km":0.816,"cumulative_distance_km":77.208,"amap_marker_url":"https://uri.amap.com/marker?position=116.956649,33.618047&name=%E5%96%84%E5%AE%A0%E5%AE%A0%E7%89%A9%E5%8C%BB%E9%99%A2&src=vetmap&coordinate=gaode&callnative=1","route_id":"r1","route_name":"第1段"},{"name":"爱诺宠物诊疗中心(宠物医院)","address":"纺织西路324号","phone":"18155751916","category":"医疗保健服务;动物医疗场所;宠物诊所","area":"","lng":116.962975,"lat":33.618575,"amap_id":"B0ID6764XS","order":21,"prev_distance_km":0.589,"cumulative_distance_km":77.796,"amap_marker_url":"https://uri.amap.com/marker?position=116.962975,33.618575&name=%E7%88%B1%E8%AF%BA%E5%AE%A0%E7%89%A9%E8%AF%8A%E7%96%97%E4%B8%AD%E5%BF%83%28%E5%AE%A0%E7%89%A9%E5%8C%BB%E9%99%A2%29&src=vetmap&coordinate=gaode&callnative=1","route_id":"r1","route_name":"第1段"},{"name":"森睿宠物医院","address":"西昌南路怡海花园2号楼0113-0116号","phone":"18955789978","category":"医疗保健服务;动物医疗场所;宠物诊所","area":"西昌南路","lng":116.971415,"lat":33.618654,"amap_id":"B0FFICFVZS","order":22,"prev_distance_km":0.782,"cumulative_distance_km":78.578,"amap_marker_url":"https://uri.amap.com/marker?position=116.971415,33.618654&name=%E6%A3%AE%E7%9D%BF%E5%AE%A0%E7%89%A9%E5%8C%BB%E9%99%A2&src=vetmap&coordinate=gaode&callnative=1","route_id":"r1","route_name":"第1段"},{"name":"旺旺宠物诊所(淮河路店)","address":"淮河中路675号","phone":"13655578538","category":"医疗保健服务;动物医疗场所;宠物诊所","area":"淮海南路","lng":116.978785,"lat":33.621962,"amap_id":"B022D0P8XG","order":23,"prev_distance_km":0.775,"cumulative_distance_km":79.353,"amap_marker_url":"https://uri.amap.com/marker?position=116.978785,33.621962&name=%E6%97%BA%E6%97%BA%E5%AE%A0%E7%89%A9%E8%AF%8A%E6%89%80%28%E6%B7%AE%E6%B2%B3%E8%B7%AF%E5%BA%97%29&src=vetmap&coordinate=gaode&callnative=1","route_id":"r1","route_name":"第1段"},{"name":"伴侣宠物医疗","address":"浍水路509号","phone":"13733075790","category":"医疗保健服务;动物医疗场所;宠物诊所","area":"浍水路","lng":116.985504,"lat":33.626555,"amap_id":"B0JUSAOIAK","order":24,"prev_distance_km":0.805,"cumulative_distance_km":80.158,"amap_marker_url":"https://uri.amap.com/marker?position=116.985504,33.626555&name=%E4%BC%B4%E4%BE%A3%E5%AE%A0%E7%89%A9%E5%8C%BB%E7%96%97&src=vetmap&coordinate=gaode&callnative=1","route_id":"r1","route_name":"第1段"},{"name":"金学仕宠尚宠物医院","address":"平安园小区西区西南门旁","phone":"15855576227","category":"医疗保健服务;动物医疗场所;宠物诊所","area":"","lng":116.996665,"lat":33.618111,"amap_id":"B0HAAY55E6","order":25,"prev_distance_km":1.396,"cumulative_distance_km":81.554,"amap_marker_url":"https://uri.amap.com/marker?position=116.996665,33.618111&name=%E9%87%91%E5%AD%A6%E4%BB%95%E5%AE%A0%E5%B0%9A%E5%AE%A0%E7%89%A9%E5%8C%BB%E9%99%A2&src=vetmap&coordinate=gaode&callnative=1","route_id":"r1","route_name":"第1段"},{"name":"杨勇动物医院","address":"古沱巷与金海二巷交叉口东北20米","phone":"13485828719","category":"医疗保健服务;动物医疗场所;宠物诊所","area":"金海大道","lng":116.998891,"lat":33.616676,"amap_id":"B0JUMC7FKD","order":26,"prev_distance_km":0.261,"cumulative_distance_km":81.815,"amap_marker_url":"https://uri.amap.com/marker?position=116.998891,33.616676&name=%E6%9D%A8%E5%8B%87%E5%8A%A8%E7%89%A9%E5%8C%BB%E9%99%A2&src=vetmap&coordinate=gaode&callnative=1","route_id":"r1","route_name":"第1段"},{"name":"吉瑞康宠物诊疗","address":"三里湾街道金海二巷23号","phone":"13485828719","category":"医疗保健服务;动物医疗场所;宠物诊所","area":"金海大道","lng":116.99892,"lat":33.61669,"amap_id":"B0I3O52S4D","order":27,"prev_distance_km":0.003,"cumulative_distance_km":81.818,"amap_marker_url":"https://uri.amap.com/marker?position=116.998920,33.616690&name=%E5%90%89%E7%91%9E%E5%BA%B7%E5%AE%A0%E7%89%A9%E8%AF%8A%E7%96%97&src=vetmap&coordinate=gaode&callnative=1","route_id":"r1","route_name":"第1段"},{"name":"邦尼动物医院","address":"纺织东路,289号","phone":"0557-2660700;15324459000","category":"医疗保健服务;动物医疗场所;宠物诊所","area":"金海大道","lng":116.999738,"lat":33.617502,"amap_id":"B0FFHD8I5Y","order":28,"prev_distance_km":0.118,"cumulative_distance_km":81.936,"amap_marker_url":"https://uri.amap.com/marker?position=116.999738,33.617502&name=%E9%82%A6%E5%B0%BC%E5%8A%A8%E7%89%A9%E5%8C%BB%E9%99%A2&src=vetmap&coordinate=gaode&callnative=1","route_id":"r1","route_name":"第1段"},{"name":"宠百康宠物综合医院","address":"金海二路与纺织路高架交汇处西南角三十米","phone":"","category":"医疗保健服务;动物医疗场所;宠物诊所","area":"金海大道","lng":117.005196,"lat":33.617195,"amap_id":"B0JUJMJ4X4","order":29,"prev_distance_km":0.507,"cumulative_distance_km":82.443,"amap_marker_url":"https://uri.amap.com/marker?position=117.005196,33.617195&name=%E5%AE%A0%E7%99%BE%E5%BA%B7%E5%AE%A0%E7%89%A9%E7%BB%BC%E5%90%88%E5%8C%BB%E9%99%A2&src=vetmap&coordinate=gaode&callnative=1","route_id":"r1","route_name":"第1段"},{"name":"宠百康宠物医院·急夜诊·猫专科","address":"纺织东路高架桥辅路与金海二路交叉路口红绿灯西南角三十米门朝北最北面一排","phone":"17355740888","category":"医疗保健服务;动物医疗场所;宠物诊所","area":"金海大道","lng":117.005222,"lat":33.617193,"amap_id":"B0JATSPBIV","order":30,"prev_distance_km":0.002,"cumulative_distance_km":82.445,"amap_marker_url":"https://uri.amap.com/marker?position=117.005222,33.617193&name=%E5%AE%A0%E7%99%BE%E5%BA%B7%E5%AE%A0%E7%89%A9%E5%8C%BB%E9%99%A2%C2%B7%E6%80%A5%E5%A4%9C%E8%AF%8A%C2%B7%E7%8C%AB%E4%B8%93%E7%A7%91&src=vetmap&coordinate=gaode&callnative=1","route_id":"r1","route_name":"第1段"},{"name":"宠百康宠物医院·犬猫专科·骨科急重症中心","address":"前陈营一路与纺织东路交叉口南80米","phone":"","category":"医疗保健服务;动物医疗场所;宠物诊所","area":"金海大道","lng":117.005175,"lat":33.617025,"amap_id":"B0JDDAMVJM","order":31,"prev_distance_km":0.019,"cumulative_distance_km":82.464,"amap_marker_url":"https://uri.amap.com/marker?position=117.005175,33.617025&name=%E5%AE%A0%E7%99%BE%E5%BA%B7%E5%AE%A0%E7%89%A9%E5%8C%BB%E9%99%A2%C2%B7%E7%8A%AC%E7%8C%AB%E4%B8%93%E7%A7%91%C2%B7%E9%AA%A8%E7%A7%91%E6%80%A5%E9%87%8D%E7%97%87%E4%B8%AD%E5%BF%83&src=vetmap&coordinate=gaode&callnative=1","route_id":"r1","route_name":"第1段"},{"name":"优恩动物医院","address":"经济开发区金海三路西侧君悦学府15栋116室","phone":"13965318371","category":"医疗保健服务;动物医疗场所;宠物诊所","area":"","lng":117.010047,"lat":33.609917,"amap_id":"B0LKCA159R","order":32,"prev_distance_km":0.91,"cumulative_distance_km":83.374,"amap_marker_url":"https://uri.amap.com/marker?position=117.010047,33.609917&name=%E4%BC%98%E6%81%A9%E5%8A%A8%E7%89%A9%E5%8C%BB%E9%99%A2&src=vetmap&coordinate=gaode&callnative=1","route_id":"r1","route_name":"第1段"},{"name":"李氏牧康宠物服务店","address":"金海街道金海六路412号","phone":"","category":"医疗保健服务;动物医疗场所;宠物诊所","area":"","lng":117.017404,"lat":33.604861,"amap_id":"B0LK2HQX68","order":33,"prev_distance_km":0.883,"cumulative_distance_km":84.258,"amap_marker_url":"https://uri.amap.com/marker?position=117.017404,33.604861&name=%E6%9D%8E%E6%B0%8F%E7%89%A7%E5%BA%B7%E5%AE%A0%E7%89%A9%E6%9C%8D%E5%8A%A1%E5%BA%97&src=vetmap&coordinate=gaode&callnative=1","route_id":"r1","route_name":"第1段"}]},{"id":"r2","name":"第2段","count":33,"total_distance_km":112.558,"rows":[{"name":"渡它宠物服务中心","address":"港口中路与港口巷交叉口西南40米","phone":"18555479051","category":"医疗保健服务;动物医疗场所;宠物诊所","area":"","lng":117.003023,"lat":33.645549,"amap_id":"B0K6B7I0JX","order":1,"prev_distance_km":0.0,"cumulative_distance_km":0.0,"amap_marker_url":"https://uri.amap.com/marker?position=117.003023,33.645549&name=%E6%B8%A1%E5%AE%83%E5%AE%A0%E7%89%A9%E6%9C%8D%E5%8A%A1%E4%B8%AD%E5%BF%83&src=vetmap&coordinate=gaode&callnative=1","route_id":"r2","route_name":"第2段"},{"name":"爱心宠物诊疗","address":"宿怀北路501号","phone":"0557-3080258;15155453901","category":"医疗保健服务;动物医疗场所;宠物诊所","area":"宿怀路","lng":116.993536,"lat":33.642679,"amap_id":"B0FFGMESN7","order":2,"prev_distance_km":0.934,"cumulative_distance_km":0.934,"amap_marker_url":"https://uri.amap.com/marker?position=116.993536,33.642679&name=%E7%88%B1%E5%BF%83%E5%AE%A0%E7%89%A9%E8%AF%8A%E7%96%97&src=vetmap&coordinate=gaode&callnative=1","route_id":"r2","route_name":"第2段"},{"name":"仁爱动物诊疗中心","address":"宿怀北路417号(火车站往北100米路西)","phone":"0557-3318795;19155978898","category":"医疗保健服务;动物医疗场所;宠物诊所","area":"宿怀路","lng":116.993297,"lat":33.640939,"amap_id":"B0FFFP1SXT","order":3,"prev_distance_km":0.195,"cumulative_distance_km":1.129,"amap_marker_url":"https://uri.amap.com/marker?position=116.993297,33.640939&name=%E4%BB%81%E7%88%B1%E5%8A%A8%E7%89%A9%E8%AF%8A%E7%96%97%E4%B8%AD%E5%BF%83&src=vetmap&coordinate=gaode&callnative=1","route_id":"r2","route_name":"第2段"},{"name":"虹泰宠物诊疗美容中心","address":"淮海中路605号","phone":"18055726158","category":"医疗保健服务;动物医疗场所;宠物诊所","area":"淮海中路","lng":116.980217,"lat":33.64726,"amap_id":"B0FFIHM3QW","order":4,"prev_distance_km":1.4,"cumulative_distance_km":2.529,"amap_marker_url":"https://uri.amap.com/marker?position=116.980217,33.647260&name=%E8%99%B9%E6%B3%B0%E5%AE%A0%E7%89%A9%E8%AF%8A%E7%96%97%E7%BE%8E%E5%AE%B9%E4%B8%AD%E5%BF%83&src=vetmap&coordinate=gaode&callnative=1","route_id":"r2","route_name":"第2段"},{"name":"宿州市啵比宠物医院","address":"北关街道两淮北关新城E2区3号楼0106室","phone":"18955739879","category":"医疗保健服务;动物医疗场所;宠物诊所","area":"淮海中路","lng":116.973858,"lat":33.644087,"amap_id":"B0KK7XLZ0O","order":5,"prev_distance_km":0.686,"cumulative_distance_km":3.215,"amap_marker_url":"https://uri.amap.com/marker?position=116.973858,33.644087&name=%E5%AE%BF%E5%B7%9E%E5%B8%82%E5%95%B5%E6%AF%94%E5%AE%A0%E7%89%A9%E5%8C%BB%E9%99%A2&src=vetmap&coordinate=gaode&callnative=1","route_id":"r2","route_name":"第2段"},{"name":"喵喵之家宠物诊疗","address":"环城北路140号","phone":"","category":"医疗保健服务;动物医疗场所;宠物诊所","area":"淮海中路","lng":116.974648,"lat":33.641722,"amap_id":"B0JRUCZB4R","order":6,"prev_distance_km":0.273,"cumulative_distance_km":3.488,"amap_marker_url":"https://uri.amap.com/marker?position=116.974648,33.641722&name=%E5%96%B5%E5%96%B5%E4%B9%8B%E5%AE%B6%E5%AE%A0%E7%89%A9%E8%AF%8A%E7%96%97&src=vetmap&coordinate=gaode&callnative=1","route_id":"r2","route_name":"第2段"},{"name":"佳宠宠物医院(吾悦广场店)","address":"人民路吾悦华府东门S9栋108号商铺人民路加油站对面","phone":"18133766657","category":"医疗保健服务;动物医疗场所;宠物诊所","area":"","lng":116.965165,"lat":33.636268,"amap_id":"B0J3G7S8WL","order":7,"prev_distance_km":1.067,"cumulative_distance_km":4.555,"amap_marker_url":"https://uri.amap.com/marker?position=116.965165,33.636268&name=%E4%BD%B3%E5%AE%A0%E5%AE%A0%E7%89%A9%E5%8C%BB%E9%99%A2%28%E5%90%BE%E6%82%A6%E5%B9%BF%E5%9C%BA%E5%BA%97%29&src=vetmap&coordinate=gaode&callnative=1","route_id":"r2","route_name":"第2段"},{"name":"关爱宠物医院(西关大街店)","address":"汴河路小区北门东140米","phone":"13805572199","category":"医疗保健服务;动物医疗场所;宠物诊所","area":"","lng":116.955437,"lat":33.637067,"amap_id":"B0FFIY29QQ","order":8,"prev_distance_km":0.905,"cumulative_distance_km":5.46,"amap_marker_url":"https://uri.amap.com/marker?position=116.955437,33.637067&name=%E5%85%B3%E7%88%B1%E5%AE%A0%E7%89%A9%E5%8C%BB%E9%99%A2%28%E8%A5%BF%E5%85%B3%E5%A4%A7%E8%A1%97%E5%BA%97%29&src=vetmap&coordinate=gaode&callnative=1","route_id":"r2","route_name":"第2段"},{"name":"力狼宠物诊所","address":"宿永路与银杏路交叉口西南300米","phone":"13955786848","category":"医疗保健服务;动物医疗场所;宠物诊所","area":"","lng":116.937829,"lat":33.635633,"amap_id":"B0GKJBWVB4","order":9,"prev_distance_km":1.638,"cumulative_distance_km":7.098,"amap_marker_url":"https://uri.amap.com/marker?position=116.937829,33.635633&name=%E5%8A%9B%E7%8B%BC%E5%AE%A0%E7%89%A9%E8%AF%8A%E6%89%80&src=vetmap&coordinate=gaode&callnative=1","route_id":"r2","route_name":"第2段"},{"name":"贝尔宠物医院","address":"三八街道天元府小区23幢108商铺","phone":"19016032856","category":"医疗保健服务;动物医疗场所;宠物诊所","area":"","lng":116.943397,"lat":33.648154,"amap_id":"B0LA5UTKXX","order":10,"prev_distance_km":1.485,"cumulative_distance_km":8.583,"amap_marker_url":"https://uri.amap.com/marker?position=116.943397,33.648154&name=%E8%B4%9D%E5%B0%94%E5%AE%A0%E7%89%A9%E5%8C%BB%E9%99%A2&src=vetmap&coordinate=gaode&callnative=1","route_id":"r2","route_name":"第2段"},{"name":"一诺动物医院(碧桂园店)","address":"佛晓大道碧桂园西门17栋107","phone":"0557-3603383;15655759383","category":"医疗保健服务;动物医疗场所;宠物诊所","area":"","lng":116.949488,"lat":33.650913,"amap_id":"B0I6LZ2SHR","order":11,"prev_distance_km":0.642,"cumulative_distance_km":9.225,"amap_marker_url":"https://uri.amap.com/marker?position=116.949488,33.650913&name=%E4%B8%80%E8%AF%BA%E5%8A%A8%E7%89%A9%E5%8C%BB%E9%99%A2%28%E7%A2%A7%E6%A1%82%E5%9B%AD%E5%BA%97%29&src=vetmap&coordinate=gaode&callnative=1","route_id":"r2","route_name":"第2段"},{"name":"狗不理猫宠物诊疗","address":"明日·世纪花园北门西260米","phone":"15650695059","category":"医疗保健服务;动物医疗场所;宠物诊所","area":"银河一路","lng":116.949984,"lat":33.649109,"amap_id":"B0IKZCXJEN","order":12,"prev_distance_km":0.206,"cumulative_distance_km":9.431,"amap_marker_url":"https://uri.amap.com/marker?position=116.949984,33.649109&name=%E7%8B%97%E4%B8%8D%E7%90%86%E7%8C%AB%E5%AE%A0%E7%89%A9%E8%AF%8A%E7%96%97&src=vetmap&coordinate=gaode&callnative=1","route_id":"r2","route_name":"第2段"},{"name":"大徐动物医院","address":"明日·世纪花园南2门西360米","phone":"15656723067","category":"医疗保健服务;动物医疗场所;宠物诊所","area":"银河一路","lng":116.950515,"lat":33.646225,"amap_id":"B0FFIG5XVX","order":13,"prev_distance_km":0.324,"cumulative_distance_km":9.755,"amap_marker_url":"https://uri.amap.com/marker?position=116.950515,33.646225&name=%E5%A4%A7%E5%BE%90%E5%8A%A8%E7%89%A9%E5%8C%BB%E9%99%A2&src=vetmap&coordinate=gaode&callnative=1","route_id":"r2","route_name":"第2段"},{"name":"起航动物医院24小时","address":"新都市华庭东区北门东120米","phone":"19856032235","category":"医疗保健服务;动物医疗场所;宠物诊所","area":"银河一路","lng":116.954263,"lat":33.645632,"amap_id":"B0J30AAEP5","order":14,"prev_distance_km":0.353,"cumulative_distance_km":10.108,"amap_marker_url":"https://uri.amap.com/marker?position=116.954263,33.645632&name=%E8%B5%B7%E8%88%AA%E5%8A%A8%E7%89%A9%E5%8C%BB%E9%99%A224%E5%B0%8F%E6%97%B6&src=vetmap&coordinate=gaode&callnative=1","route_id":"r2","route_name":"第2段"},{"name":"安宠动物医疗中心","address":"三八街道银河二路349号","phone":"13365771822","category":"医疗保健服务;动物医疗场所;宠物诊所","area":"银河一路","lng":116.954544,"lat":33.64918,"amap_id":"B0GU9ATKE1","order":15,"prev_distance_km":0.395,"cumulative_distance_km":10.503,"amap_marker_url":"https://uri.amap.com/marker?position=116.954544,33.649180&name=%E5%AE%89%E5%AE%A0%E5%8A%A8%E7%89%A9%E5%8C%BB%E7%96%97%E4%B8%AD%E5%BF%83&src=vetmap&coordinate=gaode&callnative=1","route_id":"r2","route_name":"第2段"},{"name":"祐嘉宠物诊疗中心","address":"银河三路239号","phone":"18133228067;18263149810","category":"医疗保健服务;动物医疗场所;宠物诊所","area":"银河二路","lng":116.957213,"lat":33.652658,"amap_id":"B0LKJH1LMZ","order":16,"prev_distance_km":0.459,"cumulative_distance_km":10.962,"amap_marker_url":"https://uri.amap.com/marker?position=116.957213,33.652658&name=%E7%A5%90%E5%98%89%E5%AE%A0%E7%89%A9%E8%AF%8A%E7%96%97%E4%B8%AD%E5%BF%83&src=vetmap&coordinate=gaode&callnative=1","route_id":"r2","route_name":"第2段"},{"name":"佰荟宠物诊疗","address":"人民中路807号三八街道港利锦绣江南东区东门往北走","phone":"19856086227","category":"医疗保健服务;动物医疗场所;宠物诊所","area":"银河二路","lng":116.965835,"lat":33.651863,"amap_id":"B0IAYAS586","order":17,"prev_distance_km":0.803,"cumulative_distance_km":11.765,"amap_marker_url":"https://uri.amap.com/marker?position=116.965835,33.651863&name=%E4%BD%B0%E8%8D%9F%E5%AE%A0%E7%89%A9%E8%AF%8A%E7%96%97&src=vetmap&coordinate=gaode&callnative=1","route_id":"r2","route_name":"第2段"},{"name":"中宠动物诊疗中心(银河绿苑店)","address":"环宇·银河绿苑北区南2门西南100米","phone":"18326976859","category":"医疗保健服务;动物医疗场所;宠物诊所","area":"银河二路","lng":116.967405,"lat":33.649312,"amap_id":"B0FFHCKCLD","order":18,"prev_distance_km":0.319,"cumulative_distance_km":12.084,"amap_marker_url":"https://uri.amap.com/marker?position=116.967405,33.649312&name=%E4%B8%AD%E5%AE%A0%E5%8A%A8%E7%89%A9%E8%AF%8A%E7%96%97%E4%B8%AD%E5%BF%83%28%E9%93%B6%E6%B2%B3%E7%BB%BF%E8%8B%91%E5%BA%97%29&src=vetmap&coordinate=gaode&callnative=1","route_id":"r2","route_name":"第2段"},{"name":"瑞龙宠物诊疗中心","address":"汇源大道西侧141号","phone":"","category":"医疗保健服务;动物医疗场所;宠物诊所","area":"","lng":116.980215,"lat":33.654888,"amap_id":"B0G0R4AJ61","order":19,"prev_distance_km":1.338,"cumulative_distance_km":13.422,"amap_marker_url":"https://uri.amap.com/marker?position=116.980215,33.654888&name=%E7%91%9E%E9%BE%99%E5%AE%A0%E7%89%A9%E8%AF%8A%E7%96%97%E4%B8%AD%E5%BF%83&src=vetmap&coordinate=gaode&callnative=1","route_id":"r2","route_name":"第2段"},{"name":"南博宠物诊所","address":"宿州大道4286号(绿洲嘉园北大门向西50米)","phone":"17755771329","category":"医疗保健服务;动物医疗场所;宠物诊所","area":"","lng":116.970761,"lat":33.661598,"amap_id":"B0H3GH5DA2","order":20,"prev_distance_km":1.15,"cumulative_distance_km":14.572,"amap_marker_url":"https://uri.amap.com/marker?position=116.970761,33.661598&name=%E5%8D%97%E5%8D%9A%E5%AE%A0%E7%89%A9%E8%AF%8A%E6%89%80&src=vetmap&coordinate=gaode&callnative=1","route_id":"r2","route_name":"第2段"},{"name":"中宠动物诊疗中心恒大店","address":"乐天路与人民北路交叉口东200米","phone":"18326976859","category":"医疗保健服务;动物医疗场所;宠物诊所","area":"","lng":116.968987,"lat":33.664563,"amap_id":"B0H0K7SAXW","order":21,"prev_distance_km":0.368,"cumulative_distance_km":14.94,"amap_marker_url":"https://uri.amap.com/marker?position=116.968987,33.664563&name=%E4%B8%AD%E5%AE%A0%E5%8A%A8%E7%89%A9%E8%AF%8A%E7%96%97%E4%B8%AD%E5%BF%83%E6%81%92%E5%A4%A7%E5%BA%97&src=vetmap&coordinate=gaode&callnative=1","route_id":"r2","route_name":"第2段"},{"name":"动物医院","address":"黄山路与公园路交叉口北120米","phone":"18949176797","category":"医疗保健服务;动物医疗场所;兽医站","area":"","lng":116.977607,"lat":33.757797,"amap_id":"B0G116ASIH","order":22,"prev_distance_km":10.398,"cumulative_distance_km":25.338,"amap_marker_url":"https://uri.amap.com/marker?position=116.977607,33.757797&name=%E5%8A%A8%E7%89%A9%E5%8C%BB%E9%99%A2&src=vetmap&coordinate=gaode&callnative=1","route_id":"r2","route_name":"第2段"},{"name":"符离畜牧兽医站门诊部","address":"符尖路与公园路交叉口南80米","phone":"0557-4086350;13965313481","category":"医疗保健服务;动物医疗场所;兽医站","area":"","lng":116.983037,"lat":33.754514,"amap_id":"B0GK9HOEU8","order":23,"prev_distance_km":0.621,"cumulative_distance_km":25.959,"amap_marker_url":"https://uri.amap.com/marker?position=116.983037,33.754514&name=%E7%AC%A6%E7%A6%BB%E7%95%9C%E7%89%A7%E5%85%BD%E5%8C%BB%E7%AB%99%E9%97%A8%E8%AF%8A%E9%83%A8&src=vetmap&coordinate=gaode&callnative=1","route_id":"r2","route_name":"第2段"},{"name":"顺河惠民动物门诊部","address":"政通路与303省道交叉口南40米","phone":"13339073816","category":"医疗保健服务;动物医疗场所;兽医站","area":"","lng":117.065557,"lat":33.755908,"amap_id":"B0GK9RQ4LR","order":24,"prev_distance_km":7.631,"cumulative_distance_km":33.589,"amap_marker_url":"https://uri.amap.com/marker?position=117.065557,33.755908&name=%E9%A1%BA%E6%B2%B3%E6%83%A0%E6%B0%91%E5%8A%A8%E7%89%A9%E9%97%A8%E8%AF%8A%E9%83%A8&src=vetmap&coordinate=gaode&callnative=1","route_id":"r2","route_name":"第2段"},{"name":"孔礼峰畜禽服务部","address":"303省道与034县道交叉口南180米","phone":"13955786316;15856284009","category":"医疗保健服务;动物医疗场所;兽医站","area":"","lng":117.06673,"lat":33.754748,"amap_id":"B0FFFWG43J","order":25,"prev_distance_km":0.169,"cumulative_distance_km":33.758,"amap_marker_url":"https://uri.amap.com/marker?position=117.066730,33.754748&name=%E5%AD%94%E7%A4%BC%E5%B3%B0%E7%95%9C%E7%A6%BD%E6%9C%8D%E5%8A%A1%E9%83%A8&src=vetmap&coordinate=gaode&callnative=1","route_id":"r2","route_name":"第2段"},{"name":"李光华宠物门诊","address":"灰古派出所西南侧220米","phone":"","category":"医疗保健服务;动物医疗场所;宠物诊所","area":"","lng":117.141072,"lat":33.736144,"amap_id":"B0G14XFB8Z","order":26,"prev_distance_km":7.178,"cumulative_distance_km":40.936,"amap_marker_url":"https://uri.amap.com/marker?position=117.141072,33.736144&name=%E6%9D%8E%E5%85%89%E5%8D%8E%E5%AE%A0%E7%89%A9%E9%97%A8%E8%AF%8A&src=vetmap&coordinate=gaode&callnative=1","route_id":"r2","route_name":"第2段"},{"name":"畜禽服务中心","address":"时村镇南大桥","phone":"","category":"医疗保健服务;动物医疗场所;动物医疗场所","area":"","lng":117.340925,"lat":33.770597,"amap_id":"B0FFFVTVYH","order":27,"prev_distance_km":18.87,"cumulative_distance_km":59.806,"amap_marker_url":"https://uri.amap.com/marker?position=117.340925,33.770597&name=%E7%95%9C%E7%A6%BD%E6%9C%8D%E5%8A%A1%E4%B8%AD%E5%BF%83&src=vetmap&coordinate=gaode&callnative=1","route_id":"r2","route_name":"第2段"},{"name":"张山畜禽门诊部","address":"027乡道与056县道交叉口西北80米","phone":"","category":"医疗保健服务;动物医疗场所;兽医站","area":"","lng":117.384725,"lat":33.927725,"amap_id":"B0LKXCOJEI","order":28,"prev_distance_km":17.934,"cumulative_distance_km":77.74,"amap_marker_url":"https://uri.amap.com/marker?position=117.384725,33.927725&name=%E5%BC%A0%E5%B1%B1%E7%95%9C%E7%A6%BD%E9%97%A8%E8%AF%8A%E9%83%A8&src=vetmap&coordinate=gaode&callnative=1","route_id":"r2","route_name":"第2段"},{"name":"栏杆动物门诊","address":"栏西与致富路交叉口南140米","phone":"","category":"医疗保健服务;动物医疗场所;宠物诊所","area":"","lng":117.268375,"lat":33.926125,"amap_id":"B0LKVR61BM","order":29,"prev_distance_km":10.736,"cumulative_distance_km":88.476,"amap_marker_url":"https://uri.amap.com/marker?position=117.268375,33.926125&name=%E6%A0%8F%E6%9D%86%E5%8A%A8%E7%89%A9%E9%97%A8%E8%AF%8A&src=vetmap&coordinate=gaode&callnative=1","route_id":"r2","route_name":"第2段"},{"name":"桂山兽医站","address":"二徐路与007乡道交叉口北460米","phone":"","category":"医疗保健服务;动物医疗场所;兽医站","area":"","lng":117.281842,"lat":33.989848,"amap_id":"B0L3H79QHN","order":30,"prev_distance_km":7.194,"cumulative_distance_km":95.67,"amap_marker_url":"https://uri.amap.com/marker?position=117.281842,33.989848&name=%E6%A1%82%E5%B1%B1%E5%85%BD%E5%8C%BB%E7%AB%99&src=vetmap&coordinate=gaode&callnative=1","route_id":"r2","route_name":"第2段"},{"name":"宿州市埇桥区海亮畜禽服务部","address":"030县道与商业街交叉口东340米","phone":"15955766313","category":"医疗保健服务;动物医疗场所;兽医站","area":"","lng":117.233208,"lat":34.017298,"amap_id":"B0I3F12CL2","order":31,"prev_distance_km":5.424,"cumulative_distance_km":101.093,"amap_marker_url":"https://uri.amap.com/marker?position=117.233208,34.017298&name=%E5%AE%BF%E5%B7%9E%E5%B8%82%E5%9F%87%E6%A1%A5%E5%8C%BA%E6%B5%B7%E4%BA%AE%E7%95%9C%E7%A6%BD%E6%9C%8D%E5%8A%A1%E9%83%A8&src=vetmap&coordinate=gaode&callnative=1","route_id":"r2","route_name":"第2段"},{"name":"韩楼兽医站","address":"回头客百货超市东北侧","phone":"","category":"医疗保健服务;动物医疗场所;兽医站","area":"","lng":117.28757,"lat":34.048608,"amap_id":"B0L3H79W1V","order":32,"prev_distance_km":6.1,"cumulative_distance_km":107.194,"amap_marker_url":"https://uri.amap.com/marker?position=117.287570,34.048608&name=%E9%9F%A9%E6%A5%BC%E5%85%BD%E5%8C%BB%E7%AB%99&src=vetmap&coordinate=gaode&callnative=1","route_id":"r2","route_name":"第2段"},{"name":"思平兽药门诊部","address":"S229褚北中学南侧约10米","phone":"","category":"医疗保健服务;动物医疗场所;兽医站","area":"","lng":117.341894,"lat":34.065966,"amap_id":"B0IBSRTHEU","order":33,"prev_distance_km":5.364,"cumulative_distance_km":112.558,"amap_marker_url":"https://uri.amap.com/marker?position=117.341894,34.065966&name=%E6%80%9D%E5%B9%B3%E5%85%BD%E8%8D%AF%E9%97%A8%E8%AF%8A%E9%83%A8&src=vetmap&coordinate=gaode&callnative=1","route_id":"r2","route_name":"第2段"}]}],"rows":[{"name":"畜禽服务门诊部","address":"永大路与032县道交叉口东40米","phone":"","category":"医疗保健服务;动物医疗场所;兽医站","area":"","lng":116.983245,"lat":33.341986,"amap_id":"B0FFL3Z9IA","order":1,"prev_distance_km":0.0,"cumulative_distance_km":0.0,"amap_marker_url":"https://uri.amap.com/marker?position=116.983245,33.341986&name=%E7%95%9C%E7%A6%BD%E6%9C%8D%E5%8A%A1%E9%97%A8%E8%AF%8A%E9%83%A8&src=vetmap&coordinate=gaode&callnative=1","route_id":"r1","route_name":"第1段","global_order":1},{"name":"宿州市埇桥区永镇乡动物防疫站","address":"032县道与206国道交叉口西300米","phone":"","category":"医疗保健服务;动物医疗场所;动物医疗场所","area":"","lng":117.039507,"lat":33.353812,"amap_id":"B0FFKI3SR8","order":2,"prev_distance_km":5.389,"cumulative_distance_km":5.389,"amap_marker_url":"https://uri.amap.com/marker?position=117.039507,33.353812&name=%E5%AE%BF%E5%B7%9E%E5%B8%82%E5%9F%87%E6%A1%A5%E5%8C%BA%E6%B0%B8%E9%95%87%E4%B9%A1%E5%8A%A8%E7%89%A9%E9%98%B2%E7%96%AB%E7%AB%99&src=vetmap&coordinate=gaode&callnative=1","route_id":"r1","route_name":"第1段","global_order":2},{"name":"祁县镇畜牧兽医水产站","address":"祁县市场监督管理所北侧160米","phone":"","category":"医疗保健服务;动物医疗场所;兽医站","area":"","lng":117.021759,"lat":33.439068,"amap_id":"B0JD47L8YS","order":3,"prev_distance_km":9.622,"cumulative_distance_km":15.011,"amap_marker_url":"https://uri.amap.com/marker?position=117.021759,33.439068&name=%E7%A5%81%E5%8E%BF%E9%95%87%E7%95%9C%E7%89%A7%E5%85%BD%E5%8C%BB%E6%B0%B4%E4%BA%A7%E7%AB%99&src=vetmap&coordinate=gaode&callnative=1","route_id":"r1","route_name":"第1段","global_order":3},{"name":"动物医院","address":"康园小区东侧","phone":"","category":"医疗保健服务;动物医疗场所;宠物诊所","area":"","lng":117.032448,"lat":33.4404,"amap_id":"B0IDVUBXTJ","order":4,"prev_distance_km":1.003,"cumulative_distance_km":16.014,"amap_marker_url":"https://uri.amap.com/marker?position=117.032448,33.440400&name=%E5%8A%A8%E7%89%A9%E5%8C%BB%E9%99%A2&src=vetmap&coordinate=gaode&callnative=1","route_id":"r1","route_name":"第1段","global_order":4},{"name":"兽医站","address":"中兴街与西涉路交叉口西60米","phone":"","category":"医疗保健服务;动物医疗场所;兽医站","area":"","lng":117.098866,"lat":33.513933,"amap_id":"B0HKXCU0PC","order":5,"prev_distance_km":10.237,"cumulative_distance_km":26.251,"amap_marker_url":"https://uri.amap.com/marker?position=117.098866,33.513933&name=%E5%85%BD%E5%8C%BB%E7%AB%99&src=vetmap&coordinate=gaode&callnative=1","route_id":"r1","route_name":"第1段","global_order":5},{"name":"广岭畜禽门诊","address":"156乡道与中兴街交叉口西140米","phone":"","category":"医疗保健服务;动物医疗场所;兽医站","area":"","lng":117.178971,"lat":33.518934,"amap_id":"B0L0V9JS7X","order":6,"prev_distance_km":7.447,"cumulative_distance_km":33.698,"amap_marker_url":"https://uri.amap.com/marker?position=117.178971,33.518934&name=%E5%B9%BF%E5%B2%AD%E7%95%9C%E7%A6%BD%E9%97%A8%E8%AF%8A&src=vetmap&coordinate=gaode&callnative=1","route_id":"r1","route_name":"第1段","global_order":6},{"name":"潘维斌畜禽疾病诊疗中心","address":"大店镇303省道","phone":"","category":"医疗保健服务;动物医疗场所;宠物诊所","area":"","lng":117.256211,"lat":33.589172,"amap_id":"B0FFFTDN2H","order":7,"prev_distance_km":10.594,"cumulative_distance_km":44.292,"amap_marker_url":"https://uri.amap.com/marker?position=117.256211,33.589172&name=%E6%BD%98%E7%BB%B4%E6%96%8C%E7%95%9C%E7%A6%BD%E7%96%BE%E7%97%85%E8%AF%8A%E7%96%97%E4%B8%AD%E5%BF%83&src=vetmap&coordinate=gaode&callnative=1","route_id":"r1","route_name":"第1段","global_order":7},{"name":"畜禽疾病防治经营部","address":"","phone":"","category":"医疗保健服务;动物医疗场所;兽医站","area":"","lng":117.104179,"lat":33.610795,"amap_id":"B0LDRRI8KZ","order":8,"prev_distance_km":14.285,"cumulative_distance_km":58.577,"amap_marker_url":"https://uri.amap.com/marker?position=117.104179,33.610795&name=%E7%95%9C%E7%A6%BD%E7%96%BE%E7%97%85%E9%98%B2%E6%B2%BB%E7%BB%8F%E8%90%A5%E9%83%A8&src=vetmap&coordinate=gaode&callnative=1","route_id":"r1","route_name":"第1段","global_order":8},{"name":"宿州市曙光宠物诊疗中心","address":"商业街22-24号","phone":"15399550770","category":"医疗保健服务;动物医疗场所;宠物诊所","area":"","lng":117.080758,"lat":33.632311,"amap_id":"B0K6YU3699","order":9,"prev_distance_km":3.229,"cumulative_distance_km":61.806,"amap_marker_url":"https://uri.amap.com/marker?position=117.080758,33.632311&name=%E5%AE%BF%E5%B7%9E%E5%B8%82%E6%9B%99%E5%85%89%E5%AE%A0%E7%89%A9%E8%AF%8A%E7%96%97%E4%B8%AD%E5%BF%83&src=vetmap&coordinate=gaode&callnative=1","route_id":"r1","route_name":"第1段","global_order":9},{"name":"康美宠物医院(汴河东路店)","address":"汴河东路191号","phone":"15855396106","category":"医疗保健服务;动物医疗场所;宠物诊所","area":"","lng":117.010314,"lat":33.630519,"amap_id":"B0FFHEVIOG","order":10,"prev_distance_km":6.525,"cumulative_distance_km":68.331,"amap_marker_url":"https://uri.amap.com/marker?position=117.010314,33.630519&name=%E5%BA%B7%E7%BE%8E%E5%AE%A0%E7%89%A9%E5%8C%BB%E9%99%A2%28%E6%B1%B4%E6%B2%B3%E4%B8%9C%E8%B7%AF%E5%BA%97%29&src=vetmap&coordinate=gaode&callnative=1","route_id":"r1","route_name":"第1段","global_order":10},{"name":"华府动物门诊","address":"华府春天西南门西120米","phone":"","category":"医疗保健服务;动物医疗场所;宠物诊所","area":"","lng":117.006493,"lat":33.634258,"amap_id":"B0FFK51W18","order":11,"prev_distance_km":0.546,"cumulative_distance_km":68.876,"amap_marker_url":"https://uri.amap.com/marker?position=117.006493,33.634258&name=%E5%8D%8E%E5%BA%9C%E5%8A%A8%E7%89%A9%E9%97%A8%E8%AF%8A&src=vetmap&coordinate=gaode&callnative=1","route_id":"r1","route_name":"第1段","global_order":11},{"name":"畜牧兽医","address":"顺河路与宿怀北路交叉口西北20米","phone":"","category":"医疗保健服务;动物医疗场所;兽医站","area":"宿怀路","lng":116.991769,"lat":33.634595,"amap_id":"B0H0U5MFWP","order":12,"prev_distance_km":1.364,"cumulative_distance_km":70.24,"amap_marker_url":"https://uri.amap.com/marker?position=116.991769,33.634595&name=%E7%95%9C%E7%89%A7%E5%85%BD%E5%8C%BB&src=vetmap&coordinate=gaode&callnative=1","route_id":"r1","route_name":"第1段","global_order":12},{"name":"琼安动物诊所","address":"裕城街与江庄北巷交叉口西120米","phone":"","category":"医疗保健服务;动物医疗场所;宠物诊所","area":"西昌南路","lng":116.975292,"lat":33.635051,"amap_id":"B0KUXXYK7P","order":13,"prev_distance_km":1.526,"cumulative_distance_km":71.766,"amap_marker_url":"https://uri.amap.com/marker?position=116.975292,33.635051&name=%E7%90%BC%E5%AE%89%E5%8A%A8%E7%89%A9%E8%AF%8A%E6%89%80&src=vetmap&coordinate=gaode&callnative=1","route_id":"r1","route_name":"第1段","global_order":13},{"name":"金典宠物医院","address":"西昌路66号","phone":"13093575358;15955768788","category":"医疗保健服务;动物医疗场所;宠物诊所","area":"西昌南路","lng":116.971999,"lat":33.62946,"amap_id":"B0FFFZ57ET","order":14,"prev_distance_km":0.692,"cumulative_distance_km":72.459,"amap_marker_url":"https://uri.amap.com/marker?position=116.971999,33.629460&name=%E9%87%91%E5%85%B8%E5%AE%A0%E7%89%A9%E5%8C%BB%E9%99%A2&src=vetmap&coordinate=gaode&callnative=1","route_id":"r1","route_name":"第1段","global_order":14},{"name":"宿州市专业洗猫洗狗宠物店","address":"西苑新村c区南门2栋商铺0111室","phone":"18105576368","category":"医疗保健服务;动物医疗场所;动物医疗场所","area":"浍水路","lng":116.961782,"lat":33.626998,"amap_id":"B0K16HUOER","order":15,"prev_distance_km":0.985,"cumulative_distance_km":73.444,"amap_marker_url":"https://uri.amap.com/marker?position=116.961782,33.626998&name=%E5%AE%BF%E5%B7%9E%E5%B8%82%E4%B8%93%E4%B8%9A%E6%B4%97%E7%8C%AB%E6%B4%97%E7%8B%97%E5%AE%A0%E7%89%A9%E5%BA%97&src=vetmap&coordinate=gaode&callnative=1","route_id":"r1","route_name":"第1段","global_order":15},{"name":"安心宠物恒大名都店","address":"恒大名都南门往东116商号","phone":"17355708835;17355763558","category":"医疗保健服务;动物医疗场所;动物医疗场所","area":"","lng":116.947092,"lat":33.634884,"amap_id":"B0K3R74XUP","order":16,"prev_distance_km":1.618,"cumulative_distance_km":75.062,"amap_marker_url":"https://uri.amap.com/marker?position=116.947092,33.634884&name=%E5%AE%89%E5%BF%83%E5%AE%A0%E7%89%A9%E6%81%92%E5%A4%A7%E5%90%8D%E9%83%BD%E5%BA%97&src=vetmap&coordinate=gaode&callnative=1","route_id":"r1","route_name":"第1段","global_order":16},{"name":"百信宠物诊疗中心","address":"拂晓三号路37号","phone":"18155768126;18521531989","category":"医疗保健服务;动物医疗场所;宠物诊所","area":"","lng":116.946932,"lat":33.634811,"amap_id":"B0K3ZADD2H","order":17,"prev_distance_km":0.017,"cumulative_distance_km":75.079,"amap_marker_url":"https://uri.amap.com/marker?position=116.946932,33.634811&name=%E7%99%BE%E4%BF%A1%E5%AE%A0%E7%89%A9%E8%AF%8A%E7%96%97%E4%B8%AD%E5%BF%83&src=vetmap&coordinate=gaode&callnative=1","route_id":"r1","route_name":"第1段","global_order":17},{"name":"西南宠物诊所","address":"宿涡路与拂晓大道交叉口西120米","phone":"","category":"医疗保健服务;动物医疗场所;宠物诊所","area":"","lng":116.947486,"lat":33.632952,"amap_id":"B0JUOLENS1","order":18,"prev_distance_km":0.213,"cumulative_distance_km":75.292,"amap_marker_url":"https://uri.amap.com/marker?position=116.947486,33.632952&name=%E8%A5%BF%E5%8D%97%E5%AE%A0%E7%89%A9%E8%AF%8A%E6%89%80&src=vetmap&coordinate=gaode&callnative=1","route_id":"r1","route_name":"第1段","global_order":18},{"name":"宿州英铭畜禽疾病诊疗中心","address":"沈庄六巷盛腾兽药旁","phone":"0557-3901032;13705576044","category":"医疗保健服务;动物医疗场所;兽医站","area":"光彩城","lng":116.950637,"lat":33.623418,"amap_id":"B0FFFQVGD6","order":19,"prev_distance_km":1.1,"cumulative_distance_km":76.391,"amap_marker_url":"https://uri.amap.com/marker?position=116.950637,33.623418&name=%E5%AE%BF%E5%B7%9E%E8%8B%B1%E9%93%AD%E7%95%9C%E7%A6%BD%E7%96%BE%E7%97%85%E8%AF%8A%E7%96%97%E4%B8%AD%E5%BF%83&src=vetmap&coordinate=gaode&callnative=1","route_id":"r1","route_name":"第1段","global_order":19},{"name":"善宠宠物医院","address":"纺织西路523号","phone":"0557-2963665;19166715998","category":"医疗保健服务;动物医疗场所;宠物诊所","area":"","lng":116.956649,"lat":33.618047,"amap_id":"B0I36U8GBQ","order":20,"prev_distance_km":0.816,"cumulative_distance_km":77.208,"amap_marker_url":"https://uri.amap.com/marker?position=116.956649,33.618047&name=%E5%96%84%E5%AE%A0%E5%AE%A0%E7%89%A9%E5%8C%BB%E9%99%A2&src=vetmap&coordinate=gaode&callnative=1","route_id":"r1","route_name":"第1段","global_order":20},{"name":"爱诺宠物诊疗中心(宠物医院)","address":"纺织西路324号","phone":"18155751916","category":"医疗保健服务;动物医疗场所;宠物诊所","area":"","lng":116.962975,"lat":33.618575,"amap_id":"B0ID6764XS","order":21,"prev_distance_km":0.589,"cumulative_distance_km":77.796,"amap_marker_url":"https://uri.amap.com/marker?position=116.962975,33.618575&name=%E7%88%B1%E8%AF%BA%E5%AE%A0%E7%89%A9%E8%AF%8A%E7%96%97%E4%B8%AD%E5%BF%83%28%E5%AE%A0%E7%89%A9%E5%8C%BB%E9%99%A2%29&src=vetmap&coordinate=gaode&callnative=1","route_id":"r1","route_name":"第1段","global_order":21},{"name":"森睿宠物医院","address":"西昌南路怡海花园2号楼0113-0116号","phone":"18955789978","category":"医疗保健服务;动物医疗场所;宠物诊所","area":"西昌南路","lng":116.971415,"lat":33.618654,"amap_id":"B0FFICFVZS","order":22,"prev_distance_km":0.782,"cumulative_distance_km":78.578,"amap_marker_url":"https://uri.amap.com/marker?position=116.971415,33.618654&name=%E6%A3%AE%E7%9D%BF%E5%AE%A0%E7%89%A9%E5%8C%BB%E9%99%A2&src=vetmap&coordinate=gaode&callnative=1","route_id":"r1","route_name":"第1段","global_order":22},{"name":"旺旺宠物诊所(淮河路店)","address":"淮河中路675号","phone":"13655578538","category":"医疗保健服务;动物医疗场所;宠物诊所","area":"淮海南路","lng":116.978785,"lat":33.621962,"amap_id":"B022D0P8XG","order":23,"prev_distance_km":0.775,"cumulative_distance_km":79.353,"amap_marker_url":"https://uri.amap.com/marker?position=116.978785,33.621962&name=%E6%97%BA%E6%97%BA%E5%AE%A0%E7%89%A9%E8%AF%8A%E6%89%80%28%E6%B7%AE%E6%B2%B3%E8%B7%AF%E5%BA%97%29&src=vetmap&coordinate=gaode&callnative=1","route_id":"r1","route_name":"第1段","global_order":23},{"name":"伴侣宠物医疗","address":"浍水路509号","phone":"13733075790","category":"医疗保健服务;动物医疗场所;宠物诊所","area":"浍水路","lng":116.985504,"lat":33.626555,"amap_id":"B0JUSAOIAK","order":24,"prev_distance_km":0.805,"cumulative_distance_km":80.158,"amap_marker_url":"https://uri.amap.com/marker?position=116.985504,33.626555&name=%E4%BC%B4%E4%BE%A3%E5%AE%A0%E7%89%A9%E5%8C%BB%E7%96%97&src=vetmap&coordinate=gaode&callnative=1","route_id":"r1","route_name":"第1段","global_order":24},{"name":"金学仕宠尚宠物医院","address":"平安园小区西区西南门旁","phone":"15855576227","category":"医疗保健服务;动物医疗场所;宠物诊所","area":"","lng":116.996665,"lat":33.618111,"amap_id":"B0HAAY55E6","order":25,"prev_distance_km":1.396,"cumulative_distance_km":81.554,"amap_marker_url":"https://uri.amap.com/marker?position=116.996665,33.618111&name=%E9%87%91%E5%AD%A6%E4%BB%95%E5%AE%A0%E5%B0%9A%E5%AE%A0%E7%89%A9%E5%8C%BB%E9%99%A2&src=vetmap&coordinate=gaode&callnative=1","route_id":"r1","route_name":"第1段","global_order":25},{"name":"杨勇动物医院","address":"古沱巷与金海二巷交叉口东北20米","phone":"13485828719","category":"医疗保健服务;动物医疗场所;宠物诊所","area":"金海大道","lng":116.998891,"lat":33.616676,"amap_id":"B0JUMC7FKD","order":26,"prev_distance_km":0.261,"cumulative_distance_km":81.815,"amap_marker_url":"https://uri.amap.com/marker?position=116.998891,33.616676&name=%E6%9D%A8%E5%8B%87%E5%8A%A8%E7%89%A9%E5%8C%BB%E9%99%A2&src=vetmap&coordinate=gaode&callnative=1","route_id":"r1","route_name":"第1段","global_order":26},{"name":"吉瑞康宠物诊疗","address":"三里湾街道金海二巷23号","phone":"13485828719","category":"医疗保健服务;动物医疗场所;宠物诊所","area":"金海大道","lng":116.99892,"lat":33.61669,"amap_id":"B0I3O52S4D","order":27,"prev_distance_km":0.003,"cumulative_distance_km":81.818,"amap_marker_url":"https://uri.amap.com/marker?position=116.998920,33.616690&name=%E5%90%89%E7%91%9E%E5%BA%B7%E5%AE%A0%E7%89%A9%E8%AF%8A%E7%96%97&src=vetmap&coordinate=gaode&callnative=1","route_id":"r1","route_name":"第1段","global_order":27},{"name":"邦尼动物医院","address":"纺织东路,289号","phone":"0557-2660700;15324459000","category":"医疗保健服务;动物医疗场所;宠物诊所","area":"金海大道","lng":116.999738,"lat":33.617502,"amap_id":"B0FFHD8I5Y","order":28,"prev_distance_km":0.118,"cumulative_distance_km":81.936,"amap_marker_url":"https://uri.amap.com/marker?position=116.999738,33.617502&name=%E9%82%A6%E5%B0%BC%E5%8A%A8%E7%89%A9%E5%8C%BB%E9%99%A2&src=vetmap&coordinate=gaode&callnative=1","route_id":"r1","route_name":"第1段","global_order":28},{"name":"宠百康宠物综合医院","address":"金海二路与纺织路高架交汇处西南角三十米","phone":"","category":"医疗保健服务;动物医疗场所;宠物诊所","area":"金海大道","lng":117.005196,"lat":33.617195,"amap_id":"B0JUJMJ4X4","order":29,"prev_distance_km":0.507,"cumulative_distance_km":82.443,"amap_marker_url":"https://uri.amap.com/marker?position=117.005196,33.617195&name=%E5%AE%A0%E7%99%BE%E5%BA%B7%E5%AE%A0%E7%89%A9%E7%BB%BC%E5%90%88%E5%8C%BB%E9%99%A2&src=vetmap&coordinate=gaode&callnative=1","route_id":"r1","route_name":"第1段","global_order":29},{"name":"宠百康宠物医院·急夜诊·猫专科","address":"纺织东路高架桥辅路与金海二路交叉路口红绿灯西南角三十米门朝北最北面一排","phone":"17355740888","category":"医疗保健服务;动物医疗场所;宠物诊所","area":"金海大道","lng":117.005222,"lat":33.617193,"amap_id":"B0JATSPBIV","order":30,"prev_distance_km":0.002,"cumulative_distance_km":82.445,"amap_marker_url":"https://uri.amap.com/marker?position=117.005222,33.617193&name=%E5%AE%A0%E7%99%BE%E5%BA%B7%E5%AE%A0%E7%89%A9%E5%8C%BB%E9%99%A2%C2%B7%E6%80%A5%E5%A4%9C%E8%AF%8A%C2%B7%E7%8C%AB%E4%B8%93%E7%A7%91&src=vetmap&coordinate=gaode&callnative=1","route_id":"r1","route_name":"第1段","global_order":30},{"name":"宠百康宠物医院·犬猫专科·骨科急重症中心","address":"前陈营一路与纺织东路交叉口南80米","phone":"","category":"医疗保健服务;动物医疗场所;宠物诊所","area":"金海大道","lng":117.005175,"lat":33.617025,"amap_id":"B0JDDAMVJM","order":31,"prev_distance_km":0.019,"cumulative_distance_km":82.464,"amap_marker_url":"https://uri.amap.com/marker?position=117.005175,33.617025&name=%E5%AE%A0%E7%99%BE%E5%BA%B7%E5%AE%A0%E7%89%A9%E5%8C%BB%E9%99%A2%C2%B7%E7%8A%AC%E7%8C%AB%E4%B8%93%E7%A7%91%C2%B7%E9%AA%A8%E7%A7%91%E6%80%A5%E9%87%8D%E7%97%87%E4%B8%AD%E5%BF%83&src=vetmap&coordinate=gaode&callnative=1","route_id":"r1","route_name":"第1段","global_order":31},{"name":"优恩动物医院","address":"经济开发区金海三路西侧君悦学府15栋116室","phone":"13965318371","category":"医疗保健服务;动物医疗场所;宠物诊所","area":"","lng":117.010047,"lat":33.609917,"amap_id":"B0LKCA159R","order":32,"prev_distance_km":0.91,"cumulative_distance_km":83.374,"amap_marker_url":"https://uri.amap.com/marker?position=117.010047,33.609917&name=%E4%BC%98%E6%81%A9%E5%8A%A8%E7%89%A9%E5%8C%BB%E9%99%A2&src=vetmap&coordinate=gaode&callnative=1","route_id":"r1","route_name":"第1段","global_order":32},{"name":"李氏牧康宠物服务店","address":"金海街道金海六路412号","phone":"","category":"医疗保健服务;动物医疗场所;宠物诊所","area":"","lng":117.017404,"lat":33.604861,"amap_id":"B0LK2HQX68","order":33,"prev_distance_km":0.883,"cumulative_distance_km":84.258,"amap_marker_url":"https://uri.amap.com/marker?position=117.017404,33.604861&name=%E6%9D%8E%E6%B0%8F%E7%89%A7%E5%BA%B7%E5%AE%A0%E7%89%A9%E6%9C%8D%E5%8A%A1%E5%BA%97&src=vetmap&coordinate=gaode&callnative=1","route_id":"r1","route_name":"第1段","global_order":33},{"name":"渡它宠物服务中心","address":"港口中路与港口巷交叉口西南40米","phone":"18555479051","category":"医疗保健服务;动物医疗场所;宠物诊所","area":"","lng":117.003023,"lat":33.645549,"amap_id":"B0K6B7I0JX","order":1,"prev_distance_km":0.0,"cumulative_distance_km":0.0,"amap_marker_url":"https://uri.amap.com/marker?position=117.003023,33.645549&name=%E6%B8%A1%E5%AE%83%E5%AE%A0%E7%89%A9%E6%9C%8D%E5%8A%A1%E4%B8%AD%E5%BF%83&src=vetmap&coordinate=gaode&callnative=1","route_id":"r2","route_name":"第2段","global_order":34},{"name":"爱心宠物诊疗","address":"宿怀北路501号","phone":"0557-3080258;15155453901","category":"医疗保健服务;动物医疗场所;宠物诊所","area":"宿怀路","lng":116.993536,"lat":33.642679,"amap_id":"B0FFGMESN7","order":2,"prev_distance_km":0.934,"cumulative_distance_km":0.934,"amap_marker_url":"https://uri.amap.com/marker?position=116.993536,33.642679&name=%E7%88%B1%E5%BF%83%E5%AE%A0%E7%89%A9%E8%AF%8A%E7%96%97&src=vetmap&coordinate=gaode&callnative=1","route_id":"r2","route_name":"第2段","global_order":35},{"name":"仁爱动物诊疗中心","address":"宿怀北路417号(火车站往北100米路西)","phone":"0557-3318795;19155978898","category":"医疗保健服务;动物医疗场所;宠物诊所","area":"宿怀路","lng":116.993297,"lat":33.640939,"amap_id":"B0FFFP1SXT","order":3,"prev_distance_km":0.195,"cumulative_distance_km":1.129,"amap_marker_url":"https://uri.amap.com/marker?position=116.993297,33.640939&name=%E4%BB%81%E7%88%B1%E5%8A%A8%E7%89%A9%E8%AF%8A%E7%96%97%E4%B8%AD%E5%BF%83&src=vetmap&coordinate=gaode&callnative=1","route_id":"r2","route_name":"第2段","global_order":36},{"name":"虹泰宠物诊疗美容中心","address":"淮海中路605号","phone":"18055726158","category":"医疗保健服务;动物医疗场所;宠物诊所","area":"淮海中路","lng":116.980217,"lat":33.64726,"amap_id":"B0FFIHM3QW","order":4,"prev_distance_km":1.4,"cumulative_distance_km":2.529,"amap_marker_url":"https://uri.amap.com/marker?position=116.980217,33.647260&name=%E8%99%B9%E6%B3%B0%E5%AE%A0%E7%89%A9%E8%AF%8A%E7%96%97%E7%BE%8E%E5%AE%B9%E4%B8%AD%E5%BF%83&src=vetmap&coordinate=gaode&callnative=1","route_id":"r2","route_name":"第2段","global_order":37},{"name":"宿州市啵比宠物医院","address":"北关街道两淮北关新城E2区3号楼0106室","phone":"18955739879","category":"医疗保健服务;动物医疗场所;宠物诊所","area":"淮海中路","lng":116.973858,"lat":33.644087,"amap_id":"B0KK7XLZ0O","order":5,"prev_distance_km":0.686,"cumulative_distance_km":3.215,"amap_marker_url":"https://uri.amap.com/marker?position=116.973858,33.644087&name=%E5%AE%BF%E5%B7%9E%E5%B8%82%E5%95%B5%E6%AF%94%E5%AE%A0%E7%89%A9%E5%8C%BB%E9%99%A2&src=vetmap&coordinate=gaode&callnative=1","route_id":"r2","route_name":"第2段","global_order":38},{"name":"喵喵之家宠物诊疗","address":"环城北路140号","phone":"","category":"医疗保健服务;动物医疗场所;宠物诊所","area":"淮海中路","lng":116.974648,"lat":33.641722,"amap_id":"B0JRUCZB4R","order":6,"prev_distance_km":0.273,"cumulative_distance_km":3.488,"amap_marker_url":"https://uri.amap.com/marker?position=116.974648,33.641722&name=%E5%96%B5%E5%96%B5%E4%B9%8B%E5%AE%B6%E5%AE%A0%E7%89%A9%E8%AF%8A%E7%96%97&src=vetmap&coordinate=gaode&callnative=1","route_id":"r2","route_name":"第2段","global_order":39},{"name":"佳宠宠物医院(吾悦广场店)","address":"人民路吾悦华府东门S9栋108号商铺人民路加油站对面","phone":"18133766657","category":"医疗保健服务;动物医疗场所;宠物诊所","area":"","lng":116.965165,"lat":33.636268,"amap_id":"B0J3G7S8WL","order":7,"prev_distance_km":1.067,"cumulative_distance_km":4.555,"amap_marker_url":"https://uri.amap.com/marker?position=116.965165,33.636268&name=%E4%BD%B3%E5%AE%A0%E5%AE%A0%E7%89%A9%E5%8C%BB%E9%99%A2%28%E5%90%BE%E6%82%A6%E5%B9%BF%E5%9C%BA%E5%BA%97%29&src=vetmap&coordinate=gaode&callnative=1","route_id":"r2","route_name":"第2段","global_order":40},{"name":"关爱宠物医院(西关大街店)","address":"汴河路小区北门东140米","phone":"13805572199","category":"医疗保健服务;动物医疗场所;宠物诊所","area":"","lng":116.955437,"lat":33.637067,"amap_id":"B0FFIY29QQ","order":8,"prev_distance_km":0.905,"cumulative_distance_km":5.46,"amap_marker_url":"https://uri.amap.com/marker?position=116.955437,33.637067&name=%E5%85%B3%E7%88%B1%E5%AE%A0%E7%89%A9%E5%8C%BB%E9%99%A2%28%E8%A5%BF%E5%85%B3%E5%A4%A7%E8%A1%97%E5%BA%97%29&src=vetmap&coordinate=gaode&callnative=1","route_id":"r2","route_name":"第2段","global_order":41},{"name":"力狼宠物诊所","address":"宿永路与银杏路交叉口西南300米","phone":"13955786848","category":"医疗保健服务;动物医疗场所;宠物诊所","area":"","lng":116.937829,"lat":33.635633,"amap_id":"B0GKJBWVB4","order":9,"prev_distance_km":1.638,"cumulative_distance_km":7.098,"amap_marker_url":"https://uri.amap.com/marker?position=116.937829,33.635633&name=%E5%8A%9B%E7%8B%BC%E5%AE%A0%E7%89%A9%E8%AF%8A%E6%89%80&src=vetmap&coordinate=gaode&callnative=1","route_id":"r2","route_name":"第2段","global_order":42},{"name":"贝尔宠物医院","address":"三八街道天元府小区23幢108商铺","phone":"19016032856","category":"医疗保健服务;动物医疗场所;宠物诊所","area":"","lng":116.943397,"lat":33.648154,"amap_id":"B0LA5UTKXX","order":10,"prev_distance_km":1.485,"cumulative_distance_km":8.583,"amap_marker_url":"https://uri.amap.com/marker?position=116.943397,33.648154&name=%E8%B4%9D%E5%B0%94%E5%AE%A0%E7%89%A9%E5%8C%BB%E9%99%A2&src=vetmap&coordinate=gaode&callnative=1","route_id":"r2","route_name":"第2段","global_order":43},{"name":"一诺动物医院(碧桂园店)","address":"佛晓大道碧桂园西门17栋107","phone":"0557-3603383;15655759383","category":"医疗保健服务;动物医疗场所;宠物诊所","area":"","lng":116.949488,"lat":33.650913,"amap_id":"B0I6LZ2SHR","order":11,"prev_distance_km":0.642,"cumulative_distance_km":9.225,"amap_marker_url":"https://uri.amap.com/marker?position=116.949488,33.650913&name=%E4%B8%80%E8%AF%BA%E5%8A%A8%E7%89%A9%E5%8C%BB%E9%99%A2%28%E7%A2%A7%E6%A1%82%E5%9B%AD%E5%BA%97%29&src=vetmap&coordinate=gaode&callnative=1","route_id":"r2","route_name":"第2段","global_order":44},{"name":"狗不理猫宠物诊疗","address":"明日·世纪花园北门西260米","phone":"15650695059","category":"医疗保健服务;动物医疗场所;宠物诊所","area":"银河一路","lng":116.949984,"lat":33.649109,"amap_id":"B0IKZCXJEN","order":12,"prev_distance_km":0.206,"cumulative_distance_km":9.431,"amap_marker_url":"https://uri.amap.com/marker?position=116.949984,33.649109&name=%E7%8B%97%E4%B8%8D%E7%90%86%E7%8C%AB%E5%AE%A0%E7%89%A9%E8%AF%8A%E7%96%97&src=vetmap&coordinate=gaode&callnative=1","route_id":"r2","route_name":"第2段","global_order":45},{"name":"大徐动物医院","address":"明日·世纪花园南2门西360米","phone":"15656723067","category":"医疗保健服务;动物医疗场所;宠物诊所","area":"银河一路","lng":116.950515,"lat":33.646225,"amap_id":"B0FFIG5XVX","order":13,"prev_distance_km":0.324,"cumulative_distance_km":9.755,"amap_marker_url":"https://uri.amap.com/marker?position=116.950515,33.646225&name=%E5%A4%A7%E5%BE%90%E5%8A%A8%E7%89%A9%E5%8C%BB%E9%99%A2&src=vetmap&coordinate=gaode&callnative=1","route_id":"r2","route_name":"第2段","global_order":46},{"name":"起航动物医院24小时","address":"新都市华庭东区北门东120米","phone":"19856032235","category":"医疗保健服务;动物医疗场所;宠物诊所","area":"银河一路","lng":116.954263,"lat":33.645632,"amap_id":"B0J30AAEP5","order":14,"prev_distance_km":0.353,"cumulative_distance_km":10.108,"amap_marker_url":"https://uri.amap.com/marker?position=116.954263,33.645632&name=%E8%B5%B7%E8%88%AA%E5%8A%A8%E7%89%A9%E5%8C%BB%E9%99%A224%E5%B0%8F%E6%97%B6&src=vetmap&coordinate=gaode&callnative=1","route_id":"r2","route_name":"第2段","global_order":47},{"name":"安宠动物医疗中心","address":"三八街道银河二路349号","phone":"13365771822","category":"医疗保健服务;动物医疗场所;宠物诊所","area":"银河一路","lng":116.954544,"lat":33.64918,"amap_id":"B0GU9ATKE1","order":15,"prev_distance_km":0.395,"cumulative_distance_km":10.503,"amap_marker_url":"https://uri.amap.com/marker?position=116.954544,33.649180&name=%E5%AE%89%E5%AE%A0%E5%8A%A8%E7%89%A9%E5%8C%BB%E7%96%97%E4%B8%AD%E5%BF%83&src=vetmap&coordinate=gaode&callnative=1","route_id":"r2","route_name":"第2段","global_order":48},{"name":"祐嘉宠物诊疗中心","address":"银河三路239号","phone":"18133228067;18263149810","category":"医疗保健服务;动物医疗场所;宠物诊所","area":"银河二路","lng":116.957213,"lat":33.652658,"amap_id":"B0LKJH1LMZ","order":16,"prev_distance_km":0.459,"cumulative_distance_km":10.962,"amap_marker_url":"https://uri.amap.com/marker?position=116.957213,33.652658&name=%E7%A5%90%E5%98%89%E5%AE%A0%E7%89%A9%E8%AF%8A%E7%96%97%E4%B8%AD%E5%BF%83&src=vetmap&coordinate=gaode&callnative=1","route_id":"r2","route_name":"第2段","global_order":49},{"name":"佰荟宠物诊疗","address":"人民中路807号三八街道港利锦绣江南东区东门往北走","phone":"19856086227","category":"医疗保健服务;动物医疗场所;宠物诊所","area":"银河二路","lng":116.965835,"lat":33.651863,"amap_id":"B0IAYAS586","order":17,"prev_distance_km":0.803,"cumulative_distance_km":11.765,"amap_marker_url":"https://uri.amap.com/marker?position=116.965835,33.651863&name=%E4%BD%B0%E8%8D%9F%E5%AE%A0%E7%89%A9%E8%AF%8A%E7%96%97&src=vetmap&coordinate=gaode&callnative=1","route_id":"r2","route_name":"第2段","global_order":50},{"name":"中宠动物诊疗中心(银河绿苑店)","address":"环宇·银河绿苑北区南2门西南100米","phone":"18326976859","category":"医疗保健服务;动物医疗场所;宠物诊所","area":"银河二路","lng":116.967405,"lat":33.649312,"amap_id":"B0FFHCKCLD","order":18,"prev_distance_km":0.319,"cumulative_distance_km":12.084,"amap_marker_url":"https://uri.amap.com/marker?position=116.967405,33.649312&name=%E4%B8%AD%E5%AE%A0%E5%8A%A8%E7%89%A9%E8%AF%8A%E7%96%97%E4%B8%AD%E5%BF%83%28%E9%93%B6%E6%B2%B3%E7%BB%BF%E8%8B%91%E5%BA%97%29&src=vetmap&coordinate=gaode&callnative=1","route_id":"r2","route_name":"第2段","global_order":51},{"name":"瑞龙宠物诊疗中心","address":"汇源大道西侧141号","phone":"","category":"医疗保健服务;动物医疗场所;宠物诊所","area":"","lng":116.980215,"lat":33.654888,"amap_id":"B0G0R4AJ61","order":19,"prev_distance_km":1.338,"cumulative_distance_km":13.422,"amap_marker_url":"https://uri.amap.com/marker?position=116.980215,33.654888&name=%E7%91%9E%E9%BE%99%E5%AE%A0%E7%89%A9%E8%AF%8A%E7%96%97%E4%B8%AD%E5%BF%83&src=vetmap&coordinate=gaode&callnative=1","route_id":"r2","route_name":"第2段","global_order":52},{"name":"南博宠物诊所","address":"宿州大道4286号(绿洲嘉园北大门向西50米)","phone":"17755771329","category":"医疗保健服务;动物医疗场所;宠物诊所","area":"","lng":116.970761,"lat":33.661598,"amap_id":"B0H3GH5DA2","order":20,"prev_distance_km":1.15,"cumulative_distance_km":14.572,"amap_marker_url":"https://uri.amap.com/marker?position=116.970761,33.661598&name=%E5%8D%97%E5%8D%9A%E5%AE%A0%E7%89%A9%E8%AF%8A%E6%89%80&src=vetmap&coordinate=gaode&callnative=1","route_id":"r2","route_name":"第2段","global_order":53},{"name":"中宠动物诊疗中心恒大店","address":"乐天路与人民北路交叉口东200米","phone":"18326976859","category":"医疗保健服务;动物医疗场所;宠物诊所","area":"","lng":116.968987,"lat":33.664563,"amap_id":"B0H0K7SAXW","order":21,"prev_distance_km":0.368,"cumulative_distance_km":14.94,"amap_marker_url":"https://uri.amap.com/marker?position=116.968987,33.664563&name=%E4%B8%AD%E5%AE%A0%E5%8A%A8%E7%89%A9%E8%AF%8A%E7%96%97%E4%B8%AD%E5%BF%83%E6%81%92%E5%A4%A7%E5%BA%97&src=vetmap&coordinate=gaode&callnative=1","route_id":"r2","route_name":"第2段","global_order":54},{"name":"动物医院","address":"黄山路与公园路交叉口北120米","phone":"18949176797","category":"医疗保健服务;动物医疗场所;兽医站","area":"","lng":116.977607,"lat":33.757797,"amap_id":"B0G116ASIH","order":22,"prev_distance_km":10.398,"cumulative_distance_km":25.338,"amap_marker_url":"https://uri.amap.com/marker?position=116.977607,33.757797&name=%E5%8A%A8%E7%89%A9%E5%8C%BB%E9%99%A2&src=vetmap&coordinate=gaode&callnative=1","route_id":"r2","route_name":"第2段","global_order":55},{"name":"符离畜牧兽医站门诊部","address":"符尖路与公园路交叉口南80米","phone":"0557-4086350;13965313481","category":"医疗保健服务;动物医疗场所;兽医站","area":"","lng":116.983037,"lat":33.754514,"amap_id":"B0GK9HOEU8","order":23,"prev_distance_km":0.621,"cumulative_distance_km":25.959,"amap_marker_url":"https://uri.amap.com/marker?position=116.983037,33.754514&name=%E7%AC%A6%E7%A6%BB%E7%95%9C%E7%89%A7%E5%85%BD%E5%8C%BB%E7%AB%99%E9%97%A8%E8%AF%8A%E9%83%A8&src=vetmap&coordinate=gaode&callnative=1","route_id":"r2","route_name":"第2段","global_order":56},{"name":"顺河惠民动物门诊部","address":"政通路与303省道交叉口南40米","phone":"13339073816","category":"医疗保健服务;动物医疗场所;兽医站","area":"","lng":117.065557,"lat":33.755908,"amap_id":"B0GK9RQ4LR","order":24,"prev_distance_km":7.631,"cumulative_distance_km":33.589,"amap_marker_url":"https://uri.amap.com/marker?position=117.065557,33.755908&name=%E9%A1%BA%E6%B2%B3%E6%83%A0%E6%B0%91%E5%8A%A8%E7%89%A9%E9%97%A8%E8%AF%8A%E9%83%A8&src=vetmap&coordinate=gaode&callnative=1","route_id":"r2","route_name":"第2段","global_order":57},{"name":"孔礼峰畜禽服务部","address":"303省道与034县道交叉口南180米","phone":"13955786316;15856284009","category":"医疗保健服务;动物医疗场所;兽医站","area":"","lng":117.06673,"lat":33.754748,"amap_id":"B0FFFWG43J","order":25,"prev_distance_km":0.169,"cumulative_distance_km":33.758,"amap_marker_url":"https://uri.amap.com/marker?position=117.066730,33.754748&name=%E5%AD%94%E7%A4%BC%E5%B3%B0%E7%95%9C%E7%A6%BD%E6%9C%8D%E5%8A%A1%E9%83%A8&src=vetmap&coordinate=gaode&callnative=1","route_id":"r2","route_name":"第2段","global_order":58},{"name":"李光华宠物门诊","address":"灰古派出所西南侧220米","phone":"","category":"医疗保健服务;动物医疗场所;宠物诊所","area":"","lng":117.141072,"lat":33.736144,"amap_id":"B0G14XFB8Z","order":26,"prev_distance_km":7.178,"cumulative_distance_km":40.936,"amap_marker_url":"https://uri.amap.com/marker?position=117.141072,33.736144&name=%E6%9D%8E%E5%85%89%E5%8D%8E%E5%AE%A0%E7%89%A9%E9%97%A8%E8%AF%8A&src=vetmap&coordinate=gaode&callnative=1","route_id":"r2","route_name":"第2段","global_order":59},{"name":"畜禽服务中心","address":"时村镇南大桥","phone":"","category":"医疗保健服务;动物医疗场所;动物医疗场所","area":"","lng":117.340925,"lat":33.770597,"amap_id":"B0FFFVTVYH","order":27,"prev_distance_km":18.87,"cumulative_distance_km":59.806,"amap_marker_url":"https://uri.amap.com/marker?position=117.340925,33.770597&name=%E7%95%9C%E7%A6%BD%E6%9C%8D%E5%8A%A1%E4%B8%AD%E5%BF%83&src=vetmap&coordinate=gaode&callnative=1","route_id":"r2","route_name":"第2段","global_order":60},{"name":"张山畜禽门诊部","address":"027乡道与056县道交叉口西北80米","phone":"","category":"医疗保健服务;动物医疗场所;兽医站","area":"","lng":117.384725,"lat":33.927725,"amap_id":"B0LKXCOJEI","order":28,"prev_distance_km":17.934,"cumulative_distance_km":77.74,"amap_marker_url":"https://uri.amap.com/marker?position=117.384725,33.927725&name=%E5%BC%A0%E5%B1%B1%E7%95%9C%E7%A6%BD%E9%97%A8%E8%AF%8A%E9%83%A8&src=vetmap&coordinate=gaode&callnative=1","route_id":"r2","route_name":"第2段","global_order":61},{"name":"栏杆动物门诊","address":"栏西与致富路交叉口南140米","phone":"","category":"医疗保健服务;动物医疗场所;宠物诊所","area":"","lng":117.268375,"lat":33.926125,"amap_id":"B0LKVR61BM","order":29,"prev_distance_km":10.736,"cumulative_distance_km":88.476,"amap_marker_url":"https://uri.amap.com/marker?position=117.268375,33.926125&name=%E6%A0%8F%E6%9D%86%E5%8A%A8%E7%89%A9%E9%97%A8%E8%AF%8A&src=vetmap&coordinate=gaode&callnative=1","route_id":"r2","route_name":"第2段","global_order":62},{"name":"桂山兽医站","address":"二徐路与007乡道交叉口北460米","phone":"","category":"医疗保健服务;动物医疗场所;兽医站","area":"","lng":117.281842,"lat":33.989848,"amap_id":"B0L3H79QHN","order":30,"prev_distance_km":7.194,"cumulative_distance_km":95.67,"amap_marker_url":"https://uri.amap.com/marker?position=117.281842,33.989848&name=%E6%A1%82%E5%B1%B1%E5%85%BD%E5%8C%BB%E7%AB%99&src=vetmap&coordinate=gaode&callnative=1","route_id":"r2","route_name":"第2段","global_order":63},{"name":"宿州市埇桥区海亮畜禽服务部","address":"030县道与商业街交叉口东340米","phone":"15955766313","category":"医疗保健服务;动物医疗场所;兽医站","area":"","lng":117.233208,"lat":34.017298,"amap_id":"B0I3F12CL2","order":31,"prev_distance_km":5.424,"cumulative_distance_km":101.093,"amap_marker_url":"https://uri.amap.com/marker?position=117.233208,34.017298&name=%E5%AE%BF%E5%B7%9E%E5%B8%82%E5%9F%87%E6%A1%A5%E5%8C%BA%E6%B5%B7%E4%BA%AE%E7%95%9C%E7%A6%BD%E6%9C%8D%E5%8A%A1%E9%83%A8&src=vetmap&coordinate=gaode&callnative=1","route_id":"r2","route_name":"第2段","global_order":64},{"name":"韩楼兽医站","address":"回头客百货超市东北侧","phone":"","category":"医疗保健服务;动物医疗场所;兽医站","area":"","lng":117.28757,"lat":34.048608,"amap_id":"B0L3H79W1V","order":32,"prev_distance_km":6.1,"cumulative_distance_km":107.194,"amap_marker_url":"https://uri.amap.com/marker?position=117.287570,34.048608&name=%E9%9F%A9%E6%A5%BC%E5%85%BD%E5%8C%BB%E7%AB%99&src=vetmap&coordinate=gaode&callnative=1","route_id":"r2","route_name":"第2段","global_order":65},{"name":"思平兽药门诊部","address":"S229褚北中学南侧约10米","phone":"","category":"医疗保健服务;动物医疗场所;兽医站","area":"","lng":117.341894,"lat":34.065966,"amap_id":"B0IBSRTHEU","order":33,"prev_distance_km":5.364,"cumulative_distance_km":112.558,"amap_marker_url":"https://uri.amap.com/marker?position=117.341894,34.065966&name=%E6%80%9D%E5%B9%B3%E5%85%BD%E8%8D%AF%E9%97%A8%E8%AF%8A%E9%83%A8&src=vetmap&coordinate=gaode&callnative=1","route_id":"r2","route_name":"第2段","global_order":66}]}