{"summary":{"id":"d00291","province":"安徽省","city":"阜阳市","district":"太和县","count":37,"total_distance_km":107.89,"coordinate_system":"GCJ-02 / Amap","generated_at":"2026-05-07 19:56:10"},"rows":[{"name":"草寺兽医站","address":"046乡道与048乡道交叉口北100米","phone":"","category":"医疗保健服务;动物医疗场所;兽医站","area":"","lng":115.736452,"lat":33.130587,"amap_id":"B0KRZUETEQ","order":1,"prev_distance_km":0.0,"cumulative_distance_km":0.0,"amap_marker_url":"https://uri.amap.com/marker?position=115.736452,33.130587&name=%E8%8D%89%E5%AF%BA%E5%85%BD%E5%8C%BB%E7%AB%99&src=vetmap&coordinate=gaode&callnative=1"},{"name":"宠物美疗","address":"健康东路与细阳路交叉口东20米","phone":"13965576606","category":"医疗保健服务;动物医疗场所;宠物诊所","area":"","lng":115.631554,"lat":33.158907,"amap_id":"B0KUCG3FIZ","order":2,"prev_distance_km":10.261,"cumulative_distance_km":10.261,"amap_marker_url":"https://uri.amap.com/marker?position=115.631554,33.158907&name=%E5%AE%A0%E7%89%A9%E7%BE%8E%E7%96%97&src=vetmap&coordinate=gaode&callnative=1"},{"name":"太和县细阳畜禽防治服务部","address":"城关镇细阳北路路西(九小旁)","phone":"13966591882","category":"医疗保健服务;动物医疗场所;兽医站","area":"","lng":115.631831,"lat":33.16516,"amap_id":"B0FFH6E482","order":3,"prev_distance_km":0.696,"cumulative_distance_km":10.957,"amap_marker_url":"https://uri.amap.com/marker?position=115.631831,33.165160&name=%E5%A4%AA%E5%92%8C%E5%8E%BF%E7%BB%86%E9%98%B3%E7%95%9C%E7%A6%BD%E9%98%B2%E6%B2%BB%E6%9C%8D%E5%8A%A1%E9%83%A8&src=vetmap&coordinate=gaode&callnative=1"},{"name":"爱宠宠物医院(太和世家店)","address":"环城东路2号楼从南向北第六间","phone":"15555815792","category":"医疗保健服务;动物医疗场所;宠物诊所","area":"","lng":115.626032,"lat":33.164944,"amap_id":"B0HK3CU0NQ","order":4,"prev_distance_km":0.54,"cumulative_distance_km":11.498,"amap_marker_url":"https://uri.amap.com/marker?position=115.626032,33.164944&name=%E7%88%B1%E5%AE%A0%E5%AE%A0%E7%89%A9%E5%8C%BB%E9%99%A2%28%E5%A4%AA%E5%92%8C%E4%B8%96%E5%AE%B6%E5%BA%97%29&src=vetmap&coordinate=gaode&callnative=1"},{"name":"匹诺宠物诊疗中心(金色华府店)","address":"镜湖西路87号匹诺宠物医院","phone":"13260585758","category":"医疗保健服务;动物医疗场所;宠物诊所","area":"","lng":115.618318,"lat":33.156957,"amap_id":"B0GKGZ6I0C","order":5,"prev_distance_km":1.142,"cumulative_distance_km":12.64,"amap_marker_url":"https://uri.amap.com/marker?position=115.618318,33.156957&name=%E5%8C%B9%E8%AF%BA%E5%AE%A0%E7%89%A9%E8%AF%8A%E7%96%97%E4%B8%AD%E5%BF%83%28%E9%87%91%E8%89%B2%E5%8D%8E%E5%BA%9C%E5%BA%97%29&src=vetmap&coordinate=gaode&callnative=1"},{"name":"太和匹诺宠物医院","address":"镜湖西路与复兴路路口东50米交管局对面","phone":"13260585758;17755860270","category":"医疗保健服务;动物医疗场所;宠物诊所","area":"","lng":115.618314,"lat":33.156955,"amap_id":"B0FFL3OC5L","order":6,"prev_distance_km":0.0,"cumulative_distance_km":12.64,"amap_marker_url":"https://uri.amap.com/marker?position=115.618314,33.156955&name=%E5%A4%AA%E5%92%8C%E5%8C%B9%E8%AF%BA%E5%AE%A0%E7%89%A9%E5%8C%BB%E9%99%A2&src=vetmap&coordinate=gaode&callnative=1"},{"name":"宠佳宠物诊所","address":"人民南路金泰明都小区沙河西路老粮仓斜对面中华板面隔壁","phone":"13605670210","category":"医疗保健服务;动物医疗场所;宠物诊所","area":"","lng":115.618566,"lat":33.149026,"amap_id":"B0J2SSKMKY","order":7,"prev_distance_km":0.882,"cumulative_distance_km":13.522,"amap_marker_url":"https://uri.amap.com/marker?position=115.618566,33.149026&name=%E5%AE%A0%E4%BD%B3%E5%AE%A0%E7%89%A9%E8%AF%8A%E6%89%80&src=vetmap&coordinate=gaode&callnative=1"},{"name":"厚朴宠物医院(紫金花苑店)","address":"紫金花苑北门西70米","phone":"18356818999","category":"医疗保健服务;动物医疗场所;宠物诊所","area":"","lng":115.607843,"lat":33.157392,"amap_id":"B0K0GA25MG","order":8,"prev_distance_km":1.365,"cumulative_distance_km":14.887,"amap_marker_url":"https://uri.amap.com/marker?position=115.607843,33.157392&name=%E5%8E%9A%E6%9C%B4%E5%AE%A0%E7%89%A9%E5%8C%BB%E9%99%A2%28%E7%B4%AB%E9%87%91%E8%8A%B1%E8%8B%91%E5%BA%97%29&src=vetmap&coordinate=gaode&callnative=1"},{"name":"宠物诊疗(太和店)","address":"国泰路纪念碑红绿灯向北100米路东","phone":"18855872000","category":"医疗保健服务;动物医疗场所;宠物诊所","area":"","lng":115.613307,"lat":33.15855,"amap_id":"B0KB6H8WDO","order":9,"prev_distance_km":0.525,"cumulative_distance_km":15.411,"amap_marker_url":"https://uri.amap.com/marker?position=115.613307,33.158550&name=%E5%AE%A0%E7%89%A9%E8%AF%8A%E7%96%97%28%E5%A4%AA%E5%92%8C%E5%BA%97%29&src=vetmap&coordinate=gaode&callnative=1"},{"name":"优活宠物医院(太和晶宫城市广场店)","address":"晶宫城市广场G6-116-117","phone":"0558-8588122;18058421886","category":"医疗保健服务;动物医疗场所;宠物诊所","area":"","lng":115.618211,"lat":33.16409,"amap_id":"B0FFIIIBF4","order":10,"prev_distance_km":0.767,"cumulative_distance_km":16.178,"amap_marker_url":"https://uri.amap.com/marker?position=115.618211,33.164090&name=%E4%BC%98%E6%B4%BB%E5%AE%A0%E7%89%A9%E5%8C%BB%E9%99%A2%28%E5%A4%AA%E5%92%8C%E6%99%B6%E5%AE%AB%E5%9F%8E%E5%B8%82%E5%B9%BF%E5%9C%BA%E5%BA%97%29&src=vetmap&coordinate=gaode&callnative=1"},{"name":"宠物医院","address":"文明路与复兴路交叉口西220米","phone":"15055583788","category":"医疗保健服务;动物医疗场所;宠物诊所","area":"","lng":115.617737,"lat":33.165125,"amap_id":"B0FFKHGEHW","order":11,"prev_distance_km":0.123,"cumulative_distance_km":16.301,"amap_marker_url":"https://uri.amap.com/marker?position=115.617737,33.165125&name=%E5%AE%A0%E7%89%A9%E5%8C%BB%E9%99%A2&src=vetmap&coordinate=gaode&callnative=1"},{"name":"老兽医站","address":"文明路与复兴路交叉口西220米","phone":"15055583788","category":"医疗保健服务;动物医疗场所;兽医站","area":"","lng":115.617726,"lat":33.165138,"amap_id":"B0HKCNY9VQ","order":12,"prev_distance_km":0.002,"cumulative_distance_km":16.303,"amap_marker_url":"https://uri.amap.com/marker?position=115.617726,33.165138&name=%E8%80%81%E5%85%BD%E5%8C%BB%E7%AB%99&src=vetmap&coordinate=gaode&callnative=1"},{"name":"24小时动物急救中心","address":"环城北路88号","phone":"18325830721","category":"医疗保健服务;动物医疗场所;宠物诊所","area":"","lng":115.613039,"lat":33.166821,"amap_id":"B0LG0U688Z","order":13,"prev_distance_km":0.475,"cumulative_distance_km":16.778,"amap_marker_url":"https://uri.amap.com/marker?position=115.613039,33.166821&name=24%E5%B0%8F%E6%97%B6%E5%8A%A8%E7%89%A9%E6%80%A5%E6%95%91%E4%B8%AD%E5%BF%83&src=vetmap&coordinate=gaode&callnative=1"},{"name":"好好宠物医院","address":"莲蒲路109号","phone":"","category":"医疗保健服务;动物医疗场所;宠物诊所","area":"","lng":115.608712,"lat":33.169655,"amap_id":"B0L0PZ0ITP","order":14,"prev_distance_km":0.511,"cumulative_distance_km":17.289,"amap_marker_url":"https://uri.amap.com/marker?position=115.608712,33.169655&name=%E5%A5%BD%E5%A5%BD%E5%AE%A0%E7%89%A9%E5%8C%BB%E9%99%A2&src=vetmap&coordinate=gaode&callnative=1"},{"name":"关北兽医站","address":"国泰路与团结路交叉口东160米","phone":"","category":"医疗保健服务;动物医疗场所;兽医站","area":"","lng":115.615348,"lat":33.173146,"amap_id":"B0FFIIH35L","order":15,"prev_distance_km":0.729,"cumulative_distance_km":18.019,"amap_marker_url":"https://uri.amap.com/marker?position=115.615348,33.173146&name=%E5%85%B3%E5%8C%97%E5%85%BD%E5%8C%BB%E7%AB%99&src=vetmap&coordinate=gaode&callnative=1"},{"name":"康安动物医院","address":"太和县国泰路与建设路交叉口东南角","phone":"18726550581;18726567368","category":"医疗保健服务;动物医疗场所;宠物诊所","area":"","lng":115.614555,"lat":33.176473,"amap_id":"B0GD7H9YXU","order":16,"prev_distance_km":0.377,"cumulative_distance_km":18.396,"amap_marker_url":"https://uri.amap.com/marker?position=115.614555,33.176473&name=%E5%BA%B7%E5%AE%89%E5%8A%A8%E7%89%A9%E5%8C%BB%E9%99%A2&src=vetmap&coordinate=gaode&callnative=1"},{"name":"蓓康动物医院","address":"城关镇民安小学东侧胜利路南侧奥体公馆1号楼103铺","phone":"18221592627","category":"医疗保健服务;动物医疗场所;宠物诊所","area":"","lng":115.61146,"lat":33.181398,"amap_id":"B0JDOAG4EH","order":17,"prev_distance_km":0.619,"cumulative_distance_km":19.015,"amap_marker_url":"https://uri.amap.com/marker?position=115.611460,33.181398&name=%E8%93%93%E5%BA%B7%E5%8A%A8%E7%89%A9%E5%8C%BB%E9%99%A2&src=vetmap&coordinate=gaode&callnative=1"},{"name":"宠颐生宠物医院·骨外科·猫科(太和店)","address":"建设西路一九六九口腔门诊部隔壁","phone":"0558-8516120","category":"医疗保健服务;动物医疗场所;宠物诊所","area":"","lng":115.619757,"lat":33.175938,"amap_id":"B0FFKYRIP5","order":18,"prev_distance_km":0.982,"cumulative_distance_km":19.997,"amap_marker_url":"https://uri.amap.com/marker?position=115.619757,33.175938&name=%E5%AE%A0%E9%A2%90%E7%94%9F%E5%AE%A0%E7%89%A9%E5%8C%BB%E9%99%A2%C2%B7%E9%AA%A8%E5%A4%96%E7%A7%91%C2%B7%E7%8C%AB%E7%A7%91%28%E5%A4%AA%E5%92%8C%E5%BA%97%29&src=vetmap&coordinate=gaode&callnative=1"},{"name":"宠小它宠物诊疗所","address":"城关镇友谊路友谊新村21楼104号","phone":"13260559795","category":"医疗保健服务;动物医疗场所;宠物诊所","area":"","lng":115.63005,"lat":33.175908,"amap_id":"B0KDCSPS7Q","order":19,"prev_distance_km":0.958,"cumulative_distance_km":20.955,"amap_marker_url":"https://uri.amap.com/marker?position=115.630050,33.175908&name=%E5%AE%A0%E5%B0%8F%E5%AE%83%E5%AE%A0%E7%89%A9%E8%AF%8A%E7%96%97%E6%89%80&src=vetmap&coordinate=gaode&callnative=1"},{"name":"太和元亨宠物诊所","address":"安徽省太和县人民北路和光明路交叉口南100米元亨宠物诊所","phone":"13225687622","category":"医疗保健服务;动物医疗场所;宠物诊所","area":"","lng":115.624366,"lat":33.178923,"amap_id":"B0HAY7ZIAO","order":20,"prev_distance_km":0.626,"cumulative_distance_km":21.581,"amap_marker_url":"https://uri.amap.com/marker?position=115.624366,33.178923&name=%E5%A4%AA%E5%92%8C%E5%85%83%E4%BA%A8%E5%AE%A0%E7%89%A9%E8%AF%8A%E6%89%80&src=vetmap&coordinate=gaode&callnative=1"},{"name":"爪爪宠物诊所","address":"城关镇105国道东侧兰亭园小区7号楼兴怀苑208铺","phone":"18655808628;18656866986","category":"医疗保健服务;动物医疗场所;宠物诊所","area":"","lng":115.621287,"lat":33.182289,"amap_id":"B0L1SCR0LI","order":21,"prev_distance_km":0.471,"cumulative_distance_km":22.052,"amap_marker_url":"https://uri.amap.com/marker?position=115.621287,33.182289&name=%E7%88%AA%E7%88%AA%E5%AE%A0%E7%89%A9%E8%AF%8A%E6%89%80&src=vetmap&coordinate=gaode&callnative=1"},{"name":"乐天宠物医院","address":"经济开发区晶宫未来城A区1号楼108","phone":"18815580568","category":"医疗保健服务;动物医疗场所;宠物诊所","area":"","lng":115.624383,"lat":33.187646,"amap_id":"B0IDAA0OGV","order":22,"prev_distance_km":0.662,"cumulative_distance_km":22.714,"amap_marker_url":"https://uri.amap.com/marker?position=115.624383,33.187646&name=%E4%B9%90%E5%A4%A9%E5%AE%A0%E7%89%A9%E5%8C%BB%E9%99%A2&src=vetmap&coordinate=gaode&callnative=1"},{"name":"金牧兽医服务宠物诊疗动物防疫","address":"太和大道宝雅凯旋门西门向南150米","phone":"15398196576","category":"医疗保健服务;动物医疗场所;兽医站","area":"","lng":115.614625,"lat":33.198925,"amap_id":"B0KGS7JIL5","order":23,"prev_distance_km":1.548,"cumulative_distance_km":24.262,"amap_marker_url":"https://uri.amap.com/marker?position=115.614625,33.198925&name=%E9%87%91%E7%89%A7%E5%85%BD%E5%8C%BB%E6%9C%8D%E5%8A%A1%E5%AE%A0%E7%89%A9%E8%AF%8A%E7%96%97%E5%8A%A8%E7%89%A9%E9%98%B2%E7%96%AB&src=vetmap&coordinate=gaode&callnative=1"},{"name":"锦亮宠物医院","address":"旧县镇三角元广场南三百米路东","phone":"15222981899","category":"医疗保健服务;动物医疗场所;宠物诊所","area":"","lng":115.598751,"lat":33.210145,"amap_id":"B0HALR73ZU","order":24,"prev_distance_km":1.933,"cumulative_distance_km":26.196,"amap_marker_url":"https://uri.amap.com/marker?position=115.598751,33.210145&name=%E9%94%A6%E4%BA%AE%E5%AE%A0%E7%89%A9%E5%8C%BB%E9%99%A2&src=vetmap&coordinate=gaode&callnative=1"},{"name":"宠乐宠物","address":"旧县镇国泰北路绿地万汇城106铺","phone":"15222982989","category":"医疗保健服务;动物医疗场所;动物医疗场所","area":"","lng":115.600526,"lat":33.216095,"amap_id":"B0LK6MJOEK","order":25,"prev_distance_km":0.682,"cumulative_distance_km":26.878,"amap_marker_url":"https://uri.amap.com/marker?position=115.600526,33.216095&name=%E5%AE%A0%E4%B9%90%E5%AE%A0%E7%89%A9&src=vetmap&coordinate=gaode&callnative=1"},{"name":"锦亮宠物美疗双浮店","address":"双浮镇界洪河南100米105国道路西","phone":"15055511120;15222981899","category":"医疗保健服务;动物医疗场所;宠物诊所","area":"","lng":115.571983,"lat":33.305764,"amap_id":"B0K13HUL5C","order":26,"prev_distance_km":10.318,"cumulative_distance_km":37.196,"amap_marker_url":"https://uri.amap.com/marker?position=115.571983,33.305764&name=%E9%94%A6%E4%BA%AE%E5%AE%A0%E7%89%A9%E7%BE%8E%E7%96%97%E5%8F%8C%E6%B5%AE%E5%BA%97&src=vetmap&coordinate=gaode&callnative=1"},{"name":"瑞龙宠物诊所","address":"003县道与012乡道交叉口东北200米","phone":"15256837549","category":"医疗保健服务;动物医疗场所;宠物诊所","area":"","lng":115.73897,"lat":33.300757,"amap_id":"B0L1DUUO8D","order":27,"prev_distance_km":15.529,"cumulative_distance_km":52.724,"amap_marker_url":"https://uri.amap.com/marker?position=115.738970,33.300757&name=%E7%91%9E%E9%BE%99%E5%AE%A0%E7%89%A9%E8%AF%8A%E6%89%80&src=vetmap&coordinate=gaode&callnative=1"},{"name":"宠物诊所","address":"003县道与012乡道交叉口东北180米","phone":"","category":"医疗保健服务;动物医疗场所;宠物诊所","area":"","lng":115.739175,"lat":33.300125,"amap_id":"B0JUV6W80W","order":28,"prev_distance_km":0.073,"cumulative_distance_km":52.797,"amap_marker_url":"https://uri.amap.com/marker?position=115.739175,33.300125&name=%E5%AE%A0%E7%89%A9%E8%AF%8A%E6%89%80&src=vetmap&coordinate=gaode&callnative=1"},{"name":"宠乐宠物","address":"三堂镇中心小学南100米路东","phone":"","category":"医疗保健服务;动物医疗场所;动物医疗场所","area":"","lng":115.823898,"lat":33.320566,"amap_id":"B0LKKCNZOH","order":29,"prev_distance_km":8.195,"cumulative_distance_km":60.992,"amap_marker_url":"https://uri.amap.com/marker?position=115.823898,33.320566&name=%E5%AE%A0%E4%B9%90%E5%AE%A0%E7%89%A9&src=vetmap&coordinate=gaode&callnative=1"},{"name":"万和堂宠物医院","address":"人民路与252省道交叉口西北200米","phone":"13855813729","category":"医疗保健服务;动物医疗场所;宠物诊所|医疗保健服务;动物医疗场所;兽医站","area":"","lng":115.803079,"lat":33.374244,"amap_id":"B0G33UZMED","order":30,"prev_distance_km":6.274,"cumulative_distance_km":67.266,"amap_marker_url":"https://uri.amap.com/marker?position=115.803079,33.374244&name=%E4%B8%87%E5%92%8C%E5%A0%82%E5%AE%A0%E7%89%A9%E5%8C%BB%E9%99%A2&src=vetmap&coordinate=gaode&callnative=1"},{"name":"阮桥宠物诊所","address":"阮桥镇镇政府对门","phone":"13093361585","category":"医疗保健服务;动物医疗场所;宠物诊所","area":"","lng":115.737468,"lat":33.366678,"amap_id":"B0FFKBQG4I","order":31,"prev_distance_km":6.151,"cumulative_distance_km":73.417,"amap_marker_url":"https://uri.amap.com/marker?position=115.737468,33.366678&name=%E9%98%AE%E6%A1%A5%E5%AE%A0%E7%89%A9%E8%AF%8A%E6%89%80&src=vetmap&coordinate=gaode&callnative=1"},{"name":"宠物医院","address":"海之蓝商务中心西侧80米","phone":"13855811298","category":"医疗保健服务;动物医疗场所;宠物诊所","area":"","lng":115.618448,"lat":33.405691,"amap_id":"B0FFK6P8DB","order":32,"prev_distance_km":11.871,"cumulative_distance_km":85.288,"amap_marker_url":"https://uri.amap.com/marker?position=115.618448,33.405691&name=%E5%AE%A0%E7%89%A9%E5%8C%BB%E9%99%A2&src=vetmap&coordinate=gaode&callnative=1"},{"name":"双庙镇兽医防治诊所","address":"茨河路与010县道交叉口西80米","phone":"15755833718;18156279872","category":"医疗保健服务;动物医疗场所;兽医站","area":"","lng":115.522497,"lat":33.461926,"amap_id":"B0G0S4YPW0","order":33,"prev_distance_km":10.88,"cumulative_distance_km":96.168,"amap_marker_url":"https://uri.amap.com/marker?position=115.522497,33.461926&name=%E5%8F%8C%E5%BA%99%E9%95%87%E5%85%BD%E5%8C%BB%E9%98%B2%E6%B2%BB%E8%AF%8A%E6%89%80&src=vetmap&coordinate=gaode&callnative=1"},{"name":"李兴镇动物防疫诊疗服务中心","address":"创业路与056乡道交叉口南400米","phone":"","category":"医疗保健服务;动物医疗场所;兽医站","area":"","lng":115.479638,"lat":33.474138,"amap_id":"B0JR7ZHSPZ","order":34,"prev_distance_km":4.201,"cumulative_distance_km":100.369,"amap_marker_url":"https://uri.amap.com/marker?position=115.479638,33.474138&name=%E6%9D%8E%E5%85%B4%E9%95%87%E5%8A%A8%E7%89%A9%E9%98%B2%E7%96%AB%E8%AF%8A%E7%96%97%E6%9C%8D%E5%8A%A1%E4%B8%AD%E5%BF%83&src=vetmap&coordinate=gaode&callnative=1"},{"name":"李兴兽医站","address":"创业路与056乡道交叉口西南200米","phone":"","category":"医疗保健服务;动物医疗场所;兽医站","area":"","lng":115.479625,"lat":33.476025,"amap_id":"B0KKHP6UZY","order":35,"prev_distance_km":0.21,"cumulative_distance_km":100.579,"amap_marker_url":"https://uri.amap.com/marker?position=115.479625,33.476025&name=%E6%9D%8E%E5%85%B4%E5%85%BD%E5%8C%BB%E7%AB%99&src=vetmap&coordinate=gaode&callnative=1"},{"name":"锦亮宠物美疗李兴店","address":"李兴客运站对面","phone":"18356811120","category":"医疗保健服务;动物医疗场所;宠物诊所","area":"","lng":115.475763,"lat":33.474965,"amap_id":"B0L2TH35VL","order":36,"prev_distance_km":0.377,"cumulative_distance_km":100.956,"amap_marker_url":"https://uri.amap.com/marker?position=115.475763,33.474965&name=%E9%94%A6%E4%BA%AE%E5%AE%A0%E7%89%A9%E7%BE%8E%E7%96%97%E6%9D%8E%E5%85%B4%E5%BA%97&src=vetmap&coordinate=gaode&callnative=1"},{"name":"执业兽医师诊所","address":"张艳芝葡萄采摘园西侧160米","phone":"13305680378","category":"医疗保健服务;动物医疗场所;兽医站","area":"","lng":115.459937,"lat":33.535906,"amap_id":"B0G06GNX8R","order":37,"prev_distance_km":6.933,"cumulative_distance_km":107.89,"amap_marker_url":"https://uri.amap.com/marker?position=115.459937,33.535906&name=%E6%89%A7%E4%B8%9A%E5%85%BD%E5%8C%BB%E5%B8%88%E8%AF%8A%E6%89%80&src=vetmap&coordinate=gaode&callnative=1"}]}