{"summary":{"id":"d00201","province":"天津市","city":"天津市","district":"河西区","count":43,"total_distance_km":28.061,"coordinate_system":"GCJ-02 / Amap","generated_at":"2026-05-07 19:56:01"},"rows":[{"name":"静静宠物美容店","address":"君禧华庭底商2-38静静宠物美容店","phone":"","category":"医疗保健服务;动物医疗场所;动物医疗场所","area":"马场道","lng":117.179946,"lat":39.09982,"amap_id":"B0KRVSCE7Q","order":1,"prev_distance_km":0.0,"cumulative_distance_km":0.0,"amap_marker_url":"https://uri.amap.com/marker?position=117.179946,39.099820&name=%E9%9D%99%E9%9D%99%E5%AE%A0%E7%89%A9%E7%BE%8E%E5%AE%B9%E5%BA%97&src=vetmap&coordinate=gaode&callnative=1"},{"name":"瑞派宠物医院·猫科·异宠中心(河西天宁店)","address":"吴家窑大街38号38门","phone":"022-23528173;15522146220","category":"医疗保健服务;动物医疗场所;宠物诊所","area":"马场道","lng":117.190812,"lat":39.100809,"amap_id":"B001603089","order":2,"prev_distance_km":0.944,"cumulative_distance_km":0.944,"amap_marker_url":"https://uri.amap.com/marker?position=117.190812,39.100809&name=%E7%91%9E%E6%B4%BE%E5%AE%A0%E7%89%A9%E5%8C%BB%E9%99%A2%C2%B7%E7%8C%AB%E7%A7%91%C2%B7%E5%BC%82%E5%AE%A0%E4%B8%AD%E5%BF%83%28%E6%B2%B3%E8%A5%BF%E5%A4%A9%E5%AE%81%E5%BA%97%29&src=vetmap&coordinate=gaode&callnative=1"},{"name":"小动物急重症诊疗中心","address":"花园楼东3门旁","phone":"","category":"医疗保健服务;动物医疗场所;宠物诊所","area":"","lng":117.210224,"lat":39.094551,"amap_id":"B0K2A9UM13","order":3,"prev_distance_km":1.814,"cumulative_distance_km":2.758,"amap_marker_url":"https://uri.amap.com/marker?position=117.210224,39.094551&name=%E5%B0%8F%E5%8A%A8%E7%89%A9%E6%80%A5%E9%87%8D%E7%97%87%E8%AF%8A%E7%96%97%E4%B8%AD%E5%BF%83&src=vetmap&coordinate=gaode&callnative=1"},{"name":"熊猫宠物医院(越秀路医院)","address":"花园楼6-10号东4门北50米","phone":"17695422188","category":"医疗保健服务;动物医疗场所;宠物诊所","area":"","lng":117.210241,"lat":39.09452,"amap_id":"B0K0TNV2TZ","order":4,"prev_distance_km":0.004,"cumulative_distance_km":2.762,"amap_marker_url":"https://uri.amap.com/marker?position=117.210241,39.094520&name=%E7%86%8A%E7%8C%AB%E5%AE%A0%E7%89%A9%E5%8C%BB%E9%99%A2%28%E8%B6%8A%E7%A7%80%E8%B7%AF%E5%8C%BB%E9%99%A2%29&src=vetmap&coordinate=gaode&callnative=1"},{"name":"天津前进宠物医院(前进道店)","address":"前进道48号(教师村底商)(西南楼地铁站C口步行280米)","phone":"022-28264635","category":"医疗保健服务;动物医疗场所;宠物诊所","area":"","lng":117.212494,"lat":39.094158,"amap_id":"B00160EFAZ","order":5,"prev_distance_km":0.199,"cumulative_distance_km":2.96,"amap_marker_url":"https://uri.amap.com/marker?position=117.212494,39.094158&name=%E5%A4%A9%E6%B4%A5%E5%89%8D%E8%BF%9B%E5%AE%A0%E7%89%A9%E5%8C%BB%E9%99%A2%28%E5%89%8D%E8%BF%9B%E9%81%93%E5%BA%97%29&src=vetmap&coordinate=gaode&callnative=1"},{"name":"喵医生的宠物药店","address":"德恩里7号鑫恩华综合写字楼A508","phone":"","category":"医疗保健服务;动物医疗场所;宠物诊所","area":"","lng":117.210138,"lat":39.102136,"amap_id":"B0LKDUNBUI","order":6,"prev_distance_km":0.91,"cumulative_distance_km":3.87,"amap_marker_url":"https://uri.amap.com/marker?position=117.210138,39.102136&name=%E5%96%B5%E5%8C%BB%E7%94%9F%E7%9A%84%E5%AE%A0%E7%89%A9%E8%8D%AF%E5%BA%97&src=vetmap&coordinate=gaode&callnative=1"},{"name":"新视界动物医院(眼科和骨外科中心)","address":"九龙路74号","phone":"022-83458965","category":"医疗保健服务;动物医疗场所;宠物诊所","area":"马场道","lng":117.214294,"lat":39.104864,"amap_id":"B0KGBR99KE","order":7,"prev_distance_km":0.47,"cumulative_distance_km":4.34,"amap_marker_url":"https://uri.amap.com/marker?position=117.214294,39.104864&name=%E6%96%B0%E8%A7%86%E7%95%8C%E5%8A%A8%E7%89%A9%E5%8C%BB%E9%99%A2%28%E7%9C%BC%E7%A7%91%E5%92%8C%E9%AA%A8%E5%A4%96%E7%A7%91%E4%B8%AD%E5%BF%83%29&src=vetmap&coordinate=gaode&callnative=1"},{"name":"天津爱心动物医院","address":"琼州道117号","phone":"","category":"医疗保健服务;动物医疗场所;宠物诊所","area":"","lng":117.216381,"lat":39.103086,"amap_id":"B00160EXQL","order":8,"prev_distance_km":0.267,"cumulative_distance_km":4.608,"amap_marker_url":"https://uri.amap.com/marker?position=117.216381,39.103086&name=%E5%A4%A9%E6%B4%A5%E7%88%B1%E5%BF%83%E5%8A%A8%E7%89%A9%E5%8C%BB%E9%99%A2&src=vetmap&coordinate=gaode&callnative=1"},{"name":"瑞派长江动物医院24小时(琼州道店)","address":"广东路西楼北里老楼2门109-111琼州道115,117号6门","phone":"022-83813974;15620367558","category":"医疗保健服务;动物医疗场所;宠物诊所","area":"","lng":117.216414,"lat":39.103087,"amap_id":"B0FFIXMMKS","order":9,"prev_distance_km":0.003,"cumulative_distance_km":4.61,"amap_marker_url":"https://uri.amap.com/marker?position=117.216414,39.103087&name=%E7%91%9E%E6%B4%BE%E9%95%BF%E6%B1%9F%E5%8A%A8%E7%89%A9%E5%8C%BB%E9%99%A224%E5%B0%8F%E6%97%B6%28%E7%90%BC%E5%B7%9E%E9%81%93%E5%BA%97%29&src=vetmap&coordinate=gaode&callnative=1"},{"name":"真情宠爱宠物医院(徽州道店)","address":"徽州道29号","phone":"18322358075","category":"医疗保健服务;动物医疗场所;宠物诊所","area":"下瓦房","lng":117.217252,"lat":39.106435,"amap_id":"B0FFGIQA1W","order":10,"prev_distance_km":0.379,"cumulative_distance_km":4.99,"amap_marker_url":"https://uri.amap.com/marker?position=117.217252,39.106435&name=%E7%9C%9F%E6%83%85%E5%AE%A0%E7%88%B1%E5%AE%A0%E7%89%A9%E5%8C%BB%E9%99%A2%28%E5%BE%BD%E5%B7%9E%E9%81%93%E5%BA%97%29&src=vetmap&coordinate=gaode&callnative=1"},{"name":"鹏鹏宠物美容店","address":"富裕广场10号楼底商","phone":"13652125766","category":"医疗保健服务;动物医疗场所;动物医疗场所","area":"下瓦房","lng":117.22836,"lat":39.102092,"amap_id":"B0FFFDDAKD","order":11,"prev_distance_km":1.073,"cumulative_distance_km":6.063,"amap_marker_url":"https://uri.amap.com/marker?position=117.228360,39.102092&name=%E9%B9%8F%E9%B9%8F%E5%AE%A0%E7%89%A9%E7%BE%8E%E5%AE%B9%E5%BA%97&src=vetmap&coordinate=gaode&callnative=1"},{"name":"爱喵联萌宠物医院","address":"解放南路铂津湾北苑42号底商","phone":"18920520369","category":"医疗保健服务;动物医疗场所;宠物诊所","area":"","lng":117.233627,"lat":39.100621,"amap_id":"B0J6V58KMW","order":12,"prev_distance_km":0.483,"cumulative_distance_km":6.546,"amap_marker_url":"https://uri.amap.com/marker?position=117.233627,39.100621&name=%E7%88%B1%E5%96%B5%E8%81%94%E8%90%8C%E5%AE%A0%E7%89%A9%E5%8C%BB%E9%99%A2&src=vetmap&coordinate=gaode&callnative=1"},{"name":"美联众合动物医院(天津爱猫分院)","address":"台儿庄路海河大观铂津湾北苑12-28号商铺","phone":"022-88322551","category":"医疗保健服务;动物医疗场所;宠物诊所","area":"","lng":117.234318,"lat":39.100847,"amap_id":"B0FFHO8BAO","order":13,"prev_distance_km":0.065,"cumulative_distance_km":6.611,"amap_marker_url":"https://uri.amap.com/marker?position=117.234318,39.100847&name=%E7%BE%8E%E8%81%94%E4%BC%97%E5%90%88%E5%8A%A8%E7%89%A9%E5%8C%BB%E9%99%A2%28%E5%A4%A9%E6%B4%A5%E7%88%B1%E7%8C%AB%E5%88%86%E9%99%A2%29&src=vetmap&coordinate=gaode&callnative=1"},{"name":"乖乖宠物医院(海河大观南苑店)","address":"海河大观铂津湾南苑4-111底商","phone":"13672082623;18602687790","category":"医疗保健服务;动物医疗场所;宠物诊所","area":"","lng":117.235599,"lat":39.100061,"amap_id":"B0GD5H4ADK","order":14,"prev_distance_km":0.141,"cumulative_distance_km":6.752,"amap_marker_url":"https://uri.amap.com/marker?position=117.235599,39.100061&name=%E4%B9%96%E4%B9%96%E5%AE%A0%E7%89%A9%E5%8C%BB%E9%99%A2%28%E6%B5%B7%E6%B2%B3%E5%A4%A7%E8%A7%82%E5%8D%97%E8%8B%91%E5%BA%97%29&src=vetmap&coordinate=gaode&callnative=1"},{"name":"宏鹏宠物诊所(海华里店)","address":"光华桥台儿庄支路88号海华里底商","phone":"15900284828","category":"医疗保健服务;动物医疗场所;宠物诊所","area":"","lng":117.237472,"lat":39.099153,"amap_id":"B001612D6T","order":15,"prev_distance_km":0.191,"cumulative_distance_km":6.942,"amap_marker_url":"https://uri.amap.com/marker?position=117.237472,39.099153&name=%E5%AE%8F%E9%B9%8F%E5%AE%A0%E7%89%A9%E8%AF%8A%E6%89%80%28%E6%B5%B7%E5%8D%8E%E9%87%8C%E5%BA%97%29&src=vetmap&coordinate=gaode&callnative=1"},{"name":"自然宠物诊所","address":"福熙园西南门旁","phone":"13682052455","category":"医疗保健服务;动物医疗场所;宠物诊所","area":"","lng":117.237042,"lat":39.094558,"amap_id":"B0016116K0","order":16,"prev_distance_km":0.512,"cumulative_distance_km":7.454,"amap_marker_url":"https://uri.amap.com/marker?position=117.237042,39.094558&name=%E8%87%AA%E7%84%B6%E5%AE%A0%E7%89%A9%E8%AF%8A%E6%89%80&src=vetmap&coordinate=gaode&callnative=1"},{"name":"康睦动物医院(登发淘宝城店)","address":"登发家装市场西南1门旁(土城地铁站A口步行330米)","phone":"022-83655679","category":"医疗保健服务;动物医疗场所;宠物诊所","area":"","lng":117.228736,"lat":39.091452,"amap_id":"B0GD35169Q","order":17,"prev_distance_km":0.796,"cumulative_distance_km":8.25,"amap_marker_url":"https://uri.amap.com/marker?position=117.228736,39.091452&name=%E5%BA%B7%E7%9D%A6%E5%8A%A8%E7%89%A9%E5%8C%BB%E9%99%A2%28%E7%99%BB%E5%8F%91%E6%B7%98%E5%AE%9D%E5%9F%8E%E5%BA%97%29&src=vetmap&coordinate=gaode&callnative=1"},{"name":"浩浩宠物","address":"挂甲寺街台儿庄路海景文苑二期15号楼102底商","phone":"13902149608","category":"医疗保健服务;动物医疗场所;动物医疗场所","area":"","lng":117.242121,"lat":39.088493,"amap_id":"B0FFFOOZLA","order":18,"prev_distance_km":1.201,"cumulative_distance_km":9.451,"amap_marker_url":"https://uri.amap.com/marker?position=117.242121,39.088493&name=%E6%B5%A9%E6%B5%A9%E5%AE%A0%E7%89%A9&src=vetmap&coordinate=gaode&callnative=1"},{"name":"瑞派宠物医院(河西津康店)","address":"黑牛城道16号增3号","phone":"022-28301550;13820317817","category":"医疗保健服务;动物医疗场所;宠物诊所","area":"陈塘庄","lng":117.239192,"lat":39.080406,"amap_id":"B0J2GCIV7A","order":19,"prev_distance_km":0.934,"cumulative_distance_km":10.385,"amap_marker_url":"https://uri.amap.com/marker?position=117.239192,39.080406&name=%E7%91%9E%E6%B4%BE%E5%AE%A0%E7%89%A9%E5%8C%BB%E9%99%A2%28%E6%B2%B3%E8%A5%BF%E6%B4%A5%E5%BA%B7%E5%BA%97%29&src=vetmap&coordinate=gaode&callnative=1"},{"name":"佳怡宠物医院","address":"双迎公寓3号楼西门西170米","phone":"022-28223368","category":"医疗保健服务;动物医疗场所;宠物诊所","area":"","lng":117.236942,"lat":39.078168,"amap_id":"B0GR4MGSF2","order":20,"prev_distance_km":0.316,"cumulative_distance_km":10.701,"amap_marker_url":"https://uri.amap.com/marker?position=117.236942,39.078168&name=%E4%BD%B3%E6%80%A1%E5%AE%A0%E7%89%A9%E5%8C%BB%E9%99%A2&src=vetmap&coordinate=gaode&callnative=1"},{"name":"乖乖宠物医院(四信里分院)","address":"黑牛城道与洞庭路交口四信公寓7号楼97号底商","phone":"022-28239177;16622032666","category":"医疗保健服务;动物医疗场所;宠物诊所","area":"陈塘庄","lng":117.24842,"lat":39.07849,"amap_id":"B0LA6CCNK2","order":21,"prev_distance_km":0.991,"cumulative_distance_km":11.692,"amap_marker_url":"https://uri.amap.com/marker?position=117.248420,39.078490&name=%E4%B9%96%E4%B9%96%E5%AE%A0%E7%89%A9%E5%8C%BB%E9%99%A2%28%E5%9B%9B%E4%BF%A1%E9%87%8C%E5%88%86%E9%99%A2%29&src=vetmap&coordinate=gaode&callnative=1"},{"name":"糯米宠物医院(24H)•夜间急诊•犬猫全科•狂犬定点","address":"黑牛城道南侧四信里2-22号底商","phone":"15722216120","category":"医疗保健服务;动物医疗场所;宠物诊所","area":"陈塘庄","lng":117.249212,"lat":39.078082,"amap_id":"B0LUSA0R5J","order":22,"prev_distance_km":0.082,"cumulative_distance_km":11.774,"amap_marker_url":"https://uri.amap.com/marker?position=117.249212,39.078082&name=%E7%B3%AF%E7%B1%B3%E5%AE%A0%E7%89%A9%E5%8C%BB%E9%99%A2%2824H%29%E2%80%A2%E5%A4%9C%E9%97%B4%E6%80%A5%E8%AF%8A%E2%80%A2%E7%8A%AC%E7%8C%AB%E5%85%A8%E7%A7%91%E2%80%A2%E7%8B%82%E7%8A%AC%E5%AE%9A%E7%82%B9&src=vetmap&coordinate=gaode&callnative=1"},{"name":"天津前进宠物医院(五福里店)","address":"五福里14号楼222底商","phone":"022-88303678","category":"医疗保健服务;动物医疗场所;宠物诊所","area":"陈塘庄","lng":117.25341,"lat":39.07716,"amap_id":"B0GKRSADZY","order":23,"prev_distance_km":0.377,"cumulative_distance_km":12.151,"amap_marker_url":"https://uri.amap.com/marker?position=117.253410,39.077160&name=%E5%A4%A9%E6%B4%A5%E5%89%8D%E8%BF%9B%E5%AE%A0%E7%89%A9%E5%8C%BB%E9%99%A2%28%E4%BA%94%E7%A6%8F%E9%87%8C%E5%BA%97%29&src=vetmap&coordinate=gaode&callnative=1"},{"name":"棉花糖宠物诊所","address":"小海地路微山东里24号楼底商","phone":"13920628484","category":"医疗保健服务;动物医疗场所;宠物诊所","area":"陈塘庄","lng":117.264078,"lat":39.071042,"amap_id":"B0KG67QXBF","order":24,"prev_distance_km":1.145,"cumulative_distance_km":13.296,"amap_marker_url":"https://uri.amap.com/marker?position=117.264078,39.071042&name=%E6%A3%89%E8%8A%B1%E7%B3%96%E5%AE%A0%E7%89%A9%E8%AF%8A%E6%89%80&src=vetmap&coordinate=gaode&callnative=1"},{"name":"真爱宠物诊所","address":"三海里小区北1门东130米","phone":"13702080709","category":"医疗保健服务;动物医疗场所;宠物诊所","area":"","lng":117.271468,"lat":39.065672,"amap_id":"B0FFIXQB5T","order":25,"prev_distance_km":0.874,"cumulative_distance_km":14.17,"amap_marker_url":"https://uri.amap.com/marker?position=117.271468,39.065672&name=%E7%9C%9F%E7%88%B1%E5%AE%A0%E7%89%A9%E8%AF%8A%E6%89%80&src=vetmap&coordinate=gaode&callnative=1"},{"name":"圣洁宠物","address":"双水道16号","phone":"13072062777","category":"医疗保健服务;动物医疗场所;宠物诊所","area":"东海","lng":117.261534,"lat":39.058967,"amap_id":"B0HADHBQGZ","order":26,"prev_distance_km":1.136,"cumulative_distance_km":15.306,"amap_marker_url":"https://uri.amap.com/marker?position=117.261534,39.058967&name=%E5%9C%A3%E6%B4%81%E5%AE%A0%E7%89%A9&src=vetmap&coordinate=gaode&callnative=1"},{"name":"天和宠物诊所","address":"华江里35号楼2门底商","phone":"022-88120635","category":"医疗保健服务;动物医疗场所;宠物诊所","area":"东海","lng":117.258653,"lat":39.053727,"amap_id":"B00160AJQ5","order":27,"prev_distance_km":0.634,"cumulative_distance_km":15.94,"amap_marker_url":"https://uri.amap.com/marker?position=117.258653,39.053727&name=%E5%A4%A9%E5%92%8C%E5%AE%A0%E7%89%A9%E8%AF%8A%E6%89%80&src=vetmap&coordinate=gaode&callnative=1"},{"name":"宠颐生同心宠物医院(小海地浯水道店)","address":"小海地浯水道云江新苑底商9号","phone":"022-28342843;18522012451","category":"医疗保健服务;动物医疗场所;宠物诊所","area":"东海","lng":117.255421,"lat":39.050774,"amap_id":"B0IDG7SWM7","order":28,"prev_distance_km":0.431,"cumulative_distance_km":16.371,"amap_marker_url":"https://uri.amap.com/marker?position=117.255421,39.050774&name=%E5%AE%A0%E9%A2%90%E7%94%9F%E5%90%8C%E5%BF%83%E5%AE%A0%E7%89%A9%E5%8C%BB%E9%99%A2%28%E5%B0%8F%E6%B5%B7%E5%9C%B0%E6%B5%AF%E6%B0%B4%E9%81%93%E5%BA%97%29&src=vetmap&coordinate=gaode&callnative=1"},{"name":"天和宠物医院(儒林道店)","address":"梅林路与浯水道交口西南侧万锦澜苑1-5,1-6,1-7","phone":"022-22753656","category":"医疗保健服务;动物医疗场所;宠物诊所","area":"","lng":117.252879,"lat":39.047912,"amap_id":"B0LKB5T4TJ","order":29,"prev_distance_km":0.387,"cumulative_distance_km":16.757,"amap_marker_url":"https://uri.amap.com/marker?position=117.252879,39.047912&name=%E5%A4%A9%E5%92%8C%E5%AE%A0%E7%89%A9%E5%8C%BB%E9%99%A2%28%E5%84%92%E6%9E%97%E9%81%93%E5%BA%97%29&src=vetmap&coordinate=gaode&callnative=1"},{"name":"恩雅宠物医院(全运村店)","address":"渌水道全运村流苏园底商44号45","phone":"15602014909","category":"医疗保健服务;动物医疗场所;宠物诊所","area":"","lng":117.2595,"lat":39.044656,"amap_id":"B0GUJ7RJRH","order":30,"prev_distance_km":0.677,"cumulative_distance_km":17.434,"amap_marker_url":"https://uri.amap.com/marker?position=117.259500,39.044656&name=%E6%81%A9%E9%9B%85%E5%AE%A0%E7%89%A9%E5%8C%BB%E9%99%A2%28%E5%85%A8%E8%BF%90%E6%9D%91%E5%BA%97%29&src=vetmap&coordinate=gaode&callnative=1"},{"name":"佳诺宠物诊疗中心","address":"全运村梅林路云实园底商15号(梅林路地铁站A口步行260米)","phone":"17612213480","category":"医疗保健服务;动物医疗场所;宠物诊所","area":"","lng":117.255154,"lat":39.043221,"amap_id":"B0H01DOZMG","order":31,"prev_distance_km":0.408,"cumulative_distance_km":17.842,"amap_marker_url":"https://uri.amap.com/marker?position=117.255154,39.043221&name=%E4%BD%B3%E8%AF%BA%E5%AE%A0%E7%89%A9%E8%AF%8A%E7%96%97%E4%B8%AD%E5%BF%83&src=vetmap&coordinate=gaode&callnative=1"},{"name":"乖乖宠物医院(沂山路分院)","address":"解放南路东侧雅湖里配套公建1-8","phone":"022-88363001;15620225775","category":"医疗保健服务;动物医疗场所;宠物诊所","area":"","lng":117.236405,"lat":39.044171,"amap_id":"B0I2T5T8ST","order":32,"prev_distance_km":1.623,"cumulative_distance_km":19.465,"amap_marker_url":"https://uri.amap.com/marker?position=117.236405,39.044171&name=%E4%B9%96%E4%B9%96%E5%AE%A0%E7%89%A9%E5%8C%BB%E9%99%A2%28%E6%B2%82%E5%B1%B1%E8%B7%AF%E5%88%86%E9%99%A2%29&src=vetmap&coordinate=gaode&callnative=1"},{"name":"花样年宠物医院(24小时急诊)","address":"解放南路与浯水道交口西南侧喜年广场1-101-2","phone":"022-88165321;18526780513","category":"医疗保健服务;动物医疗场所;宠物诊所","area":"梅江","lng":117.232425,"lat":39.044475,"amap_id":"B0K30C2D87","order":33,"prev_distance_km":0.345,"cumulative_distance_km":19.81,"amap_marker_url":"https://uri.amap.com/marker?position=117.232425,39.044475&name=%E8%8A%B1%E6%A0%B7%E5%B9%B4%E5%AE%A0%E7%89%A9%E5%8C%BB%E9%99%A2%2824%E5%B0%8F%E6%97%B6%E6%80%A5%E8%AF%8A%29&src=vetmap&coordinate=gaode&callnative=1"},{"name":"瑞派· 津康动物医院(梅江分院)","address":"天涛园商业街1-6","phone":"022-83856700","category":"医疗保健服务;动物医疗场所;宠物诊所","area":"梅江","lng":117.227595,"lat":39.043862,"amap_id":"B0GUZ5GE4A","order":34,"prev_distance_km":0.423,"cumulative_distance_km":20.233,"amap_marker_url":"https://uri.amap.com/marker?position=117.227595,39.043862&name=%E7%91%9E%E6%B4%BE%C2%B7%20%E6%B4%A5%E5%BA%B7%E5%8A%A8%E7%89%A9%E5%8C%BB%E9%99%A2%28%E6%A2%85%E6%B1%9F%E5%88%86%E9%99%A2%29&src=vetmap&coordinate=gaode&callnative=1"},{"name":"美联众合动物医院内科中心(梅江分院)","address":"白云山路与绥江道交叉口川水园13号底商(珠江道)","phone":"022-88368012","category":"医疗保健服务;动物医疗场所;宠物诊所","area":"梅江","lng":117.223523,"lat":39.057859,"amap_id":"B0LRKAH492","order":35,"prev_distance_km":1.596,"cumulative_distance_km":21.828,"amap_marker_url":"https://uri.amap.com/marker?position=117.223523,39.057859&name=%E7%BE%8E%E8%81%94%E4%BC%97%E5%90%88%E5%8A%A8%E7%89%A9%E5%8C%BB%E9%99%A2%E5%86%85%E7%A7%91%E4%B8%AD%E5%BF%83%28%E6%A2%85%E6%B1%9F%E5%88%86%E9%99%A2%29&src=vetmap&coordinate=gaode&callnative=1"},{"name":"纯美宠物诊所","address":"瑞江花园竹苑1号楼(梅江道地铁站C口步行280米)","phone":"022-88364537;13032231128","category":"医疗保健服务;动物医疗场所;宠物诊所","area":"梅江","lng":117.2281,"lat":39.068983,"amap_id":"B0FFI95BE6","order":36,"prev_distance_km":1.299,"cumulative_distance_km":23.127,"amap_marker_url":"https://uri.amap.com/marker?position=117.228100,39.068983&name=%E7%BA%AF%E7%BE%8E%E5%AE%A0%E7%89%A9%E8%AF%8A%E6%89%80&src=vetmap&coordinate=gaode&callnative=1"},{"name":"乖乖宠物医院(河西分院)","address":"津铁泽苑16-3底商","phone":"13011310504","category":"医疗保健服务;动物医疗场所;宠物诊所","area":"梅江","lng":117.227725,"lat":39.075975,"amap_id":"B0L1SDQ5QD","order":37,"prev_distance_km":0.778,"cumulative_distance_km":23.905,"amap_marker_url":"https://uri.amap.com/marker?position=117.227725,39.075975&name=%E4%B9%96%E4%B9%96%E5%AE%A0%E7%89%A9%E5%8C%BB%E9%99%A2%28%E6%B2%B3%E8%A5%BF%E5%88%86%E9%99%A2%29&src=vetmap&coordinate=gaode&callnative=1"},{"name":"爱康宠物诊所","address":"黑牛城道纯真里底商1-8号","phone":"15900367789","category":"医疗保健服务;动物医疗场所;宠物诊所","area":"","lng":117.219262,"lat":39.078951,"amap_id":"B00160EBBE","order":38,"prev_distance_km":0.802,"cumulative_distance_km":24.707,"amap_marker_url":"https://uri.amap.com/marker?position=117.219262,39.078951&name=%E7%88%B1%E5%BA%B7%E5%AE%A0%E7%89%A9%E8%AF%8A%E6%89%80&src=vetmap&coordinate=gaode&callnative=1"},{"name":"瑞派长江动物医院24小时(河西谊城公寓店)","address":"黑牛城道谊城公寓12号楼-底商2号","phone":"022-28355000;18722178500","category":"医疗保健服务;动物医疗场所;宠物诊所","area":"","lng":117.208679,"lat":39.077697,"amap_id":"B0FFFS0M8Z","order":39,"prev_distance_km":0.924,"cumulative_distance_km":25.631,"amap_marker_url":"https://uri.amap.com/marker?position=117.208679,39.077697&name=%E7%91%9E%E6%B4%BE%E9%95%BF%E6%B1%9F%E5%8A%A8%E7%89%A9%E5%8C%BB%E9%99%A224%E5%B0%8F%E6%97%B6%28%E6%B2%B3%E8%A5%BF%E8%B0%8A%E5%9F%8E%E5%85%AC%E5%AF%93%E5%BA%97%29&src=vetmap&coordinate=gaode&callnative=1"},{"name":"易生宠物医院(河西店)","address":"宾西路温泉公寓1号楼4门(天津宾馆地铁站A口步行320米)","phone":"022-88138899","category":"医疗保健服务;动物医疗场所;宠物诊所","area":"","lng":117.201073,"lat":39.083163,"amap_id":"B0JU6URLT2","order":40,"prev_distance_km":0.895,"cumulative_distance_km":26.526,"amap_marker_url":"https://uri.amap.com/marker?position=117.201073,39.083163&name=%E6%98%93%E7%94%9F%E5%AE%A0%E7%89%A9%E5%8C%BB%E9%99%A2%28%E6%B2%B3%E8%A5%BF%E5%BA%97%29&src=vetmap&coordinate=gaode&callnative=1"},{"name":"瑞派津京联盟宠物医院·24小时(河西店)","address":"环湖东路与体北道交口蕴逸园9号楼5号底商-2","phone":"18649109810","category":"医疗保健服务;动物医疗场所;宠物诊所","area":"体院北","lng":117.192961,"lat":39.079167,"amap_id":"B0J21SBDSR","order":41,"prev_distance_km":0.829,"cumulative_distance_km":27.355,"amap_marker_url":"https://uri.amap.com/marker?position=117.192961,39.079167&name=%E7%91%9E%E6%B4%BE%E6%B4%A5%E4%BA%AC%E8%81%94%E7%9B%9F%E5%AE%A0%E7%89%A9%E5%8C%BB%E9%99%A2%C2%B724%E5%B0%8F%E6%97%B6%28%E6%B2%B3%E8%A5%BF%E5%BA%97%29&src=vetmap&coordinate=gaode&callnative=1"},{"name":"乖乖宠物医院(体北分院)","address":"环湖东路与体院北道交叉口东南60米","phone":"18142270251","category":"医疗保健服务;动物医疗场所;宠物诊所","area":"体院北","lng":117.19418,"lat":39.07816,"amap_id":"B0I29RMIHH","order":42,"prev_distance_km":0.154,"cumulative_distance_km":27.509,"amap_marker_url":"https://uri.amap.com/marker?position=117.194180,39.078160&name=%E4%B9%96%E4%B9%96%E5%AE%A0%E7%89%A9%E5%8C%BB%E9%99%A2%28%E4%BD%93%E5%8C%97%E5%88%86%E9%99%A2%29&src=vetmap&coordinate=gaode&callnative=1"},{"name":"绿洲宠物诊疗中心","address":"黑牛城道244号","phone":"022-58181431;18920121434","category":"医疗保健服务;动物医疗场所;宠物诊所","area":"体院北","lng":117.197321,"lat":39.073834,"amap_id":"B0H29U6BOG","order":43,"prev_distance_km":0.552,"cumulative_distance_km":28.061,"amap_marker_url":"https://uri.amap.com/marker?position=117.197321,39.073834&name=%E7%BB%BF%E6%B4%B2%E5%AE%A0%E7%89%A9%E8%AF%8A%E7%96%97%E4%B8%AD%E5%BF%83&src=vetmap&coordinate=gaode&callnative=1"}]}