{"summary":{"id":"d00221","province":"安徽省","city":"合肥市","district":"庐江县","count":9,"total_distance_km":38.451,"coordinate_system":"GCJ-02 / Amap","generated_at":"2026-05-07 20:21:39"},"rows":[{"name":"东方兽医门诊部","address":"京徽路与兴华路交叉口北40米","phone":"","category":"医疗保健服务;动物医疗场所;兽医站","area":"","lng":117.185985,"lat":31.141793,"amap_id":"B0FFLDPXAV","order":1,"prev_distance_km":0.0,"cumulative_distance_km":0.0,"amap_marker_url":"https://uri.amap.com/marker?position=117.185985,31.141793&name=%E4%B8%9C%E6%96%B9%E5%85%BD%E5%8C%BB%E9%97%A8%E8%AF%8A%E9%83%A8&src=vetmap&coordinate=gaode&callnative=1"},{"name":"知凡宠物医院","address":"越城路201号110室","phone":"15855155546","category":"医疗保健服务;动物医疗场所;宠物诊所","area":"","lng":117.284531,"lat":31.245295,"amap_id":"B0L1778HF0","order":2,"prev_distance_km":14.843,"cumulative_distance_km":14.843,"amap_marker_url":"https://uri.amap.com/marker?position=117.284531,31.245295&name=%E7%9F%A5%E5%87%A1%E5%AE%A0%E7%89%A9%E5%8C%BB%E9%99%A2&src=vetmap&coordinate=gaode&callnative=1"},{"name":"瑞恒宠物诊所(育才花园店)","address":"中心城三幢113-114门面","phone":"18715039202;18715656603","category":"医疗保健服务;动物医疗场所;宠物诊所","area":"","lng":117.288585,"lat":31.245064,"amap_id":"B0FFGXDW6P","order":3,"prev_distance_km":0.386,"cumulative_distance_km":15.229,"amap_marker_url":"https://uri.amap.com/marker?position=117.288585,31.245064&name=%E7%91%9E%E6%81%92%E5%AE%A0%E7%89%A9%E8%AF%8A%E6%89%80%28%E8%82%B2%E6%89%8D%E8%8A%B1%E5%9B%AD%E5%BA%97%29&src=vetmap&coordinate=gaode&callnative=1"},{"name":"真兽药店","address":"周瑜大道与庐白路交叉口西北60米","phone":"","category":"医疗保健服务;动物医疗场所;动物医疗场所","area":"","lng":117.296075,"lat":31.249625,"amap_id":"B0M61HHXD2","order":4,"prev_distance_km":0.874,"cumulative_distance_km":16.104,"amap_marker_url":"https://uri.amap.com/marker?position=117.296075,31.249625&name=%E7%9C%9F%E5%85%BD%E8%8D%AF%E5%BA%97&src=vetmap&coordinate=gaode&callnative=1"},{"name":"宠爱有佳宠物医院","address":"黄山南路汽车站对面","phone":"18226199090","category":"医疗保健服务;动物医疗场所;宠物诊所","area":"","lng":117.281975,"lat":31.250525,"amap_id":"B0IRS5D85R","order":5,"prev_distance_km":1.344,"cumulative_distance_km":17.448,"amap_marker_url":"https://uri.amap.com/marker?position=117.281975,31.250525&name=%E5%AE%A0%E7%88%B1%E6%9C%89%E4%BD%B3%E5%AE%A0%E7%89%A9%E5%8C%BB%E9%99%A2&src=vetmap&coordinate=gaode&callnative=1"},{"name":"爱康宠物诊所","address":"庐城镇磙塘新村20号楼104室","phone":"13156568878","category":"医疗保健服务;动物医疗场所;宠物诊所","area":"","lng":117.28465,"lat":31.256166,"amap_id":"B02350OCUH","order":6,"prev_distance_km":0.677,"cumulative_distance_km":18.125,"amap_marker_url":"https://uri.amap.com/marker?position=117.284650,31.256166&name=%E7%88%B1%E5%BA%B7%E5%AE%A0%E7%89%A9%E8%AF%8A%E6%89%80&src=vetmap&coordinate=gaode&callnative=1"},{"name":"卫佳宠物诊所","address":"塔山西路与移湖路交界口","phone":"15056596283;15375444312","category":"医疗保健服务;动物医疗场所;宠物诊所","area":"","lng":117.280693,"lat":31.257678,"amap_id":"B0FFKPXXC6","order":7,"prev_distance_km":0.412,"cumulative_distance_km":18.537,"amap_marker_url":"https://uri.amap.com/marker?position=117.280693,31.257678&name=%E5%8D%AB%E4%BD%B3%E5%AE%A0%E7%89%A9%E8%AF%8A%E6%89%80&src=vetmap&coordinate=gaode&callnative=1"},{"name":"万灵宠物诊所","address":"港湾街道文昌西路289号众发名城32号1层13室","phone":"13083067659","category":"医疗保健服务;动物医疗场所;宠物诊所","area":"","lng":117.271887,"lat":31.253746,"amap_id":"B0LU1NED6N","order":8,"prev_distance_km":0.944,"cumulative_distance_km":19.481,"amap_marker_url":"https://uri.amap.com/marker?position=117.271887,31.253746&name=%E4%B8%87%E7%81%B5%E5%AE%A0%E7%89%A9%E8%AF%8A%E6%89%80&src=vetmap&coordinate=gaode&callnative=1"},{"name":"庐江县汤池镇畜牧兽医站","address":"088县道与昌盛路交叉口北60米","phone":"","category":"医疗保健服务;动物医疗场所;兽医站","area":"","lng":117.092613,"lat":31.328812,"amap_id":"B0FFK7F2DI","order":9,"prev_distance_km":18.97,"cumulative_distance_km":38.451,"amap_marker_url":"https://uri.amap.com/marker?position=117.092613,31.328812&name=%E5%BA%90%E6%B1%9F%E5%8E%BF%E6%B1%A4%E6%B1%A0%E9%95%87%E7%95%9C%E7%89%A7%E5%85%BD%E5%8C%BB%E7%AB%99&src=vetmap&coordinate=gaode&callnative=1"}]}