{"summary":{"id":"d00209","province":"安徽省","city":"亳州市","district":"涡阳县","count":18,"total_distance_km":81.848,"coordinate_system":"GCJ-02 / Amap","generated_at":"2026-05-07 20:21:37"},"rows":[{"name":"大马庄鸡鸭鹅猫狗服务站","address":"029县道与十林路交叉口南140米","phone":"","category":"医疗保健服务;动物医疗场所;动物医疗场所","area":"","lng":116.077625,"lat":33.472125,"amap_id":"B0LKSUIHKU","order":1,"prev_distance_km":0.0,"cumulative_distance_km":0.0,"amap_marker_url":"https://uri.amap.com/marker?position=116.077625,33.472125&name=%E5%A4%A7%E9%A9%AC%E5%BA%84%E9%B8%A1%E9%B8%AD%E9%B9%85%E7%8C%AB%E7%8B%97%E6%9C%8D%E5%8A%A1%E7%AB%99&src=vetmap&coordinate=gaode&callnative=1"},{"name":"杰大宠物医院(兰园店)","address":"谷水南路绿城兰园西门21幢105号","phone":"0558-7377776","category":"医疗保健服务;动物医疗场所;宠物诊所","area":"","lng":116.196033,"lat":33.481476,"amap_id":"B0G1MUV7G6","order":2,"prev_distance_km":11.031,"cumulative_distance_km":11.031,"amap_marker_url":"https://uri.amap.com/marker?position=116.196033,33.481476&name=%E6%9D%B0%E5%A4%A7%E5%AE%A0%E7%89%A9%E5%8C%BB%E9%99%A2%28%E5%85%B0%E5%9B%AD%E5%BA%97%29&src=vetmap&coordinate=gaode&callnative=1"},{"name":"徽宠动物医院","address":"星园街道向阳河南侧刘西路天河瑞景7号楼104号","phone":"17100329888","category":"医疗保健服务;动物医疗场所;宠物诊所","area":"","lng":116.202488,"lat":33.482603,"amap_id":"B0K1DHIVDR","order":3,"prev_distance_km":0.612,"cumulative_distance_km":11.643,"amap_marker_url":"https://uri.amap.com/marker?position=116.202488,33.482603&name=%E5%BE%BD%E5%AE%A0%E5%8A%A8%E7%89%A9%E5%8C%BB%E9%99%A2&src=vetmap&coordinate=gaode&callnative=1"},{"name":"徽医宠物医院","address":"万象城","phone":"19356937668","category":"医疗保健服务;动物医疗场所;宠物诊所","area":"","lng":116.213803,"lat":33.488256,"amap_id":"B0JRTAWJIQ","order":4,"prev_distance_km":1.223,"cumulative_distance_km":12.866,"amap_marker_url":"https://uri.amap.com/marker?position=116.213803,33.488256&name=%E5%BE%BD%E5%8C%BB%E5%AE%A0%E7%89%A9%E5%8C%BB%E9%99%A2&src=vetmap&coordinate=gaode&callnative=1"},{"name":"乐康动物门诊","address":"紫光大道金色家园西南侧约90米","phone":"13156715667;15385225200","category":"医疗保健服务;动物医疗场所;宠物诊所","area":"紫光大道","lng":116.208225,"lat":33.493832,"amap_id":"B0FFM9T282","order":5,"prev_distance_km":0.807,"cumulative_distance_km":13.674,"amap_marker_url":"https://uri.amap.com/marker?position=116.208225,33.493832&name=%E4%B9%90%E5%BA%B7%E5%8A%A8%E7%89%A9%E9%97%A8%E8%AF%8A&src=vetmap&coordinate=gaode&callnative=1"},{"name":"杰大宠物医院","address":"向阳路与站前路交叉口向东50米路北","phone":"0558-7518158;18156739080","category":"医疗保健服务;动物医疗场所;宠物诊所","area":"站前路","lng":116.212846,"lat":33.496908,"amap_id":"B0FFKOS9TQ","order":6,"prev_distance_km":0.548,"cumulative_distance_km":14.222,"amap_marker_url":"https://uri.amap.com/marker?position=116.212846,33.496908&name=%E6%9D%B0%E5%A4%A7%E5%AE%A0%E7%89%A9%E5%8C%BB%E9%99%A2&src=vetmap&coordinate=gaode&callnative=1"},{"name":"大坝路宠物医院","address":"康宁路与站前路交叉口北180米","phone":"","category":"医疗保健服务;动物医疗场所;宠物诊所","area":"站前路","lng":116.214794,"lat":33.49781,"amap_id":"B0J269XF8E","order":7,"prev_distance_km":0.207,"cumulative_distance_km":14.429,"amap_marker_url":"https://uri.amap.com/marker?position=116.214794,33.497810&name=%E5%A4%A7%E5%9D%9D%E8%B7%AF%E5%AE%A0%E7%89%A9%E5%8C%BB%E9%99%A2&src=vetmap&coordinate=gaode&callnative=1"},{"name":"伯勒宠物医院","address":"集贤路(东环路)建设路交叉口北50米路东","phone":"13965773121","category":"医疗保健服务;动物医疗场所;宠物诊所","area":"东环路","lng":116.224441,"lat":33.505037,"amap_id":"B0FFFVIBON","order":8,"prev_distance_km":1.202,"cumulative_distance_km":15.631,"amap_marker_url":"https://uri.amap.com/marker?position=116.224441,33.505037&name=%E4%BC%AF%E5%8B%92%E5%AE%A0%E7%89%A9%E5%8C%BB%E9%99%A2&src=vetmap&coordinate=gaode&callnative=1"},{"name":"纯辉畜禽治疗中心","address":"革新学校南门旁","phone":"15556778880","category":"医疗保健服务;动物医疗场所;宠物诊所","area":"","lng":116.211439,"lat":33.505782,"amap_id":"B0FFG28P4W","order":9,"prev_distance_km":1.208,"cumulative_distance_km":16.839,"amap_marker_url":"https://uri.amap.com/marker?position=116.211439,33.505782&name=%E7%BA%AF%E8%BE%89%E7%95%9C%E7%A6%BD%E6%B2%BB%E7%96%97%E4%B8%AD%E5%BF%83&src=vetmap&coordinate=gaode&callnative=1"},{"name":"畜禽门诊兽药饲料","address":"胜利路与红星街交叉口西北60米","phone":"","category":"医疗保健服务;动物医疗场所;兽医站","area":"","lng":116.211375,"lat":33.505775,"amap_id":"B0M67ZX08B","order":10,"prev_distance_km":0.006,"cumulative_distance_km":16.845,"amap_marker_url":"https://uri.amap.com/marker?position=116.211375,33.505775&name=%E7%95%9C%E7%A6%BD%E9%97%A8%E8%AF%8A%E5%85%BD%E8%8D%AF%E9%A5%B2%E6%96%99&src=vetmap&coordinate=gaode&callnative=1"},{"name":"涡阳县畜牧局畜禽兽药服务部","address":"城关街道雉河楼南头","phone":"","category":"医疗保健服务;动物医疗场所;兽医站","area":"淮中大道","lng":116.208253,"lat":33.502176,"amap_id":"B022E03MLH","order":11,"prev_distance_km":0.494,"cumulative_distance_km":17.339,"amap_marker_url":"https://uri.amap.com/marker?position=116.208253,33.502176&name=%E6%B6%A1%E9%98%B3%E5%8E%BF%E7%95%9C%E7%89%A7%E5%B1%80%E7%95%9C%E7%A6%BD%E5%85%BD%E8%8D%AF%E6%9C%8D%E5%8A%A1%E9%83%A8&src=vetmap&coordinate=gaode&callnative=1"},{"name":"华康宠物医院","address":"西环路与站前路交叉口东100米路南","phone":"13856706390;13966895997","category":"医疗保健服务;动物医疗场所;宠物诊所","area":"紫光大道","lng":116.202691,"lat":33.498639,"amap_id":"B0FFGL07QU","order":12,"prev_distance_km":0.649,"cumulative_distance_km":17.988,"amap_marker_url":"https://uri.amap.com/marker?position=116.202691,33.498639&name=%E5%8D%8E%E5%BA%B7%E5%AE%A0%E7%89%A9%E5%8C%BB%E9%99%A2&src=vetmap&coordinate=gaode&callnative=1"},{"name":"杰大宠物医院(总店)","address":"胜利西路中纯石油加油站东100米路北","phone":"0558-7518120;18056803730","category":"医疗保健服务;动物医疗场所;宠物诊所","area":"胜利西路","lng":116.195532,"lat":33.510073,"amap_id":"B0FFGLPIVG","order":13,"prev_distance_km":1.434,"cumulative_distance_km":19.422,"amap_marker_url":"https://uri.amap.com/marker?position=116.195532,33.510073&name=%E6%9D%B0%E5%A4%A7%E5%AE%A0%E7%89%A9%E5%8C%BB%E9%99%A2%28%E6%80%BB%E5%BA%97%29&src=vetmap&coordinate=gaode&callnative=1"},{"name":"涡阳县新兴镇畜牧兽医站","address":"204乡道南200米","phone":"","category":"医疗保健服务;动物医疗场所;兽医站","area":"","lng":116.216479,"lat":33.703102,"amap_id":"B0FFJAJOY7","order":14,"prev_distance_km":21.551,"cumulative_distance_km":40.973,"amap_marker_url":"https://uri.amap.com/marker?position=116.216479,33.703102&name=%E6%B6%A1%E9%98%B3%E5%8E%BF%E6%96%B0%E5%85%B4%E9%95%87%E7%95%9C%E7%89%A7%E5%85%BD%E5%8C%BB%E7%AB%99&src=vetmap&coordinate=gaode&callnative=1"},{"name":"东方帝维动物防疫服务点","address":"丹城镇齐东村徐庄","phone":"","category":"医疗保健服务;动物医疗场所;宠物诊所","area":"","lng":116.422276,"lat":33.751783,"amap_id":"B0J39UHDJ6","order":15,"prev_distance_km":19.787,"cumulative_distance_km":60.76,"amap_marker_url":"https://uri.amap.com/marker?position=116.422276,33.751783&name=%E4%B8%9C%E6%96%B9%E5%B8%9D%E7%BB%B4%E5%8A%A8%E7%89%A9%E9%98%B2%E7%96%AB%E6%9C%8D%E5%8A%A1%E7%82%B9&src=vetmap&coordinate=gaode&callnative=1"},{"name":"淘实惠兽医站","address":"黄石公路与105乡道交叉口西180米","phone":"","category":"医疗保健服务;动物医疗场所;兽医站","area":"","lng":116.424564,"lat":33.702748,"amap_id":"B0GK27IK3U","order":16,"prev_distance_km":5.457,"cumulative_distance_km":66.217,"amap_marker_url":"https://uri.amap.com/marker?position=116.424564,33.702748&name=%E6%B7%98%E5%AE%9E%E6%83%A0%E5%85%BD%E5%8C%BB%E7%AB%99&src=vetmap&coordinate=gaode&callnative=1"},{"name":"涡阳县青町镇兽医站","address":"人民路与青中路交叉口东100米","phone":"","category":"医疗保健服务;动物医疗场所;兽医站","area":"","lng":116.437495,"lat":33.619252,"amap_id":"B0KU1PL2XA","order":17,"prev_distance_km":9.361,"cumulative_distance_km":75.578,"amap_marker_url":"https://uri.amap.com/marker?position=116.437495,33.619252&name=%E6%B6%A1%E9%98%B3%E5%8E%BF%E9%9D%92%E7%94%BA%E9%95%87%E5%85%BD%E5%8C%BB%E7%AB%99&src=vetmap&coordinate=gaode&callnative=1"},{"name":"兽医站","address":"青疃镇殷庙村人社服务窗口东侧90米","phone":"","category":"医疗保健服务;动物医疗场所;兽医站","area":"","lng":116.457733,"lat":33.565444,"amap_id":"B0HKMCAHNI","order":18,"prev_distance_km":6.27,"cumulative_distance_km":81.848,"amap_marker_url":"https://uri.amap.com/marker?position=116.457733,33.565444&name=%E5%85%BD%E5%8C%BB%E7%AB%99&src=vetmap&coordinate=gaode&callnative=1"}]}