{"summary":{"id":"d00214","province":"安徽省","city":"六安市","district":"裕安区","count":17,"total_distance_km":50.454,"coordinate_system":"GCJ-02 / Amap","generated_at":"2026-05-07 19:56:06"},"rows":[{"name":"富民兽医药经营门市部","address":"016县道与街道交叉口东北60米","phone":"","category":"医疗保健服务;动物医疗场所;动物医疗场所","area":"","lng":116.144375,"lat":31.674675,"amap_id":"B0LDCHTTYZ","order":1,"prev_distance_km":0.0,"cumulative_distance_km":0.0,"amap_marker_url":"https://uri.amap.com/marker?position=116.144375,31.674675&name=%E5%AF%8C%E6%B0%91%E5%85%BD%E5%8C%BB%E8%8D%AF%E7%BB%8F%E8%90%A5%E9%97%A8%E5%B8%82%E9%83%A8&src=vetmap&coordinate=gaode&callnative=1"},{"name":"独山镇兽医站","address":"独山镇兴泰路67号","phone":"","category":"医疗保健服务;动物医疗场所;兽医站","area":"","lng":116.226997,"lat":31.611072,"amap_id":"B0FFKQX9LG","order":2,"prev_distance_km":10.545,"cumulative_distance_km":10.545,"amap_marker_url":"https://uri.amap.com/marker?position=116.226997,31.611072&name=%E7%8B%AC%E5%B1%B1%E9%95%87%E5%85%BD%E5%8C%BB%E7%AB%99&src=vetmap&coordinate=gaode&callnative=1"},{"name":"吾爱宠物医院","address":"城南镇南河佳苑二期磨子潭中路71号","phone":"13731971976","category":"医疗保健服务;动物医疗场所;宠物诊所","area":"","lng":116.469539,"lat":31.704448,"amap_id":"B0L2ZZ3VXE","order":3,"prev_distance_km":25.195,"cumulative_distance_km":35.74,"amap_marker_url":"https://uri.amap.com/marker?position=116.469539,31.704448&name=%E5%90%BE%E7%88%B1%E5%AE%A0%E7%89%A9%E5%8C%BB%E9%99%A2&src=vetmap&coordinate=gaode&callnative=1"},{"name":"哆趣宠物医院","address":"兰花路198号","phone":"14790300446;18712346090","category":"医疗保健服务;动物医疗场所;宠物诊所","area":"","lng":116.468552,"lat":31.713698,"amap_id":"B0JAJU0NVB","order":4,"prev_distance_km":1.033,"cumulative_distance_km":36.773,"amap_marker_url":"https://uri.amap.com/marker?position=116.468552,31.713698&name=%E5%93%86%E8%B6%A3%E5%AE%A0%E7%89%A9%E5%8C%BB%E9%99%A2&src=vetmap&coordinate=gaode&callnative=1"},{"name":"吾爱宠物医院凯旋官邸店","address":"正东凯旋官邸嵩寮岩路179号","phone":"18205645958","category":"医疗保健服务;动物医疗场所;宠物诊所","area":"","lng":116.469975,"lat":31.733775,"amap_id":"B0LDYC2LD7","order":5,"prev_distance_km":2.237,"cumulative_distance_km":39.009,"amap_marker_url":"https://uri.amap.com/marker?position=116.469975,31.733775&name=%E5%90%BE%E7%88%B1%E5%AE%A0%E7%89%A9%E5%8C%BB%E9%99%A2%E5%87%AF%E6%97%8B%E5%AE%98%E9%82%B8%E5%BA%97&src=vetmap&coordinate=gaode&callnative=1"},{"name":"七鑫宠物医院(丹霞公馆店)","address":"城南镇丹霞公馆东门26号楼103商铺","phone":"18175483265","category":"医疗保健服务;动物医疗场所;宠物诊所","area":"","lng":116.470241,"lat":31.735453,"amap_id":"B0L6MHNMBQ","order":6,"prev_distance_km":0.188,"cumulative_distance_km":39.198,"amap_marker_url":"https://uri.amap.com/marker?position=116.470241,31.735453&name=%E4%B8%83%E9%91%AB%E5%AE%A0%E7%89%A9%E5%8C%BB%E9%99%A2%28%E4%B8%B9%E9%9C%9E%E5%85%AC%E9%A6%86%E5%BA%97%29&src=vetmap&coordinate=gaode&callnative=1"},{"name":"易泰宠物医院","address":"丽康路邻里拾光3号楼106","phone":"0564-3216491;16756092222","category":"医疗保健服务;动物医疗场所;宠物诊所","area":"","lng":116.49284,"lat":31.73303,"amap_id":"B0K1YHBLDK","order":7,"prev_distance_km":2.154,"cumulative_distance_km":41.352,"amap_marker_url":"https://uri.amap.com/marker?position=116.492840,31.733030&name=%E6%98%93%E6%B3%B0%E5%AE%A0%E7%89%A9%E5%8C%BB%E9%99%A2&src=vetmap&coordinate=gaode&callnative=1"},{"name":"梓宇宠物医院(锦绣华府店)","address":"锦绣华府12栋楼B102室","phone":"18075007100","category":"医疗保健服务;动物医疗场所;宠物诊所","area":"","lng":116.502927,"lat":31.723606,"amap_id":"B0G3HH5BJE","order":8,"prev_distance_km":1.417,"cumulative_distance_km":42.769,"amap_marker_url":"https://uri.amap.com/marker?position=116.502927,31.723606&name=%E6%A2%93%E5%AE%87%E5%AE%A0%E7%89%A9%E5%8C%BB%E9%99%A2%28%E9%94%A6%E7%BB%A3%E5%8D%8E%E5%BA%9C%E5%BA%97%29&src=vetmap&coordinate=gaode&callnative=1"},{"name":"首佳宠物医院(龙河路店)","address":"龙河西路华锦园小区8号楼105-206铺","phone":"0564-3333846;15055149419","category":"医疗保健服务;动物医疗场所;宠物诊所","area":"","lng":116.500725,"lat":31.739325,"amap_id":"B0FFFSQB74","order":9,"prev_distance_km":1.76,"cumulative_distance_km":44.529,"amap_marker_url":"https://uri.amap.com/marker?position=116.500725,31.739325&name=%E9%A6%96%E4%BD%B3%E5%AE%A0%E7%89%A9%E5%8C%BB%E9%99%A2%28%E9%BE%99%E6%B2%B3%E8%B7%AF%E5%BA%97%29&src=vetmap&coordinate=gaode&callnative=1"},{"name":"佳馨动物医院","address":"大别山路251号百川名庭10号楼104","phone":"17600797837;18910254725","category":"医疗保健服务;动物医疗场所;宠物诊所","area":"","lng":116.498613,"lat":31.74521,"amap_id":"B0LBG5GHBF","order":10,"prev_distance_km":0.684,"cumulative_distance_km":45.213,"amap_marker_url":"https://uri.amap.com/marker?position=116.498613,31.745210&name=%E4%BD%B3%E9%A6%A8%E5%8A%A8%E7%89%A9%E5%8C%BB%E9%99%A2&src=vetmap&coordinate=gaode&callnative=1"},{"name":"尚心宠物医院一犬猫外科中心","address":"华邦新华城禄华园11号楼101-102门面","phone":"0564-3995881;17681189312","category":"医疗保健服务;动物医疗场所;宠物诊所","area":"","lng":116.488112,"lat":31.748656,"amap_id":"B0FFMCWUO3","order":11,"prev_distance_km":1.064,"cumulative_distance_km":46.278,"amap_marker_url":"https://uri.amap.com/marker?position=116.488112,31.748656&name=%E5%B0%9A%E5%BF%83%E5%AE%A0%E7%89%A9%E5%8C%BB%E9%99%A2%E4%B8%80%E7%8A%AC%E7%8C%AB%E5%A4%96%E7%A7%91%E4%B8%AD%E5%BF%83&src=vetmap&coordinate=gaode&callnative=1"},{"name":"宠妙妙宠物医院(华邦新华城店)","address":"华邦新华城(禧华园)75栋104-204商铺宠奇妙宠物医院","phone":"18156443357","category":"医疗保健服务;动物医疗场所;宠物诊所","area":"","lng":116.486105,"lat":31.751215,"amap_id":"B0J0SCEMJM","order":12,"prev_distance_km":0.342,"cumulative_distance_km":46.62,"amap_marker_url":"https://uri.amap.com/marker?position=116.486105,31.751215&name=%E5%AE%A0%E5%A6%99%E5%A6%99%E5%AE%A0%E7%89%A9%E5%8C%BB%E9%99%A2%28%E5%8D%8E%E9%82%A6%E6%96%B0%E5%8D%8E%E5%9F%8E%E5%BA%97%29&src=vetmap&coordinate=gaode&callnative=1"},{"name":"森德宠物医院牙科·中兽医·心脏专科(华邦店)","address":"华邦新华城福华园35号楼101-102铺","phone":"13966288564","category":"医疗保健服务;动物医疗场所;宠物诊所","area":"","lng":116.488882,"lat":31.752212,"amap_id":"B0JGMS4RXN","order":13,"prev_distance_km":0.285,"cumulative_distance_km":46.905,"amap_marker_url":"https://uri.amap.com/marker?position=116.488882,31.752212&name=%E6%A3%AE%E5%BE%B7%E5%AE%A0%E7%89%A9%E5%8C%BB%E9%99%A2%E7%89%99%E7%A7%91%C2%B7%E4%B8%AD%E5%85%BD%E5%8C%BB%C2%B7%E5%BF%83%E8%84%8F%E4%B8%93%E7%A7%91%28%E5%8D%8E%E9%82%A6%E5%BA%97%29&src=vetmap&coordinate=gaode&callnative=1"},{"name":"吾爱宠物医院 总店","address":"庆安街71号","phone":"13731971976","category":"医疗保健服务;动物医疗场所;宠物诊所","area":"鼓楼新天地","lng":116.491454,"lat":31.754742,"amap_id":"B0JGU7CZW8","order":14,"prev_distance_km":0.372,"cumulative_distance_km":47.276,"amap_marker_url":"https://uri.amap.com/marker?position=116.491454,31.754742&name=%E5%90%BE%E7%88%B1%E5%AE%A0%E7%89%A9%E5%8C%BB%E9%99%A2%20%E6%80%BB%E5%BA%97&src=vetmap&coordinate=gaode&callnative=1"},{"name":"兜宠动物医院","address":"鼓楼街道解放中路407号","phone":"18919726004","category":"医疗保健服务;动物医疗场所;宠物诊所","area":"","lng":116.497032,"lat":31.760901,"amap_id":"B0M6O1N2Z0","order":15,"prev_distance_km":0.864,"cumulative_distance_km":48.141,"amap_marker_url":"https://uri.amap.com/marker?position=116.497032,31.760901&name=%E5%85%9C%E5%AE%A0%E5%8A%A8%E7%89%A9%E5%8C%BB%E9%99%A2&src=vetmap&coordinate=gaode&callnative=1"},{"name":"宠乐缘宠物诊所","address":"北塔北路鼎邦御庭2号楼32-34商铺","phone":"15505028886","category":"医疗保健服务;动物医疗场所;宠物诊所","area":"","lng":116.496598,"lat":31.764053,"amap_id":"B0K6NN4AIW","order":16,"prev_distance_km":0.353,"cumulative_distance_km":48.494,"amap_marker_url":"https://uri.amap.com/marker?position=116.496598,31.764053&name=%E5%AE%A0%E4%B9%90%E7%BC%98%E5%AE%A0%E7%89%A9%E8%AF%8A%E6%89%80&src=vetmap&coordinate=gaode&callnative=1"},{"name":"徽康宠物诊疗中心","address":"恒大御景湾四期东南门旁","phone":"18356448688","category":"医疗保健服务;动物医疗场所;宠物诊所","area":"","lng":116.484925,"lat":31.778625,"amap_id":"B0K3XAYLFS","order":17,"prev_distance_km":1.96,"cumulative_distance_km":50.454,"amap_marker_url":"https://uri.amap.com/marker?position=116.484925,31.778625&name=%E5%BE%BD%E5%BA%B7%E5%AE%A0%E7%89%A9%E8%AF%8A%E7%96%97%E4%B8%AD%E5%BF%83&src=vetmap&coordinate=gaode&callnative=1"}]}