{"summary":{"id":"d00207","province":"天津市","city":"天津市","district":"静海区","count":31,"route_count":1,"max_route_clinics":31,"total_distance_km":103.908,"coordinate_system":"GCJ-02 / Amap","generated_at":"2026-05-07 21:27:03"},"routes":[{"id":"r1","name":"第1段","count":31,"total_distance_km":103.908,"rows":[{"name":"台头镇兽医站","address":"梁台路与中心路交叉口北80米","phone":"","category":"医疗保健服务;动物医疗场所;兽医站","area":"","lng":116.788199,"lat":39.022302,"amap_id":"B001611BJF","order":1,"prev_distance_km":0.0,"cumulative_distance_km":0.0,"amap_marker_url":"https://uri.amap.com/marker?position=116.788199,39.022302&name=%E5%8F%B0%E5%A4%B4%E9%95%87%E5%85%BD%E5%8C%BB%E7%AB%99&src=vetmap&coordinate=gaode&callnative=1","route_id":"r1","route_name":"第1段"},{"name":"动物防疫","address":"聚牛老醋有限公司西南门东南60米","phone":"","category":"医疗保健服务;动物医疗场所;动物医疗场所","area":"独流镇","lng":116.899956,"lat":39.028329,"amap_id":"B0J3JC1XKD","order":2,"prev_distance_km":9.677,"cumulative_distance_km":9.677,"amap_marker_url":"https://uri.amap.com/marker?position=116.899956,39.028329&name=%E5%8A%A8%E7%89%A9%E9%98%B2%E7%96%AB&src=vetmap&coordinate=gaode&callnative=1","route_id":"r1","route_name":"第1段"},{"name":"郝大夫护生宠物医院(独流分院)","address":"独流镇嘉华园底商19号","phone":"18002000096","category":"医疗保健服务;动物医疗场所;宠物诊所","area":"","lng":116.915426,"lat":39.038182,"amap_id":"B0ID0CL7HT","order":3,"prev_distance_km":1.728,"cumulative_distance_km":11.405,"amap_marker_url":"https://uri.amap.com/marker?position=116.915426,39.038182&name=%E9%83%9D%E5%A4%A7%E5%A4%AB%E6%8A%A4%E7%94%9F%E5%AE%A0%E7%89%A9%E5%8C%BB%E9%99%A2%28%E7%8B%AC%E6%B5%81%E5%88%86%E9%99%A2%29&src=vetmap&coordinate=gaode&callnative=1","route_id":"r1","route_name":"第1段"},{"name":"王媛宠物美容","address":"静海总工会往西100米路北","phone":"13022260206","category":"医疗保健服务;动物医疗场所;动物医疗场所","area":"","lng":116.927501,"lat":38.943623,"amap_id":"B0FFHTY9UY","order":4,"prev_distance_km":10.566,"cumulative_distance_km":21.971,"amap_marker_url":"https://uri.amap.com/marker?position=116.927501,38.943623&name=%E7%8E%8B%E5%AA%9B%E5%AE%A0%E7%89%A9%E7%BE%8E%E5%AE%B9&src=vetmap&coordinate=gaode&callnative=1","route_id":"r1","route_name":"第1段"},{"name":"灵萌宠物医院","address":"静海镇胜利大街华苑小区七号楼10号底商","phone":"18702274800;19501964600","category":"医疗保健服务;动物医疗场所;宠物诊所","area":"","lng":116.922671,"lat":38.931341,"amap_id":"B0LAAROII6","order":5,"prev_distance_km":1.428,"cumulative_distance_km":23.4,"amap_marker_url":"https://uri.amap.com/marker?position=116.922671,38.931341&name=%E7%81%B5%E8%90%8C%E5%AE%A0%E7%89%A9%E5%8C%BB%E9%99%A2&src=vetmap&coordinate=gaode&callnative=1","route_id":"r1","route_name":"第1段"},{"name":"静海宠物诊所(爱钰宠物诊所)","address":"南纬一路西段新华路超市后身150米天源里104","phone":"18702274800","category":"医疗保健服务;动物医疗场所;宠物诊所","area":"","lng":116.921943,"lat":38.927203,"amap_id":"B0FFG98UHY","order":6,"prev_distance_km":0.464,"cumulative_distance_km":23.864,"amap_marker_url":"https://uri.amap.com/marker?position=116.921943,38.927203&name=%E9%9D%99%E6%B5%B7%E5%AE%A0%E7%89%A9%E8%AF%8A%E6%89%80%28%E7%88%B1%E9%92%B0%E5%AE%A0%E7%89%A9%E8%AF%8A%E6%89%80%29&src=vetmap&coordinate=gaode&callnative=1","route_id":"r1","route_name":"第1段"},{"name":"康源宠物医院","address":"联盟路商住2号楼104-204","phone":"15620378009","category":"医疗保健服务;动物医疗场所;宠物诊所","area":"","lng":116.928956,"lat":38.92915,"amap_id":"B0K37APLMM","order":7,"prev_distance_km":0.644,"cumulative_distance_km":24.508,"amap_marker_url":"https://uri.amap.com/marker?position=116.928956,38.929150&name=%E5%BA%B7%E6%BA%90%E5%AE%A0%E7%89%A9%E5%8C%BB%E9%99%A2&src=vetmap&coordinate=gaode&callnative=1","route_id":"r1","route_name":"第1段"},{"name":"牧康宠物医院","address":"联盟路与南纬一路交口南10米路东侧","phone":"022-28919331;13920491159;15620204298","category":"医疗保健服务;动物医疗场所;宠物诊所","area":"","lng":116.929093,"lat":38.927307,"amap_id":"B0FFLQG4PX","order":8,"prev_distance_km":0.205,"cumulative_distance_km":24.713,"amap_marker_url":"https://uri.amap.com/marker?position=116.929093,38.927307&name=%E7%89%A7%E5%BA%B7%E5%AE%A0%E7%89%A9%E5%8C%BB%E9%99%A2&src=vetmap&coordinate=gaode&callnative=1","route_id":"r1","route_name":"第1段"},{"name":"福语宠物医院","address":"泰禾世家商业楼商业二联盟南街110号11门","phone":"17702226020","category":"医疗保健服务;动物医疗场所;宠物诊所","area":"","lng":116.928717,"lat":38.926927,"amap_id":"B0JRGUAQEW","order":9,"prev_distance_km":0.053,"cumulative_distance_km":24.767,"amap_marker_url":"https://uri.amap.com/marker?position=116.928717,38.926927&name=%E7%A6%8F%E8%AF%AD%E5%AE%A0%E7%89%A9%E5%8C%BB%E9%99%A2&src=vetmap&coordinate=gaode&callnative=1","route_id":"r1","route_name":"第1段"},{"name":"郝大夫护生宠物医院重急症转诊中心24H(静海分院)","address":"津德路83号","phone":"18002051780","category":"医疗保健服务;动物医疗场所;宠物诊所","area":"","lng":116.931391,"lat":38.926806,"amap_id":"B0K6GC55IU","order":10,"prev_distance_km":0.232,"cumulative_distance_km":24.998,"amap_marker_url":"https://uri.amap.com/marker?position=116.931391,38.926806&name=%E9%83%9D%E5%A4%A7%E5%A4%AB%E6%8A%A4%E7%94%9F%E5%AE%A0%E7%89%A9%E5%8C%BB%E9%99%A2%E9%87%8D%E6%80%A5%E7%97%87%E8%BD%AC%E8%AF%8A%E4%B8%AD%E5%BF%8324H%28%E9%9D%99%E6%B5%B7%E5%88%86%E9%99%A2%29&src=vetmap&coordinate=gaode&callnative=1","route_id":"r1","route_name":"第1段"},{"name":"祥健宠物诊所","address":"静海镇东平道58号","phone":"13821492128","category":"医疗保健服务;动物医疗场所;宠物诊所","area":"","lng":116.941256,"lat":38.934805,"amap_id":"B0FFHOBDXD","order":11,"prev_distance_km":1.233,"cumulative_distance_km":26.231,"amap_marker_url":"https://uri.amap.com/marker?position=116.941256,38.934805&name=%E7%A5%A5%E5%81%A5%E5%AE%A0%E7%89%A9%E8%AF%8A%E6%89%80&src=vetmap&coordinate=gaode&callnative=1","route_id":"r1","route_name":"第1段"},{"name":"振川宠物会馆","address":"地纬路与东升北里八排交叉口东60米","phone":"15620877922","category":"医疗保健服务;动物医疗场所;宠物诊所","area":"","lng":116.940351,"lat":38.93581,"amap_id":"B0FFJJ1L53","order":12,"prev_distance_km":0.136,"cumulative_distance_km":26.367,"amap_marker_url":"https://uri.amap.com/marker?position=116.940351,38.935810&name=%E6%8C%AF%E5%B7%9D%E5%AE%A0%E7%89%A9%E4%BC%9A%E9%A6%86&src=vetmap&coordinate=gaode&callnative=1","route_id":"r1","route_name":"第1段"},{"name":"瑞康宠物诊所(静海东城店)","address":"平安里八排19号","phone":"13662062471","category":"医疗保健服务;动物医疗场所;宠物诊所","area":"","lng":116.947539,"lat":38.939154,"amap_id":"B0FFHIBFTT","order":13,"prev_distance_km":0.724,"cumulative_distance_km":27.092,"amap_marker_url":"https://uri.amap.com/marker?position=116.947539,38.939154&name=%E7%91%9E%E5%BA%B7%E5%AE%A0%E7%89%A9%E8%AF%8A%E6%89%80%28%E9%9D%99%E6%B5%B7%E4%B8%9C%E5%9F%8E%E5%BA%97%29&src=vetmap&coordinate=gaode&callnative=1","route_id":"r1","route_name":"第1段"},{"name":"众合宠物诊疗中心(静海店)","address":"锦江欣苑西门南50米","phone":"18510839089","category":"医疗保健服务;动物医疗场所;宠物诊所","area":"","lng":116.955749,"lat":38.931211,"amap_id":"B0J1SAS16G","order":14,"prev_distance_km":1.133,"cumulative_distance_km":28.225,"amap_marker_url":"https://uri.amap.com/marker?position=116.955749,38.931211&name=%E4%BC%97%E5%90%88%E5%AE%A0%E7%89%A9%E8%AF%8A%E7%96%97%E4%B8%AD%E5%BF%83%28%E9%9D%99%E6%B5%B7%E5%BA%97%29&src=vetmap&coordinate=gaode&callnative=1","route_id":"r1","route_name":"第1段"},{"name":"乖乖宠物医院(静海分院)","address":"海馨园南门东80米","phone":"","category":"医疗保健服务;动物医疗场所;宠物诊所","area":"","lng":116.956777,"lat":38.933928,"amap_id":"B0KRL76KKG","order":15,"prev_distance_km":0.315,"cumulative_distance_km":28.54,"amap_marker_url":"https://uri.amap.com/marker?position=116.956777,38.933928&name=%E4%B9%96%E4%B9%96%E5%AE%A0%E7%89%A9%E5%8C%BB%E9%99%A2%28%E9%9D%99%E6%B5%B7%E5%88%86%E9%99%A2%29&src=vetmap&coordinate=gaode&callnative=1","route_id":"r1","route_name":"第1段"},{"name":"熊猫宠物医院(静海医院)","address":"海馨园南2门西90米","phone":"18630867867","category":"医疗保健服务;动物医疗场所;宠物诊所","area":"","lng":116.956869,"lat":38.933955,"amap_id":"B0HR5ZACL1","order":16,"prev_distance_km":0.009,"cumulative_distance_km":28.548,"amap_marker_url":"https://uri.amap.com/marker?position=116.956869,38.933955&name=%E7%86%8A%E7%8C%AB%E5%AE%A0%E7%89%A9%E5%8C%BB%E9%99%A2%28%E9%9D%99%E6%B5%B7%E5%8C%BB%E9%99%A2%29&src=vetmap&coordinate=gaode&callnative=1","route_id":"r1","route_name":"第1段"},{"name":"福语宠物医院爱宠店","address":"东方红路29号","phone":"13323458271","category":"医疗保健服务;动物医疗场所;宠物诊所","area":"","lng":116.964526,"lat":38.9349,"amap_id":"B0LDRM40YS","order":17,"prev_distance_km":0.671,"cumulative_distance_km":29.219,"amap_marker_url":"https://uri.amap.com/marker?position=116.964526,38.934900&name=%E7%A6%8F%E8%AF%AD%E5%AE%A0%E7%89%A9%E5%8C%BB%E9%99%A2%E7%88%B1%E5%AE%A0%E5%BA%97&src=vetmap&coordinate=gaode&callnative=1","route_id":"r1","route_name":"第1段"},{"name":"天宠宠物医院(静海分院)","address":"东方红路29号","phone":"17695725968","category":"医疗保健服务;动物医疗场所;宠物诊所","area":"","lng":116.964998,"lat":38.934324,"amap_id":"B0M6NDE18Z","order":18,"prev_distance_km":0.076,"cumulative_distance_km":29.295,"amap_marker_url":"https://uri.amap.com/marker?position=116.964998,38.934324&name=%E5%A4%A9%E5%AE%A0%E5%AE%A0%E7%89%A9%E5%8C%BB%E9%99%A2%28%E9%9D%99%E6%B5%B7%E5%88%86%E9%99%A2%29&src=vetmap&coordinate=gaode&callnative=1","route_id":"r1","route_name":"第1段"},{"name":"伯爵宠物生活馆","address":"静海镇东方红路东方商业街南段12-1-10号","phone":"","category":"医疗保健服务;动物医疗场所;宠物诊所","area":"","lng":116.976493,"lat":38.938194,"amap_id":"B0KG7M9CJK","order":19,"prev_distance_km":1.083,"cumulative_distance_km":30.378,"amap_marker_url":"https://uri.amap.com/marker?position=116.976493,38.938194&name=%E4%BC%AF%E7%88%B5%E5%AE%A0%E7%89%A9%E7%94%9F%E6%B4%BB%E9%A6%86&src=vetmap&coordinate=gaode&callnative=1","route_id":"r1","route_name":"第1段"},{"name":"忠爱宠物医院(东方商业街店)","address":"朝阳街道东方商业街二段B6楼B6-13","phone":"13034398003","category":"医疗保健服务;动物医疗场所;宠物诊所","area":"","lng":116.976978,"lat":38.940783,"amap_id":"B0JB3CERU1","order":20,"prev_distance_km":0.291,"cumulative_distance_km":30.669,"amap_marker_url":"https://uri.amap.com/marker?position=116.976978,38.940783&name=%E5%BF%A0%E7%88%B1%E5%AE%A0%E7%89%A9%E5%8C%BB%E9%99%A2%28%E4%B8%9C%E6%96%B9%E5%95%86%E4%B8%9A%E8%A1%97%E5%BA%97%29&src=vetmap&coordinate=gaode&callnative=1","route_id":"r1","route_name":"第1段"},{"name":"同善祥兽药","address":"双窑路与团王线交叉口东南20米","phone":"","category":"购物服务;购物相关场所;购物相关场所|医疗保健服务;动物医疗场所;动物医疗场所","area":"","lng":117.045698,"lat":38.923031,"amap_id":"B0KUDL6IYR","order":21,"prev_distance_km":6.263,"cumulative_distance_km":36.933,"amap_marker_url":"https://uri.amap.com/marker?position=117.045698,38.923031&name=%E5%90%8C%E5%96%84%E7%A5%A5%E5%85%BD%E8%8D%AF&src=vetmap&coordinate=gaode&callnative=1","route_id":"r1","route_name":"第1段"},{"name":"津门宠物诊所","address":"团泊镇津王路逸湖岸南园底商(麦当劳正对面)","phone":"","category":"医疗保健服务;动物医疗场所;宠物诊所","area":"","lng":117.155001,"lat":38.892279,"amap_id":"B0J3BCOR16","order":22,"prev_distance_km":10.057,"cumulative_distance_km":46.99,"amap_marker_url":"https://uri.amap.com/marker?position=117.155001,38.892279&name=%E6%B4%A5%E9%97%A8%E5%AE%A0%E7%89%A9%E8%AF%8A%E6%89%80&src=vetmap&coordinate=gaode&callnative=1","route_id":"r1","route_name":"第1段"},{"name":"天津忠爱仁宠宠物医院","address":"守仁堂中西医结合诊所南侧","phone":"13132296508","category":"医疗保健服务;动物医疗场所;宠物诊所","area":"","lng":117.140483,"lat":38.885207,"amap_id":"B0LUO5GQNS","order":23,"prev_distance_km":1.482,"cumulative_distance_km":48.472,"amap_marker_url":"https://uri.amap.com/marker?position=117.140483,38.885207&name=%E5%A4%A9%E6%B4%A5%E5%BF%A0%E7%88%B1%E4%BB%81%E5%AE%A0%E5%AE%A0%E7%89%A9%E5%8C%BB%E9%99%A2&src=vetmap&coordinate=gaode&callnative=1","route_id":"r1","route_name":"第1段"},{"name":"亿佳宠物医院(团泊东店)","address":"团泊新城东区碧桂园丽泽府底商107号","phone":"15802231818;18622081010","category":"医疗保健服务;动物医疗场所;宠物诊所","area":"","lng":117.134155,"lat":38.872527,"amap_id":"B0HG4SSR3R","order":24,"prev_distance_km":1.513,"cumulative_distance_km":49.984,"amap_marker_url":"https://uri.amap.com/marker?position=117.134155,38.872527&name=%E4%BA%BF%E4%BD%B3%E5%AE%A0%E7%89%A9%E5%8C%BB%E9%99%A2%28%E5%9B%A2%E6%B3%8A%E4%B8%9C%E5%BA%97%29&src=vetmap&coordinate=gaode&callnative=1","route_id":"r1","route_name":"第1段"},{"name":"静海区大邱庄动物检疫申报点","address":"百亿道5号","phone":"","category":"医疗保健服务;动物医疗场所;动物医疗场所","area":"大邱庄镇","lng":117.069364,"lat":38.861233,"amap_id":"B0KGFC3T2L","order":25,"prev_distance_km":5.748,"cumulative_distance_km":55.733,"amap_marker_url":"https://uri.amap.com/marker?position=117.069364,38.861233&name=%E9%9D%99%E6%B5%B7%E5%8C%BA%E5%A4%A7%E9%82%B1%E5%BA%84%E5%8A%A8%E7%89%A9%E6%A3%80%E7%96%AB%E7%94%B3%E6%8A%A5%E7%82%B9&src=vetmap&coordinate=gaode&callnative=1","route_id":"r1","route_name":"第1段"},{"name":"宠美满贝康宠物诊所","address":"大邱庄镇(名仕博郡)顺驰小区南门对面","phone":"13752501863","category":"医疗保健服务;动物医疗场所;宠物诊所","area":"大邱庄镇","lng":117.063955,"lat":38.84014,"amap_id":"B0GKC6O7TE","order":26,"prev_distance_km":2.392,"cumulative_distance_km":58.124,"amap_marker_url":"https://uri.amap.com/marker?position=117.063955,38.840140&name=%E5%AE%A0%E7%BE%8E%E6%BB%A1%E8%B4%9D%E5%BA%B7%E5%AE%A0%E7%89%A9%E8%AF%8A%E6%89%80&src=vetmap&coordinate=gaode&callnative=1","route_id":"r1","route_name":"第1段"},{"name":"旺嘟嘟宠物医院","address":"长江道与嵩山路交叉口北300米","phone":"","category":"医疗保健服务;动物医疗场所;宠物诊所","area":"大邱庄镇","lng":117.065808,"lat":38.839181,"amap_id":"B0LG15T25H","order":27,"prev_distance_km":0.193,"cumulative_distance_km":58.317,"amap_marker_url":"https://uri.amap.com/marker?position=117.065808,38.839181&name=%E6%97%BA%E5%98%9F%E5%98%9F%E5%AE%A0%E7%89%A9%E5%8C%BB%E9%99%A2&src=vetmap&coordinate=gaode&callnative=1","route_id":"r1","route_name":"第1段"},{"name":"郝大夫护生宠物医院(大邱庄分院)","address":"香港街北段8号","phone":"17320200303","category":"医疗保健服务;动物医疗场所;宠物诊所","area":"大邱庄镇","lng":117.062426,"lat":38.836082,"amap_id":"B0J375WDVZ","order":28,"prev_distance_km":0.452,"cumulative_distance_km":58.769,"amap_marker_url":"https://uri.amap.com/marker?position=117.062426,38.836082&name=%E9%83%9D%E5%A4%A7%E5%A4%AB%E6%8A%A4%E7%94%9F%E5%AE%A0%E7%89%A9%E5%8C%BB%E9%99%A2%28%E5%A4%A7%E9%82%B1%E5%BA%84%E5%88%86%E9%99%A2%29&src=vetmap&coordinate=gaode&callnative=1","route_id":"r1","route_name":"第1段"},{"name":"金牧康兽药","address":"蔡中路与湾西路交叉口东180米","phone":"","category":"购物服务;购物相关场所;购物相关场所|医疗保健服务;动物医疗场所;动物医疗场所","area":"","lng":117.097325,"lat":38.738425,"amap_id":"B0LDPRXP37","order":29,"prev_distance_km":11.272,"cumulative_distance_km":70.042,"amap_marker_url":"https://uri.amap.com/marker?position=117.097325,38.738425&name=%E9%87%91%E7%89%A7%E5%BA%B7%E5%85%BD%E8%8D%AF&src=vetmap&coordinate=gaode&callnative=1","route_id":"r1","route_name":"第1段"},{"name":"郝大夫护生宠物医院唐官屯分院24h","address":"唐官屯镇京福公路4-151","phone":"13602013255","category":"医疗保健服务;动物医疗场所;宠物诊所","area":"","lng":116.916981,"lat":38.710776,"amap_id":"B0K31CPOHE","order":30,"prev_distance_km":15.944,"cumulative_distance_km":85.986,"amap_marker_url":"https://uri.amap.com/marker?position=116.916981,38.710776&name=%E9%83%9D%E5%A4%A7%E5%A4%AB%E6%8A%A4%E7%94%9F%E5%AE%A0%E7%89%A9%E5%8C%BB%E9%99%A2%E5%94%90%E5%AE%98%E5%B1%AF%E5%88%86%E9%99%A224h&src=vetmap&coordinate=gaode&callnative=1","route_id":"r1","route_name":"第1段"},{"name":"郝大夫护生宠物医院(子牙分院24h)","address":"商品街北排32号","phone":"15631308899","category":"医疗保健服务;动物医疗场所;宠物诊所","area":"","lng":116.769828,"lat":38.82397,"amap_id":"B0K0KDC2JF","order":31,"prev_distance_km":17.922,"cumulative_distance_km":103.908,"amap_marker_url":"https://uri.amap.com/marker?position=116.769828,38.823970&name=%E9%83%9D%E5%A4%A7%E5%A4%AB%E6%8A%A4%E7%94%9F%E5%AE%A0%E7%89%A9%E5%8C%BB%E9%99%A2%28%E5%AD%90%E7%89%99%E5%88%86%E9%99%A224h%29&src=vetmap&coordinate=gaode&callnative=1","route_id":"r1","route_name":"第1段"}]}],"rows":[{"name":"台头镇兽医站","address":"梁台路与中心路交叉口北80米","phone":"","category":"医疗保健服务;动物医疗场所;兽医站","area":"","lng":116.788199,"lat":39.022302,"amap_id":"B001611BJF","order":1,"prev_distance_km":0.0,"cumulative_distance_km":0.0,"amap_marker_url":"https://uri.amap.com/marker?position=116.788199,39.022302&name=%E5%8F%B0%E5%A4%B4%E9%95%87%E5%85%BD%E5%8C%BB%E7%AB%99&src=vetmap&coordinate=gaode&callnative=1","route_id":"r1","route_name":"第1段","global_order":1},{"name":"动物防疫","address":"聚牛老醋有限公司西南门东南60米","phone":"","category":"医疗保健服务;动物医疗场所;动物医疗场所","area":"独流镇","lng":116.899956,"lat":39.028329,"amap_id":"B0J3JC1XKD","order":2,"prev_distance_km":9.677,"cumulative_distance_km":9.677,"amap_marker_url":"https://uri.amap.com/marker?position=116.899956,39.028329&name=%E5%8A%A8%E7%89%A9%E9%98%B2%E7%96%AB&src=vetmap&coordinate=gaode&callnative=1","route_id":"r1","route_name":"第1段","global_order":2},{"name":"郝大夫护生宠物医院(独流分院)","address":"独流镇嘉华园底商19号","phone":"18002000096","category":"医疗保健服务;动物医疗场所;宠物诊所","area":"","lng":116.915426,"lat":39.038182,"amap_id":"B0ID0CL7HT","order":3,"prev_distance_km":1.728,"cumulative_distance_km":11.405,"amap_marker_url":"https://uri.amap.com/marker?position=116.915426,39.038182&name=%E9%83%9D%E5%A4%A7%E5%A4%AB%E6%8A%A4%E7%94%9F%E5%AE%A0%E7%89%A9%E5%8C%BB%E9%99%A2%28%E7%8B%AC%E6%B5%81%E5%88%86%E9%99%A2%29&src=vetmap&coordinate=gaode&callnative=1","route_id":"r1","route_name":"第1段","global_order":3},{"name":"王媛宠物美容","address":"静海总工会往西100米路北","phone":"13022260206","category":"医疗保健服务;动物医疗场所;动物医疗场所","area":"","lng":116.927501,"lat":38.943623,"amap_id":"B0FFHTY9UY","order":4,"prev_distance_km":10.566,"cumulative_distance_km":21.971,"amap_marker_url":"https://uri.amap.com/marker?position=116.927501,38.943623&name=%E7%8E%8B%E5%AA%9B%E5%AE%A0%E7%89%A9%E7%BE%8E%E5%AE%B9&src=vetmap&coordinate=gaode&callnative=1","route_id":"r1","route_name":"第1段","global_order":4},{"name":"灵萌宠物医院","address":"静海镇胜利大街华苑小区七号楼10号底商","phone":"18702274800;19501964600","category":"医疗保健服务;动物医疗场所;宠物诊所","area":"","lng":116.922671,"lat":38.931341,"amap_id":"B0LAAROII6","order":5,"prev_distance_km":1.428,"cumulative_distance_km":23.4,"amap_marker_url":"https://uri.amap.com/marker?position=116.922671,38.931341&name=%E7%81%B5%E8%90%8C%E5%AE%A0%E7%89%A9%E5%8C%BB%E9%99%A2&src=vetmap&coordinate=gaode&callnative=1","route_id":"r1","route_name":"第1段","global_order":5},{"name":"静海宠物诊所(爱钰宠物诊所)","address":"南纬一路西段新华路超市后身150米天源里104","phone":"18702274800","category":"医疗保健服务;动物医疗场所;宠物诊所","area":"","lng":116.921943,"lat":38.927203,"amap_id":"B0FFG98UHY","order":6,"prev_distance_km":0.464,"cumulative_distance_km":23.864,"amap_marker_url":"https://uri.amap.com/marker?position=116.921943,38.927203&name=%E9%9D%99%E6%B5%B7%E5%AE%A0%E7%89%A9%E8%AF%8A%E6%89%80%28%E7%88%B1%E9%92%B0%E5%AE%A0%E7%89%A9%E8%AF%8A%E6%89%80%29&src=vetmap&coordinate=gaode&callnative=1","route_id":"r1","route_name":"第1段","global_order":6},{"name":"康源宠物医院","address":"联盟路商住2号楼104-204","phone":"15620378009","category":"医疗保健服务;动物医疗场所;宠物诊所","area":"","lng":116.928956,"lat":38.92915,"amap_id":"B0K37APLMM","order":7,"prev_distance_km":0.644,"cumulative_distance_km":24.508,"amap_marker_url":"https://uri.amap.com/marker?position=116.928956,38.929150&name=%E5%BA%B7%E6%BA%90%E5%AE%A0%E7%89%A9%E5%8C%BB%E9%99%A2&src=vetmap&coordinate=gaode&callnative=1","route_id":"r1","route_name":"第1段","global_order":7},{"name":"牧康宠物医院","address":"联盟路与南纬一路交口南10米路东侧","phone":"022-28919331;13920491159;15620204298","category":"医疗保健服务;动物医疗场所;宠物诊所","area":"","lng":116.929093,"lat":38.927307,"amap_id":"B0FFLQG4PX","order":8,"prev_distance_km":0.205,"cumulative_distance_km":24.713,"amap_marker_url":"https://uri.amap.com/marker?position=116.929093,38.927307&name=%E7%89%A7%E5%BA%B7%E5%AE%A0%E7%89%A9%E5%8C%BB%E9%99%A2&src=vetmap&coordinate=gaode&callnative=1","route_id":"r1","route_name":"第1段","global_order":8},{"name":"福语宠物医院","address":"泰禾世家商业楼商业二联盟南街110号11门","phone":"17702226020","category":"医疗保健服务;动物医疗场所;宠物诊所","area":"","lng":116.928717,"lat":38.926927,"amap_id":"B0JRGUAQEW","order":9,"prev_distance_km":0.053,"cumulative_distance_km":24.767,"amap_marker_url":"https://uri.amap.com/marker?position=116.928717,38.926927&name=%E7%A6%8F%E8%AF%AD%E5%AE%A0%E7%89%A9%E5%8C%BB%E9%99%A2&src=vetmap&coordinate=gaode&callnative=1","route_id":"r1","route_name":"第1段","global_order":9},{"name":"郝大夫护生宠物医院重急症转诊中心24H(静海分院)","address":"津德路83号","phone":"18002051780","category":"医疗保健服务;动物医疗场所;宠物诊所","area":"","lng":116.931391,"lat":38.926806,"amap_id":"B0K6GC55IU","order":10,"prev_distance_km":0.232,"cumulative_distance_km":24.998,"amap_marker_url":"https://uri.amap.com/marker?position=116.931391,38.926806&name=%E9%83%9D%E5%A4%A7%E5%A4%AB%E6%8A%A4%E7%94%9F%E5%AE%A0%E7%89%A9%E5%8C%BB%E9%99%A2%E9%87%8D%E6%80%A5%E7%97%87%E8%BD%AC%E8%AF%8A%E4%B8%AD%E5%BF%8324H%28%E9%9D%99%E6%B5%B7%E5%88%86%E9%99%A2%29&src=vetmap&coordinate=gaode&callnative=1","route_id":"r1","route_name":"第1段","global_order":10},{"name":"祥健宠物诊所","address":"静海镇东平道58号","phone":"13821492128","category":"医疗保健服务;动物医疗场所;宠物诊所","area":"","lng":116.941256,"lat":38.934805,"amap_id":"B0FFHOBDXD","order":11,"prev_distance_km":1.233,"cumulative_distance_km":26.231,"amap_marker_url":"https://uri.amap.com/marker?position=116.941256,38.934805&name=%E7%A5%A5%E5%81%A5%E5%AE%A0%E7%89%A9%E8%AF%8A%E6%89%80&src=vetmap&coordinate=gaode&callnative=1","route_id":"r1","route_name":"第1段","global_order":11},{"name":"振川宠物会馆","address":"地纬路与东升北里八排交叉口东60米","phone":"15620877922","category":"医疗保健服务;动物医疗场所;宠物诊所","area":"","lng":116.940351,"lat":38.93581,"amap_id":"B0FFJJ1L53","order":12,"prev_distance_km":0.136,"cumulative_distance_km":26.367,"amap_marker_url":"https://uri.amap.com/marker?position=116.940351,38.935810&name=%E6%8C%AF%E5%B7%9D%E5%AE%A0%E7%89%A9%E4%BC%9A%E9%A6%86&src=vetmap&coordinate=gaode&callnative=1","route_id":"r1","route_name":"第1段","global_order":12},{"name":"瑞康宠物诊所(静海东城店)","address":"平安里八排19号","phone":"13662062471","category":"医疗保健服务;动物医疗场所;宠物诊所","area":"","lng":116.947539,"lat":38.939154,"amap_id":"B0FFHIBFTT","order":13,"prev_distance_km":0.724,"cumulative_distance_km":27.092,"amap_marker_url":"https://uri.amap.com/marker?position=116.947539,38.939154&name=%E7%91%9E%E5%BA%B7%E5%AE%A0%E7%89%A9%E8%AF%8A%E6%89%80%28%E9%9D%99%E6%B5%B7%E4%B8%9C%E5%9F%8E%E5%BA%97%29&src=vetmap&coordinate=gaode&callnative=1","route_id":"r1","route_name":"第1段","global_order":13},{"name":"众合宠物诊疗中心(静海店)","address":"锦江欣苑西门南50米","phone":"18510839089","category":"医疗保健服务;动物医疗场所;宠物诊所","area":"","lng":116.955749,"lat":38.931211,"amap_id":"B0J1SAS16G","order":14,"prev_distance_km":1.133,"cumulative_distance_km":28.225,"amap_marker_url":"https://uri.amap.com/marker?position=116.955749,38.931211&name=%E4%BC%97%E5%90%88%E5%AE%A0%E7%89%A9%E8%AF%8A%E7%96%97%E4%B8%AD%E5%BF%83%28%E9%9D%99%E6%B5%B7%E5%BA%97%29&src=vetmap&coordinate=gaode&callnative=1","route_id":"r1","route_name":"第1段","global_order":14},{"name":"乖乖宠物医院(静海分院)","address":"海馨园南门东80米","phone":"","category":"医疗保健服务;动物医疗场所;宠物诊所","area":"","lng":116.956777,"lat":38.933928,"amap_id":"B0KRL76KKG","order":15,"prev_distance_km":0.315,"cumulative_distance_km":28.54,"amap_marker_url":"https://uri.amap.com/marker?position=116.956777,38.933928&name=%E4%B9%96%E4%B9%96%E5%AE%A0%E7%89%A9%E5%8C%BB%E9%99%A2%28%E9%9D%99%E6%B5%B7%E5%88%86%E9%99%A2%29&src=vetmap&coordinate=gaode&callnative=1","route_id":"r1","route_name":"第1段","global_order":15},{"name":"熊猫宠物医院(静海医院)","address":"海馨园南2门西90米","phone":"18630867867","category":"医疗保健服务;动物医疗场所;宠物诊所","area":"","lng":116.956869,"lat":38.933955,"amap_id":"B0HR5ZACL1","order":16,"prev_distance_km":0.009,"cumulative_distance_km":28.548,"amap_marker_url":"https://uri.amap.com/marker?position=116.956869,38.933955&name=%E7%86%8A%E7%8C%AB%E5%AE%A0%E7%89%A9%E5%8C%BB%E9%99%A2%28%E9%9D%99%E6%B5%B7%E5%8C%BB%E9%99%A2%29&src=vetmap&coordinate=gaode&callnative=1","route_id":"r1","route_name":"第1段","global_order":16},{"name":"福语宠物医院爱宠店","address":"东方红路29号","phone":"13323458271","category":"医疗保健服务;动物医疗场所;宠物诊所","area":"","lng":116.964526,"lat":38.9349,"amap_id":"B0LDRM40YS","order":17,"prev_distance_km":0.671,"cumulative_distance_km":29.219,"amap_marker_url":"https://uri.amap.com/marker?position=116.964526,38.934900&name=%E7%A6%8F%E8%AF%AD%E5%AE%A0%E7%89%A9%E5%8C%BB%E9%99%A2%E7%88%B1%E5%AE%A0%E5%BA%97&src=vetmap&coordinate=gaode&callnative=1","route_id":"r1","route_name":"第1段","global_order":17},{"name":"天宠宠物医院(静海分院)","address":"东方红路29号","phone":"17695725968","category":"医疗保健服务;动物医疗场所;宠物诊所","area":"","lng":116.964998,"lat":38.934324,"amap_id":"B0M6NDE18Z","order":18,"prev_distance_km":0.076,"cumulative_distance_km":29.295,"amap_marker_url":"https://uri.amap.com/marker?position=116.964998,38.934324&name=%E5%A4%A9%E5%AE%A0%E5%AE%A0%E7%89%A9%E5%8C%BB%E9%99%A2%28%E9%9D%99%E6%B5%B7%E5%88%86%E9%99%A2%29&src=vetmap&coordinate=gaode&callnative=1","route_id":"r1","route_name":"第1段","global_order":18},{"name":"伯爵宠物生活馆","address":"静海镇东方红路东方商业街南段12-1-10号","phone":"","category":"医疗保健服务;动物医疗场所;宠物诊所","area":"","lng":116.976493,"lat":38.938194,"amap_id":"B0KG7M9CJK","order":19,"prev_distance_km":1.083,"cumulative_distance_km":30.378,"amap_marker_url":"https://uri.amap.com/marker?position=116.976493,38.938194&name=%E4%BC%AF%E7%88%B5%E5%AE%A0%E7%89%A9%E7%94%9F%E6%B4%BB%E9%A6%86&src=vetmap&coordinate=gaode&callnative=1","route_id":"r1","route_name":"第1段","global_order":19},{"name":"忠爱宠物医院(东方商业街店)","address":"朝阳街道东方商业街二段B6楼B6-13","phone":"13034398003","category":"医疗保健服务;动物医疗场所;宠物诊所","area":"","lng":116.976978,"lat":38.940783,"amap_id":"B0JB3CERU1","order":20,"prev_distance_km":0.291,"cumulative_distance_km":30.669,"amap_marker_url":"https://uri.amap.com/marker?position=116.976978,38.940783&name=%E5%BF%A0%E7%88%B1%E5%AE%A0%E7%89%A9%E5%8C%BB%E9%99%A2%28%E4%B8%9C%E6%96%B9%E5%95%86%E4%B8%9A%E8%A1%97%E5%BA%97%29&src=vetmap&coordinate=gaode&callnative=1","route_id":"r1","route_name":"第1段","global_order":20},{"name":"同善祥兽药","address":"双窑路与团王线交叉口东南20米","phone":"","category":"购物服务;购物相关场所;购物相关场所|医疗保健服务;动物医疗场所;动物医疗场所","area":"","lng":117.045698,"lat":38.923031,"amap_id":"B0KUDL6IYR","order":21,"prev_distance_km":6.263,"cumulative_distance_km":36.933,"amap_marker_url":"https://uri.amap.com/marker?position=117.045698,38.923031&name=%E5%90%8C%E5%96%84%E7%A5%A5%E5%85%BD%E8%8D%AF&src=vetmap&coordinate=gaode&callnative=1","route_id":"r1","route_name":"第1段","global_order":21},{"name":"津门宠物诊所","address":"团泊镇津王路逸湖岸南园底商(麦当劳正对面)","phone":"","category":"医疗保健服务;动物医疗场所;宠物诊所","area":"","lng":117.155001,"lat":38.892279,"amap_id":"B0J3BCOR16","order":22,"prev_distance_km":10.057,"cumulative_distance_km":46.99,"amap_marker_url":"https://uri.amap.com/marker?position=117.155001,38.892279&name=%E6%B4%A5%E9%97%A8%E5%AE%A0%E7%89%A9%E8%AF%8A%E6%89%80&src=vetmap&coordinate=gaode&callnative=1","route_id":"r1","route_name":"第1段","global_order":22},{"name":"天津忠爱仁宠宠物医院","address":"守仁堂中西医结合诊所南侧","phone":"13132296508","category":"医疗保健服务;动物医疗场所;宠物诊所","area":"","lng":117.140483,"lat":38.885207,"amap_id":"B0LUO5GQNS","order":23,"prev_distance_km":1.482,"cumulative_distance_km":48.472,"amap_marker_url":"https://uri.amap.com/marker?position=117.140483,38.885207&name=%E5%A4%A9%E6%B4%A5%E5%BF%A0%E7%88%B1%E4%BB%81%E5%AE%A0%E5%AE%A0%E7%89%A9%E5%8C%BB%E9%99%A2&src=vetmap&coordinate=gaode&callnative=1","route_id":"r1","route_name":"第1段","global_order":23},{"name":"亿佳宠物医院(团泊东店)","address":"团泊新城东区碧桂园丽泽府底商107号","phone":"15802231818;18622081010","category":"医疗保健服务;动物医疗场所;宠物诊所","area":"","lng":117.134155,"lat":38.872527,"amap_id":"B0HG4SSR3R","order":24,"prev_distance_km":1.513,"cumulative_distance_km":49.984,"amap_marker_url":"https://uri.amap.com/marker?position=117.134155,38.872527&name=%E4%BA%BF%E4%BD%B3%E5%AE%A0%E7%89%A9%E5%8C%BB%E9%99%A2%28%E5%9B%A2%E6%B3%8A%E4%B8%9C%E5%BA%97%29&src=vetmap&coordinate=gaode&callnative=1","route_id":"r1","route_name":"第1段","global_order":24},{"name":"静海区大邱庄动物检疫申报点","address":"百亿道5号","phone":"","category":"医疗保健服务;动物医疗场所;动物医疗场所","area":"大邱庄镇","lng":117.069364,"lat":38.861233,"amap_id":"B0KGFC3T2L","order":25,"prev_distance_km":5.748,"cumulative_distance_km":55.733,"amap_marker_url":"https://uri.amap.com/marker?position=117.069364,38.861233&name=%E9%9D%99%E6%B5%B7%E5%8C%BA%E5%A4%A7%E9%82%B1%E5%BA%84%E5%8A%A8%E7%89%A9%E6%A3%80%E7%96%AB%E7%94%B3%E6%8A%A5%E7%82%B9&src=vetmap&coordinate=gaode&callnative=1","route_id":"r1","route_name":"第1段","global_order":25},{"name":"宠美满贝康宠物诊所","address":"大邱庄镇(名仕博郡)顺驰小区南门对面","phone":"13752501863","category":"医疗保健服务;动物医疗场所;宠物诊所","area":"大邱庄镇","lng":117.063955,"lat":38.84014,"amap_id":"B0GKC6O7TE","order":26,"prev_distance_km":2.392,"cumulative_distance_km":58.124,"amap_marker_url":"https://uri.amap.com/marker?position=117.063955,38.840140&name=%E5%AE%A0%E7%BE%8E%E6%BB%A1%E8%B4%9D%E5%BA%B7%E5%AE%A0%E7%89%A9%E8%AF%8A%E6%89%80&src=vetmap&coordinate=gaode&callnative=1","route_id":"r1","route_name":"第1段","global_order":26},{"name":"旺嘟嘟宠物医院","address":"长江道与嵩山路交叉口北300米","phone":"","category":"医疗保健服务;动物医疗场所;宠物诊所","area":"大邱庄镇","lng":117.065808,"lat":38.839181,"amap_id":"B0LG15T25H","order":27,"prev_distance_km":0.193,"cumulative_distance_km":58.317,"amap_marker_url":"https://uri.amap.com/marker?position=117.065808,38.839181&name=%E6%97%BA%E5%98%9F%E5%98%9F%E5%AE%A0%E7%89%A9%E5%8C%BB%E9%99%A2&src=vetmap&coordinate=gaode&callnative=1","route_id":"r1","route_name":"第1段","global_order":27},{"name":"郝大夫护生宠物医院(大邱庄分院)","address":"香港街北段8号","phone":"17320200303","category":"医疗保健服务;动物医疗场所;宠物诊所","area":"大邱庄镇","lng":117.062426,"lat":38.836082,"amap_id":"B0J375WDVZ","order":28,"prev_distance_km":0.452,"cumulative_distance_km":58.769,"amap_marker_url":"https://uri.amap.com/marker?position=117.062426,38.836082&name=%E9%83%9D%E5%A4%A7%E5%A4%AB%E6%8A%A4%E7%94%9F%E5%AE%A0%E7%89%A9%E5%8C%BB%E9%99%A2%28%E5%A4%A7%E9%82%B1%E5%BA%84%E5%88%86%E9%99%A2%29&src=vetmap&coordinate=gaode&callnative=1","route_id":"r1","route_name":"第1段","global_order":28},{"name":"金牧康兽药","address":"蔡中路与湾西路交叉口东180米","phone":"","category":"购物服务;购物相关场所;购物相关场所|医疗保健服务;动物医疗场所;动物医疗场所","area":"","lng":117.097325,"lat":38.738425,"amap_id":"B0LDPRXP37","order":29,"prev_distance_km":11.272,"cumulative_distance_km":70.042,"amap_marker_url":"https://uri.amap.com/marker?position=117.097325,38.738425&name=%E9%87%91%E7%89%A7%E5%BA%B7%E5%85%BD%E8%8D%AF&src=vetmap&coordinate=gaode&callnative=1","route_id":"r1","route_name":"第1段","global_order":29},{"name":"郝大夫护生宠物医院唐官屯分院24h","address":"唐官屯镇京福公路4-151","phone":"13602013255","category":"医疗保健服务;动物医疗场所;宠物诊所","area":"","lng":116.916981,"lat":38.710776,"amap_id":"B0K31CPOHE","order":30,"prev_distance_km":15.944,"cumulative_distance_km":85.986,"amap_marker_url":"https://uri.amap.com/marker?position=116.916981,38.710776&name=%E9%83%9D%E5%A4%A7%E5%A4%AB%E6%8A%A4%E7%94%9F%E5%AE%A0%E7%89%A9%E5%8C%BB%E9%99%A2%E5%94%90%E5%AE%98%E5%B1%AF%E5%88%86%E9%99%A224h&src=vetmap&coordinate=gaode&callnative=1","route_id":"r1","route_name":"第1段","global_order":30},{"name":"郝大夫护生宠物医院(子牙分院24h)","address":"商品街北排32号","phone":"15631308899","category":"医疗保健服务;动物医疗场所;宠物诊所","area":"","lng":116.769828,"lat":38.82397,"amap_id":"B0K0KDC2JF","order":31,"prev_distance_km":17.922,"cumulative_distance_km":103.908,"amap_marker_url":"https://uri.amap.com/marker?position=116.769828,38.823970&name=%E9%83%9D%E5%A4%A7%E5%A4%AB%E6%8A%A4%E7%94%9F%E5%AE%A0%E7%89%A9%E5%8C%BB%E9%99%A2%28%E5%AD%90%E7%89%99%E5%88%86%E9%99%A224h%29&src=vetmap&coordinate=gaode&callnative=1","route_id":"r1","route_name":"第1段","global_order":31}]}