{"summary":{"id":"d00369","province":"山东省","city":"济宁市","district":"任城区","count":58,"route_count":2,"max_route_clinics":29,"total_distance_km":91.879,"coordinate_system":"GCJ-02 / Amap","generated_at":"2026-05-07 21:27:25"},"routes":[{"id":"r1","name":"第1段","count":29,"total_distance_km":51.893,"rows":[{"name":"喻屯力狼兽药鱼药饲料宠物店","address":"喻屯镇派出所向南400米路西","phone":"13625479856;18266831332","category":"医疗保健服务;动物医疗场所;动物医疗场所","area":"","lng":116.512155,"lat":35.221684,"amap_id":"B0H6CYVOMC","order":1,"prev_distance_km":0.0,"cumulative_distance_km":0.0,"amap_marker_url":"https://uri.amap.com/marker?position=116.512155,35.221684&name=%E5%96%BB%E5%B1%AF%E5%8A%9B%E7%8B%BC%E5%85%BD%E8%8D%AF%E9%B1%BC%E8%8D%AF%E9%A5%B2%E6%96%99%E5%AE%A0%E7%89%A9%E5%BA%97&src=vetmap&coordinate=gaode&callnative=1","route_id":"r1","route_name":"第1段"},{"name":"冠宇畜禽综合服务中心","address":"喻屯镇中心路143号","phone":"13325198444;15589755466","category":"医疗保健服务;动物医疗场所;兽医站","area":"","lng":116.515761,"lat":35.232143,"amap_id":"B0L01DFTEC","order":2,"prev_distance_km":1.208,"cumulative_distance_km":1.208,"amap_marker_url":"https://uri.amap.com/marker?position=116.515761,35.232143&name=%E5%86%A0%E5%AE%87%E7%95%9C%E7%A6%BD%E7%BB%BC%E5%90%88%E6%9C%8D%E5%8A%A1%E4%B8%AD%E5%BF%83&src=vetmap&coordinate=gaode&callnative=1","route_id":"r1","route_name":"第1段"},{"name":"寻·爱宠动物医院","address":"河都路吾悦广场外街s-5-0155","phone":"15589716030","category":"医疗保健服务;动物医疗场所;宠物诊所","area":"","lng":116.60124,"lat":35.365851,"amap_id":"B0L6CLM4OA","order":3,"prev_distance_km":16.77,"cumulative_distance_km":17.978,"amap_marker_url":"https://uri.amap.com/marker?position=116.601240,35.365851&name=%E5%AF%BB%C2%B7%E7%88%B1%E5%AE%A0%E5%8A%A8%E7%89%A9%E5%8C%BB%E9%99%A2&src=vetmap&coordinate=gaode&callnative=1","route_id":"r1","route_name":"第1段"},{"name":"济农动物医院","address":"东赵路一号东首","phone":"18454722220","category":"医疗保健服务;动物医疗场所;宠物诊所","area":"","lng":116.615147,"lat":35.368524,"amap_id":"B0LARM604V","order":4,"prev_distance_km":1.296,"cumulative_distance_km":19.274,"amap_marker_url":"https://uri.amap.com/marker?position=116.615147,35.368524&name=%E6%B5%8E%E5%86%9C%E5%8A%A8%E7%89%A9%E5%8C%BB%E9%99%A2&src=vetmap&coordinate=gaode&callnative=1","route_id":"r1","route_name":"第1段"},{"name":"萌多多动物医院","address":"观音阁街道东南华区翠竹园小区东门南侧萌多多动物医院","phone":"18553706626","category":"医疗保健服务;动物医疗场所;宠物诊所","area":"","lng":116.61494,"lat":35.394615,"amap_id":"B0KASHQKYU","order":5,"prev_distance_km":2.901,"cumulative_distance_km":22.175,"amap_marker_url":"https://uri.amap.com/marker?position=116.614940,35.394615&name=%E8%90%8C%E5%A4%9A%E5%A4%9A%E5%8A%A8%E7%89%A9%E5%8C%BB%E9%99%A2&src=vetmap&coordinate=gaode&callnative=1","route_id":"r1","route_name":"第1段"},{"name":"迈美森宠物诊所","address":"绿地国际城(北门转盘向东)A4号楼一楼商铺南门","phone":"18266823161","category":"医疗保健服务;动物医疗场所;宠物诊所","area":"","lng":116.613471,"lat":35.395973,"amap_id":"B0HUAH1UTI","order":6,"prev_distance_km":0.201,"cumulative_distance_km":22.376,"amap_marker_url":"https://uri.amap.com/marker?position=116.613471,35.395973&name=%E8%BF%88%E7%BE%8E%E6%A3%AE%E5%AE%A0%E7%89%A9%E8%AF%8A%E6%89%80&src=vetmap&coordinate=gaode&callnative=1","route_id":"r1","route_name":"第1段"},{"name":"二郎神宠物超市","address":"建设路36号济宁医学院南80米","phone":"","category":"医疗保健服务;动物医疗场所;宠物诊所","area":"","lng":116.598568,"lat":35.395325,"amap_id":"B0K1M5MBI4","order":7,"prev_distance_km":1.353,"cumulative_distance_km":23.729,"amap_marker_url":"https://uri.amap.com/marker?position=116.598568,35.395325&name=%E4%BA%8C%E9%83%8E%E7%A5%9E%E5%AE%A0%E7%89%A9%E8%B6%85%E5%B8%82&src=vetmap&coordinate=gaode&callnative=1","route_id":"r1","route_name":"第1段"},{"name":"吉牧动物医院","address":"南苑街道南柴禾街西保利时光印象商业街一号楼108号","phone":"15554412120","category":"医疗保健服务;动物医疗场所;宠物诊所","area":"","lng":116.593388,"lat":35.387722,"amap_id":"B0J169Y6H4","order":8,"prev_distance_km":0.967,"cumulative_distance_km":24.696,"amap_marker_url":"https://uri.amap.com/marker?position=116.593388,35.387722&name=%E5%90%89%E7%89%A7%E5%8A%A8%E7%89%A9%E5%8C%BB%E9%99%A2&src=vetmap&coordinate=gaode&callnative=1","route_id":"r1","route_name":"第1段"},{"name":"吉牧动物医院门诊部","address":"保利·时光印象东门旁","phone":"","category":"医疗保健服务;动物医疗场所;宠物诊所","area":"","lng":116.59333,"lat":35.387738,"amap_id":"B0MBB9XIP9","order":9,"prev_distance_km":0.006,"cumulative_distance_km":24.702,"amap_marker_url":"https://uri.amap.com/marker?position=116.593330,35.387738&name=%E5%90%89%E7%89%A7%E5%8A%A8%E7%89%A9%E5%8C%BB%E9%99%A2%E9%97%A8%E8%AF%8A%E9%83%A8&src=vetmap&coordinate=gaode&callnative=1","route_id":"r1","route_name":"第1段"},{"name":"家瑞宠物诊所","address":"王母阁路34-6号附近","phone":"18354765546","category":"医疗保健服务;动物医疗场所;宠物诊所","area":"","lng":116.585626,"lat":35.391374,"amap_id":"B0FFIHAJ1U","order":10,"prev_distance_km":0.807,"cumulative_distance_km":25.508,"amap_marker_url":"https://uri.amap.com/marker?position=116.585626,35.391374&name=%E5%AE%B6%E7%91%9E%E5%AE%A0%E7%89%A9%E8%AF%8A%E6%89%80&src=vetmap&coordinate=gaode&callnative=1","route_id":"r1","route_name":"第1段"},{"name":"艾米丽宠物诊疗医院","address":"越河街道办事处东临人防工程及管理房(龙行路16-9)","phone":"18053724882","category":"医疗保健服务;动物医疗场所;宠物诊所","area":"","lng":116.585118,"lat":35.397015,"amap_id":"B0FFFGTFFN","order":11,"prev_distance_km":0.629,"cumulative_distance_km":26.137,"amap_marker_url":"https://uri.amap.com/marker?position=116.585118,35.397015&name=%E8%89%BE%E7%B1%B3%E4%B8%BD%E5%AE%A0%E7%89%A9%E8%AF%8A%E7%96%97%E5%8C%BB%E9%99%A2&src=vetmap&coordinate=gaode&callnative=1","route_id":"r1","route_name":"第1段"},{"name":"贝贝佳宠物医院(龙行店)","address":"来鹤小区商3号楼中国电信旁","phone":"13287262715","category":"医疗保健服务;动物医疗场所;宠物诊所","area":"","lng":116.586951,"lat":35.397447,"amap_id":"B0JD4CRG6I","order":12,"prev_distance_km":0.173,"cumulative_distance_km":26.31,"amap_marker_url":"https://uri.amap.com/marker?position=116.586951,35.397447&name=%E8%B4%9D%E8%B4%9D%E4%BD%B3%E5%AE%A0%E7%89%A9%E5%8C%BB%E9%99%A2%28%E9%BE%99%E8%A1%8C%E5%BA%97%29&src=vetmap&coordinate=gaode&callnative=1","route_id":"r1","route_name":"第1段"},{"name":"希望宠物门诊","address":"望湖小区南大门向北50米向东","phone":"15092786715","category":"医疗保健服务;动物医疗场所;宠物诊所","area":"","lng":116.58468,"lat":35.399545,"amap_id":"B0FFG48GZP","order":13,"prev_distance_km":0.311,"cumulative_distance_km":26.621,"amap_marker_url":"https://uri.amap.com/marker?position=116.584680,35.399545&name=%E5%B8%8C%E6%9C%9B%E5%AE%A0%E7%89%A9%E9%97%A8%E8%AF%8A&src=vetmap&coordinate=gaode&callnative=1","route_id":"r1","route_name":"第1段"},{"name":"宠爱工作室(皇经阁店)","address":"龙行小区南2门旁","phone":"15318420316;16318420316","category":"医疗保健服务;动物医疗场所;动物医疗场所","area":"","lng":116.579098,"lat":35.400384,"amap_id":"B0FFHKUG4O","order":14,"prev_distance_km":0.514,"cumulative_distance_km":27.136,"amap_marker_url":"https://uri.amap.com/marker?position=116.579098,35.400384&name=%E5%AE%A0%E7%88%B1%E5%B7%A5%E4%BD%9C%E5%AE%A4%28%E7%9A%87%E7%BB%8F%E9%98%81%E5%BA%97%29&src=vetmap&coordinate=gaode&callnative=1","route_id":"r1","route_name":"第1段"},{"name":"鲁康宠物医院","address":"玄帝届街11-8号","phone":"13954796929;15854719878","category":"医疗保健服务;动物医疗场所;宠物诊所","area":"环城西路","lng":116.573209,"lat":35.398952,"amap_id":"B0FFHKUG1T","order":15,"prev_distance_km":0.557,"cumulative_distance_km":27.693,"amap_marker_url":"https://uri.amap.com/marker?position=116.573209,35.398952&name=%E9%B2%81%E5%BA%B7%E5%AE%A0%E7%89%A9%E5%8C%BB%E9%99%A2&src=vetmap&coordinate=gaode&callnative=1","route_id":"r1","route_name":"第1段"},{"name":"贵族宠物医院骨科·猫科(南池商业街店)","address":"南池水御景园C区东门南170米","phone":"15166711860;18654788860","category":"医疗保健服务;动物医疗场所;宠物诊所","area":"","lng":116.57587,"lat":35.390419,"amap_id":"B0H6LCF4HQ","order":16,"prev_distance_km":0.979,"cumulative_distance_km":28.672,"amap_marker_url":"https://uri.amap.com/marker?position=116.575870,35.390419&name=%E8%B4%B5%E6%97%8F%E5%AE%A0%E7%89%A9%E5%8C%BB%E9%99%A2%E9%AA%A8%E7%A7%91%C2%B7%E7%8C%AB%E7%A7%91%28%E5%8D%97%E6%B1%A0%E5%95%86%E4%B8%9A%E8%A1%97%E5%BA%97%29&src=vetmap&coordinate=gaode&callnative=1","route_id":"r1","route_name":"第1段"},{"name":"贝贝佳宠物医院","address":"南池乔庄文景园B区玄帝庙街27号","phone":"19153721198","category":"医疗保健服务;动物医疗场所;宠物诊所","area":"车站西路","lng":116.573305,"lat":35.384119,"amap_id":"B0FFM1TGJF","order":17,"prev_distance_km":0.738,"cumulative_distance_km":29.41,"amap_marker_url":"https://uri.amap.com/marker?position=116.573305,35.384119&name=%E8%B4%9D%E8%B4%9D%E4%BD%B3%E5%AE%A0%E7%89%A9%E5%8C%BB%E9%99%A2&src=vetmap&coordinate=gaode&callnative=1","route_id":"r1","route_name":"第1段"},{"name":"海创动物门诊","address":"龙行路南池汇景园小区外8号门市","phone":"13805373564","category":"医疗保健服务;动物医疗场所;宠物诊所","area":"","lng":116.569667,"lat":35.397336,"amap_id":"B0FFIQZM23","order":18,"prev_distance_km":1.506,"cumulative_distance_km":30.916,"amap_marker_url":"https://uri.amap.com/marker?position=116.569667,35.397336&name=%E6%B5%B7%E5%88%9B%E5%8A%A8%E7%89%A9%E9%97%A8%E8%AF%8A&src=vetmap&coordinate=gaode&callnative=1","route_id":"r1","route_name":"第1段"},{"name":"济宁市任城区我爱我家动物保健中心","address":"天和盛大酒店西30米","phone":"13676371391","category":"医疗保健服务;动物医疗场所;宠物诊所|医疗保健服务;动物医疗场所;兽医站","area":"","lng":116.570906,"lat":35.400147,"amap_id":"B0FFKP1ATW","order":19,"prev_distance_km":0.332,"cumulative_distance_km":31.248,"amap_marker_url":"https://uri.amap.com/marker?position=116.570906,35.400147&name=%E6%B5%8E%E5%AE%81%E5%B8%82%E4%BB%BB%E5%9F%8E%E5%8C%BA%E6%88%91%E7%88%B1%E6%88%91%E5%AE%B6%E5%8A%A8%E7%89%A9%E4%BF%9D%E5%81%A5%E4%B8%AD%E5%BF%83&src=vetmap&coordinate=gaode&callnative=1","route_id":"r1","route_name":"第1段"},{"name":"济宁市西郊动物医院","address":"新华路南路","phone":"0537-2280818;13953799530","category":"医疗保健服务;动物医疗场所;宠物诊所","area":"","lng":116.558212,"lat":35.407135,"amap_id":"B0FFG46HZ2","order":20,"prev_distance_km":1.388,"cumulative_distance_km":32.637,"amap_marker_url":"https://uri.amap.com/marker?position=116.558212,35.407135&name=%E6%B5%8E%E5%AE%81%E5%B8%82%E8%A5%BF%E9%83%8A%E5%8A%A8%E7%89%A9%E5%8C%BB%E9%99%A2&src=vetmap&coordinate=gaode&callnative=1","route_id":"r1","route_name":"第1段"},{"name":"安佳动物医院","address":"古槐街道环城西路59-39","phone":"19105372225","category":"医疗保健服务;动物医疗场所;宠物诊所","area":"草桥口","lng":116.573523,"lat":35.409001,"amap_id":"B0J0SZAXGE","order":21,"prev_distance_km":1.403,"cumulative_distance_km":34.04,"amap_marker_url":"https://uri.amap.com/marker?position=116.573523,35.409001&name=%E5%AE%89%E4%BD%B3%E5%8A%A8%E7%89%A9%E5%8C%BB%E9%99%A2&src=vetmap&coordinate=gaode&callnative=1","route_id":"r1","route_name":"第1段"},{"name":"诺康动物医院","address":"红星中路34-7号","phone":"15615878928","category":"医疗保健服务;动物医疗场所;宠物诊所","area":"古槐路","lng":116.582389,"lat":35.414432,"amap_id":"B0H0OSYL1H","order":22,"prev_distance_km":1.005,"cumulative_distance_km":35.045,"amap_marker_url":"https://uri.amap.com/marker?position=116.582389,35.414432&name=%E8%AF%BA%E5%BA%B7%E5%8A%A8%E7%89%A9%E5%8C%BB%E9%99%A2&src=vetmap&coordinate=gaode&callnative=1","route_id":"r1","route_name":"第1段"},{"name":"汤姆狗(东门大街店)","address":"人民公园北门西80米","phone":"0537-2260711","category":"医疗保健服务;动物医疗场所;宠物诊所","area":"","lng":116.587459,"lat":35.411997,"amap_id":"B0FFFGT3BT","order":23,"prev_distance_km":0.533,"cumulative_distance_km":35.578,"amap_marker_url":"https://uri.amap.com/marker?position=116.587459,35.411997&name=%E6%B1%A4%E5%A7%86%E7%8B%97%28%E4%B8%9C%E9%97%A8%E5%A4%A7%E8%A1%97%E5%BA%97%29&src=vetmap&coordinate=gaode&callnative=1","route_id":"r1","route_name":"第1段"},{"name":"爱宠宠物美容工作室","address":"红星中路红星8号","phone":"18660732366","category":"医疗保健服务;动物医疗场所;宠物诊所","area":"建设路","lng":116.594869,"lat":35.413418,"amap_id":"B0FFGAVNFL","order":24,"prev_distance_km":0.69,"cumulative_distance_km":36.268,"amap_marker_url":"https://uri.amap.com/marker?position=116.594869,35.413418&name=%E7%88%B1%E5%AE%A0%E5%AE%A0%E7%89%A9%E7%BE%8E%E5%AE%B9%E5%B7%A5%E4%BD%9C%E5%AE%A4&src=vetmap&coordinate=gaode&callnative=1","route_id":"r1","route_name":"第1段"},{"name":"多多洛动物医院","address":"万达华府中区东门旁(大润发停车场对面)","phone":"17753701120","category":"医疗保健服务;动物医疗场所;宠物诊所","area":"太白楼","lng":116.603438,"lat":35.409969,"amap_id":"B0HUK78G2R","order":25,"prev_distance_km":0.866,"cumulative_distance_km":37.134,"amap_marker_url":"https://uri.amap.com/marker?position=116.603438,35.409969&name=%E5%A4%9A%E5%A4%9A%E6%B4%9B%E5%8A%A8%E7%89%A9%E5%8C%BB%E9%99%A2&src=vetmap&coordinate=gaode&callnative=1","route_id":"r1","route_name":"第1段"},{"name":"森林vet动物诊疗猫科·异宠专科","address":"太白东路33-4号烈士陵园西50米路北","phone":"15020736767;15335378802","category":"医疗保健服务;动物医疗场所;宠物诊所","area":"太白楼","lng":116.610248,"lat":35.407901,"amap_id":"B0IB2DRHR2","order":26,"prev_distance_km":0.659,"cumulative_distance_km":37.793,"amap_marker_url":"https://uri.amap.com/marker?position=116.610248,35.407901&name=%E6%A3%AE%E6%9E%97vet%E5%8A%A8%E7%89%A9%E8%AF%8A%E7%96%97%E7%8C%AB%E7%A7%91%C2%B7%E5%BC%82%E5%AE%A0%E4%B8%93%E7%A7%91&src=vetmap&coordinate=gaode&callnative=1","route_id":"r1","route_name":"第1段"},{"name":"济宁市天羽环宠物服务","address":"杨柳街碧桂园二期领誉西南侧","phone":"","category":"医疗保健服务;动物医疗场所;宠物诊所","area":"济宁国家高新技术产业开发区","lng":116.654594,"lat":35.414356,"amap_id":"B0L0NRSS9E","order":27,"prev_distance_km":4.082,"cumulative_distance_km":41.875,"amap_marker_url":"https://uri.amap.com/marker?position=116.654594,35.414356&name=%E6%B5%8E%E5%AE%81%E5%B8%82%E5%A4%A9%E7%BE%BD%E7%8E%AF%E5%AE%A0%E7%89%A9%E6%9C%8D%E5%8A%A1&src=vetmap&coordinate=gaode&callnative=1","route_id":"r1","route_name":"第1段"},{"name":"济宁市高新区接庄畜牧兽医服务部","address":"济邹路与建设路交叉口西南20米","phone":"","category":"医疗保健服务;动物医疗场所;兽医站","area":"济宁国家高新技术产业开发区","lng":116.706136,"lat":35.377462,"amap_id":"B0L0V9IY3O","order":28,"prev_distance_km":6.217,"cumulative_distance_km":48.093,"amap_marker_url":"https://uri.amap.com/marker?position=116.706136,35.377462&name=%E6%B5%8E%E5%AE%81%E5%B8%82%E9%AB%98%E6%96%B0%E5%8C%BA%E6%8E%A5%E5%BA%84%E7%95%9C%E7%89%A7%E5%85%BD%E5%8C%BB%E6%9C%8D%E5%8A%A1%E9%83%A8&src=vetmap&coordinate=gaode&callnative=1","route_id":"r1","route_name":"第1段"},{"name":"529宠物门诊","address":"后李村矿外路与济宁大道高架桥交叉口向南20米路西","phone":"15554778081","category":"医疗保健服务;动物医疗场所;宠物诊所","area":"济宁国家高新技术产业开发区","lng":116.685729,"lat":35.34761,"amap_id":"B0FFLCWFZY","order":29,"prev_distance_km":3.8,"cumulative_distance_km":51.893,"amap_marker_url":"https://uri.amap.com/marker?position=116.685729,35.347610&name=529%E5%AE%A0%E7%89%A9%E9%97%A8%E8%AF%8A&src=vetmap&coordinate=gaode&callnative=1","route_id":"r1","route_name":"第1段"}]},{"id":"r2","name":"第2段","count":29,"total_distance_km":39.986,"rows":[{"name":"长沟兽医站门诊部","address":"长沟镇商贸街","phone":"","category":"医疗保健服务;动物医疗场所;兽医站|医疗保健服务;急救中心;急救中心","area":"","lng":116.450433,"lat":35.502169,"amap_id":"B0FFHIATX9","order":1,"prev_distance_km":0.0,"cumulative_distance_km":0.0,"amap_marker_url":"https://uri.amap.com/marker?position=116.450433,35.502169&name=%E9%95%BF%E6%B2%9F%E5%85%BD%E5%8C%BB%E7%AB%99%E9%97%A8%E8%AF%8A%E9%83%A8&src=vetmap&coordinate=gaode&callnative=1","route_id":"r2","route_name":"第2段"},{"name":"南张兽医站","address":"南张镇","phone":"","category":"医疗保健服务;动物医疗场所;兽医站","area":"","lng":116.512742,"lat":35.458297,"amap_id":"B0FFL2YFCK","order":2,"prev_distance_km":7.459,"cumulative_distance_km":7.459,"amap_marker_url":"https://uri.amap.com/marker?position=116.512742,35.458297&name=%E5%8D%97%E5%BC%A0%E5%85%BD%E5%8C%BB%E7%AB%99&src=vetmap&coordinate=gaode&callnative=1","route_id":"r2","route_name":"第2段"},{"name":"任城区犬只留检所","address":"唐口煤业东北390米","phone":"","category":"医疗保健服务;动物医疗场所;动物医疗场所","area":"","lng":116.528561,"lat":35.440869,"amap_id":"B0GKTUOQ70","order":3,"prev_distance_km":2.41,"cumulative_distance_km":9.869,"amap_marker_url":"https://uri.amap.com/marker?position=116.528561,35.440869&name=%E4%BB%BB%E5%9F%8E%E5%8C%BA%E7%8A%AC%E5%8F%AA%E7%95%99%E6%A3%80%E6%89%80&src=vetmap&coordinate=gaode&callnative=1","route_id":"r2","route_name":"第2段"},{"name":"任城动物医院(济安桥路)","address":"济安桥北路金宇路路口南100米","phone":"0537-2226268;13153710009;15505370098","category":"医疗保健服务;动物医疗场所;宠物诊所","area":"济安桥","lng":116.565291,"lat":35.429671,"amap_id":"B0FFFGTUE4","order":4,"prev_distance_km":3.553,"cumulative_distance_km":13.422,"amap_marker_url":"https://uri.amap.com/marker?position=116.565291,35.429671&name=%E4%BB%BB%E5%9F%8E%E5%8A%A8%E7%89%A9%E5%8C%BB%E9%99%A2%28%E6%B5%8E%E5%AE%89%E6%A1%A5%E8%B7%AF%29&src=vetmap&coordinate=gaode&callnative=1","route_id":"r2","route_name":"第2段"},{"name":"济州动物医院(仁诚雅居店)","address":"仁诚雅居南门东270米","phone":"13053775345","category":"医疗保健服务;动物医疗场所;宠物诊所","area":"古槐路","lng":116.569691,"lat":35.436373,"amap_id":"B0FFLGKL31","order":5,"prev_distance_km":0.845,"cumulative_distance_km":14.267,"amap_marker_url":"https://uri.amap.com/marker?position=116.569691,35.436373&name=%E6%B5%8E%E5%B7%9E%E5%8A%A8%E7%89%A9%E5%8C%BB%E9%99%A2%28%E4%BB%81%E8%AF%9A%E9%9B%85%E5%B1%85%E5%BA%97%29&src=vetmap&coordinate=gaode&callnative=1","route_id":"r2","route_name":"第2段"},{"name":"宠医森动物诊疗中心","address":"金城街道常青路12号","phone":"15666175752","category":"医疗保健服务;动物医疗场所;宠物诊所","area":"常青路","lng":116.581694,"lat":35.426096,"amap_id":"B0JRTZWJWP","order":6,"prev_distance_km":1.578,"cumulative_distance_km":15.844,"amap_marker_url":"https://uri.amap.com/marker?position=116.581694,35.426096&name=%E5%AE%A0%E5%8C%BB%E6%A3%AE%E5%8A%A8%E7%89%A9%E8%AF%8A%E7%96%97%E4%B8%AD%E5%BF%83&src=vetmap&coordinate=gaode&callnative=1","route_id":"r2","route_name":"第2段"},{"name":"浩诺宠物医院","address":"共青团路与谢营中心街交叉口东南100米","phone":"","category":"医疗保健服务;动物医疗场所;宠物诊所","area":"吴泰闸路","lng":116.589525,"lat":35.427725,"amap_id":"B0L3M7MP4C","order":7,"prev_distance_km":0.732,"cumulative_distance_km":16.577,"amap_marker_url":"https://uri.amap.com/marker?position=116.589525,35.427725&name=%E6%B5%A9%E8%AF%BA%E5%AE%A0%E7%89%A9%E5%8C%BB%E9%99%A2&src=vetmap&coordinate=gaode&callnative=1","route_id":"r2","route_name":"第2段"},{"name":"美联众合动物医院(济宁阳光分院)","address":"洸河路恒丰苑小区100-7号门面房","phone":"0537-2285120;13280092257","category":"医疗保健服务;动物医疗场所;宠物诊所","area":"共青团路","lng":116.590043,"lat":35.420103,"amap_id":"B0FFFOOR5M","order":8,"prev_distance_km":0.849,"cumulative_distance_km":17.425,"amap_marker_url":"https://uri.amap.com/marker?position=116.590043,35.420103&name=%E7%BE%8E%E8%81%94%E4%BC%97%E5%90%88%E5%8A%A8%E7%89%A9%E5%8C%BB%E9%99%A2%28%E6%B5%8E%E5%AE%81%E9%98%B3%E5%85%89%E5%88%86%E9%99%A2%29&src=vetmap&coordinate=gaode&callnative=1","route_id":"r2","route_name":"第2段"},{"name":"阳光宠物医院(洸河路)","address":"恒丰苑洸河路北门旁","phone":"","category":"医疗保健服务;动物医疗场所;宠物诊所","area":"共青团路","lng":116.59018,"lat":35.419966,"amap_id":"B0HR6P7UC3","order":9,"prev_distance_km":0.02,"cumulative_distance_km":17.445,"amap_marker_url":"https://uri.amap.com/marker?position=116.590180,35.419966&name=%E9%98%B3%E5%85%89%E5%AE%A0%E7%89%A9%E5%8C%BB%E9%99%A2%28%E6%B4%B8%E6%B2%B3%E8%B7%AF%29&src=vetmap&coordinate=gaode&callnative=1","route_id":"r2","route_name":"第2段"},{"name":"联宠动物医院(海关路店)","address":"海关路21-9号","phone":"0537-2589120;18266797922","category":"医疗保健服务;动物医疗场所;宠物诊所","area":"建设路","lng":116.597493,"lat":35.418197,"amap_id":"B0FFH0DI9U","order":10,"prev_distance_km":0.691,"cumulative_distance_km":18.136,"amap_marker_url":"https://uri.amap.com/marker?position=116.597493,35.418197&name=%E8%81%94%E5%AE%A0%E5%8A%A8%E7%89%A9%E5%8C%BB%E9%99%A2%28%E6%B5%B7%E5%85%B3%E8%B7%AF%E5%BA%97%29&src=vetmap&coordinate=gaode&callnative=1","route_id":"r2","route_name":"第2段"},{"name":"甲乙丁动物医院(新世纪广场店)","address":"洸河路16号","phone":"0537-2218120;17686117121","category":"医疗保健服务;动物医疗场所;宠物诊所","area":"","lng":116.604849,"lat":35.42069,"amap_id":"B0KRNRPJ5D","order":11,"prev_distance_km":0.722,"cumulative_distance_km":18.858,"amap_marker_url":"https://uri.amap.com/marker?position=116.604849,35.420690&name=%E7%94%B2%E4%B9%99%E4%B8%81%E5%8A%A8%E7%89%A9%E5%8C%BB%E9%99%A2%28%E6%96%B0%E4%B8%96%E7%BA%AA%E5%B9%BF%E5%9C%BA%E5%BA%97%29&src=vetmap&coordinate=gaode&callnative=1","route_id":"r2","route_name":"第2段"},{"name":"青禾动物医院","address":"仙营街道仙都小区A7号楼02号","phone":"16653751200","category":"医疗保健服务;动物医疗场所;宠物诊所","area":"吴泰闸路","lng":116.598863,"lat":35.422986,"amap_id":"B0LAT57D3C","order":12,"prev_distance_km":0.599,"cumulative_distance_km":19.458,"amap_marker_url":"https://uri.amap.com/marker?position=116.598863,35.422986&name=%E9%9D%92%E7%A6%BE%E5%8A%A8%E7%89%A9%E5%8C%BB%E9%99%A2&src=vetmap&coordinate=gaode&callnative=1","route_id":"r2","route_name":"第2段"},{"name":"汤姆狗动物医院(赛宝店)","address":"吴泰闸路63-3号","phone":"0537-2360707;13853740970","category":"医疗保健服务;动物医疗场所;宠物诊所","area":"金宇路","lng":116.599162,"lat":35.425166,"amap_id":"B0FFFGTF96","order":13,"prev_distance_km":0.244,"cumulative_distance_km":19.702,"amap_marker_url":"https://uri.amap.com/marker?position=116.599162,35.425166&name=%E6%B1%A4%E5%A7%86%E7%8B%97%E5%8A%A8%E7%89%A9%E5%8C%BB%E9%99%A2%28%E8%B5%9B%E5%AE%9D%E5%BA%97%29&src=vetmap&coordinate=gaode&callnative=1","route_id":"r2","route_name":"第2段"},{"name":"天诺雅公司动物医院","address":"共青团路与任城大道交叉口南200米","phone":"","category":"医疗保健服务;动物医疗场所;宠物诊所","area":"金宇路","lng":116.5882,"lat":35.438451,"amap_id":"B0IUUAO17X","order":14,"prev_distance_km":1.78,"cumulative_distance_km":21.482,"amap_marker_url":"https://uri.amap.com/marker?position=116.588200,35.438451&name=%E5%A4%A9%E8%AF%BA%E9%9B%85%E5%85%AC%E5%8F%B8%E5%8A%A8%E7%89%A9%E5%8C%BB%E9%99%A2&src=vetmap&coordinate=gaode&callnative=1","route_id":"r2","route_name":"第2段"},{"name":"爱莲堂宠物诊所","address":"李营街道睿湖壹号商业街3号","phone":"0537-2299894;16653738010","category":"医疗保健服务;动物医疗场所;宠物诊所","area":"","lng":116.599106,"lat":35.443148,"amap_id":"B0JGHZQKDE","order":15,"prev_distance_km":1.118,"cumulative_distance_km":22.599,"amap_marker_url":"https://uri.amap.com/marker?position=116.599106,35.443148&name=%E7%88%B1%E8%8E%B2%E5%A0%82%E5%AE%A0%E7%89%A9%E8%AF%8A%E6%89%80&src=vetmap&coordinate=gaode&callnative=1","route_id":"r2","route_name":"第2段"},{"name":"济宁市葆慧康动物医院(瑞马分院)","address":"任顺路瑞马名门商业街北首110号","phone":"13176173075","category":"医疗保健服务;动物医疗场所;宠物诊所","area":"","lng":116.613393,"lat":35.45259,"amap_id":"B0HKJUZ8YD","order":16,"prev_distance_km":1.666,"cumulative_distance_km":24.266,"amap_marker_url":"https://uri.amap.com/marker?position=116.613393,35.452590&name=%E6%B5%8E%E5%AE%81%E5%B8%82%E8%91%86%E6%85%A7%E5%BA%B7%E5%8A%A8%E7%89%A9%E5%8C%BB%E9%99%A2%28%E7%91%9E%E9%A9%AC%E5%88%86%E9%99%A2%29&src=vetmap&coordinate=gaode&callnative=1","route_id":"r2","route_name":"第2段"},{"name":"维宠宠物诊所(环西店)","address":"翠都佳苑7号楼底商","phone":"15668188625","category":"医疗保健服务;动物医疗场所;宠物诊所","area":"金宇路","lng":116.604376,"lat":35.439078,"amap_id":"B0GKJYWPZ3","order":17,"prev_distance_km":1.71,"cumulative_distance_km":25.976,"amap_marker_url":"https://uri.amap.com/marker?position=116.604376,35.439078&name=%E7%BB%B4%E5%AE%A0%E5%AE%A0%E7%89%A9%E8%AF%8A%E6%89%80%28%E7%8E%AF%E8%A5%BF%E5%BA%97%29&src=vetmap&coordinate=gaode&callnative=1","route_id":"r2","route_name":"第2段"},{"name":"贵族宠物医院(佳世客店)","address":"富丽华佳苑西门北220米","phone":"15588770996","category":"医疗保健服务;动物医疗场所;宠物诊所","area":"金宇路","lng":116.602403,"lat":35.434411,"amap_id":"B0JDHS8L2W","order":18,"prev_distance_km":0.549,"cumulative_distance_km":26.525,"amap_marker_url":"https://uri.amap.com/marker?position=116.602403,35.434411&name=%E8%B4%B5%E6%97%8F%E5%AE%A0%E7%89%A9%E5%8C%BB%E9%99%A2%28%E4%BD%B3%E4%B8%96%E5%AE%A2%E5%BA%97%29&src=vetmap&coordinate=gaode&callnative=1","route_id":"r2","route_name":"第2段"},{"name":"宠来宠趣宠物美容会所","address":"新元路与丰泰路交叉口北160米","phone":"13963792525","category":"医疗保健服务;动物医疗场所;动物医疗场所","area":"","lng":116.611086,"lat":35.434231,"amap_id":"B0KANUQJKP","order":19,"prev_distance_km":0.787,"cumulative_distance_km":27.312,"amap_marker_url":"https://uri.amap.com/marker?position=116.611086,35.434231&name=%E5%AE%A0%E6%9D%A5%E5%AE%A0%E8%B6%A3%E5%AE%A0%E7%89%A9%E7%BE%8E%E5%AE%B9%E4%BC%9A%E6%89%80&src=vetmap&coordinate=gaode&callnative=1","route_id":"r2","route_name":"第2段"},{"name":"美联众合动物医院(科苑路店)","address":"科苑路1号商业阳光盛景园00单元-2层0106-0107门面房","phone":"0537-2883120;15562365853","category":"医疗保健服务;动物医疗场所;宠物诊所","area":"科苑路","lng":116.616399,"lat":35.427559,"amap_id":"B0G0X6VUH5","order":20,"prev_distance_km":0.884,"cumulative_distance_km":28.196,"amap_marker_url":"https://uri.amap.com/marker?position=116.616399,35.427559&name=%E7%BE%8E%E8%81%94%E4%BC%97%E5%90%88%E5%8A%A8%E7%89%A9%E5%8C%BB%E9%99%A2%28%E7%A7%91%E8%8B%91%E8%B7%AF%E5%BA%97%29&src=vetmap&coordinate=gaode&callnative=1","route_id":"r2","route_name":"第2段"},{"name":"济宁爱宠宠物医院","address":"洸河路43号","phone":"0537-2334299;13562747029","category":"医疗保健服务;动物医疗场所;宠物诊所","area":"科苑路","lng":116.614605,"lat":35.420771,"amap_id":"B0FFH4AQTZ","order":21,"prev_distance_km":0.772,"cumulative_distance_km":28.968,"amap_marker_url":"https://uri.amap.com/marker?position=116.614605,35.420771&name=%E6%B5%8E%E5%AE%81%E7%88%B1%E5%AE%A0%E5%AE%A0%E7%89%A9%E5%8C%BB%E9%99%A2&src=vetmap&coordinate=gaode&callnative=1","route_id":"r2","route_name":"第2段"},{"name":"沐棠宠物","address":"明珠花园祥和园南1门东70米","phone":"15020727361","category":"医疗保健服务;动物医疗场所;动物医疗场所","area":"科苑路","lng":116.619205,"lat":35.415478,"amap_id":"B0L0MC9KDI","order":22,"prev_distance_km":0.721,"cumulative_distance_km":29.689,"amap_marker_url":"https://uri.amap.com/marker?position=116.619205,35.415478&name=%E6%B2%90%E6%A3%A0%E5%AE%A0%E7%89%A9&src=vetmap&coordinate=gaode&callnative=1","route_id":"r2","route_name":"第2段"},{"name":"济宁市葆慧康","address":"洸河办事处东闸社区东闸商城北3-5营业房","phone":"0537-2337728","category":"医疗保健服务;动物医疗场所;宠物诊所","area":"科苑路","lng":116.620475,"lat":35.422025,"amap_id":"B0FFK3SK4O","order":23,"prev_distance_km":0.737,"cumulative_distance_km":30.427,"amap_marker_url":"https://uri.amap.com/marker?position=116.620475,35.422025&name=%E6%B5%8E%E5%AE%81%E5%B8%82%E8%91%86%E6%85%A7%E5%BA%B7&src=vetmap&coordinate=gaode&callnative=1","route_id":"r2","route_name":"第2段"},{"name":"派特宠物医院(新闻大厦店)","address":"洸河路与火炬路交叉口向东路南新闻大厦","phone":"13625370216","category":"医疗保健服务;动物医疗场所;宠物诊所","area":"火炬路","lng":116.624323,"lat":35.420087,"amap_id":"B0FFJ3C18R","order":24,"prev_distance_km":0.41,"cumulative_distance_km":30.836,"amap_marker_url":"https://uri.amap.com/marker?position=116.624323,35.420087&name=%E6%B4%BE%E7%89%B9%E5%AE%A0%E7%89%A9%E5%8C%BB%E9%99%A2%28%E6%96%B0%E9%97%BB%E5%A4%A7%E5%8E%A6%E5%BA%97%29&src=vetmap&coordinate=gaode&callnative=1","route_id":"r2","route_name":"第2段"},{"name":"瑞麟安宠动物诊疗中心","address":"冠亚星城c1底商152号瑞麟安宠动物诊疗中心","phone":"0537-2969120;15668100287","category":"医疗保健服务;动物医疗场所;宠物诊所","area":"","lng":116.628785,"lat":35.424732,"amap_id":"B0L1NAW3A7","order":25,"prev_distance_km":0.656,"cumulative_distance_km":31.492,"amap_marker_url":"https://uri.amap.com/marker?position=116.628785,35.424732&name=%E7%91%9E%E9%BA%9F%E5%AE%89%E5%AE%A0%E5%8A%A8%E7%89%A9%E8%AF%8A%E7%96%97%E4%B8%AD%E5%BF%83&src=vetmap&coordinate=gaode&callnative=1","route_id":"r2","route_name":"第2段"},{"name":"福来动物诊疗","address":"凌云路与锦园路交叉口东北280米","phone":"15853784011","category":"医疗保健服务;动物医疗场所;宠物诊所","area":"济宁国家高新技术产业开发区","lng":116.644625,"lat":35.418375,"amap_id":"B0LGF7J1SR","order":26,"prev_distance_km":1.6,"cumulative_distance_km":33.092,"amap_marker_url":"https://uri.amap.com/marker?position=116.644625,35.418375&name=%E7%A6%8F%E6%9D%A5%E5%8A%A8%E7%89%A9%E8%AF%8A%E7%96%97&src=vetmap&coordinate=gaode&callnative=1","route_id":"r2","route_name":"第2段"},{"name":"佑康动物医院","address":"柳行街道菱花富贵园二期2号商业街1单元0112室","phone":"15650550120","category":"医疗保健服务;动物医疗场所;宠物诊所","area":"济宁国家高新技术产业开发区","lng":116.655084,"lat":35.427992,"amap_id":"B0KAUCNE4M","order":27,"prev_distance_km":1.429,"cumulative_distance_km":34.521,"amap_marker_url":"https://uri.amap.com/marker?position=116.655084,35.427992&name=%E4%BD%91%E5%BA%B7%E5%8A%A8%E7%89%A9%E5%8C%BB%E9%99%A2&src=vetmap&coordinate=gaode&callnative=1","route_id":"r2","route_name":"第2段"},{"name":"济宁森里宠话动物医院","address":"杨柳国际新城小公寓区7号楼西南侧门头房","phone":"17562105251","category":"医疗保健服务;动物医疗场所;宠物诊所","area":"济宁国家高新技术产业开发区","lng":116.648121,"lat":35.437278,"amap_id":"B0I17CSQOC","order":28,"prev_distance_km":1.21,"cumulative_distance_km":35.731,"amap_marker_url":"https://uri.amap.com/marker?position=116.648121,35.437278&name=%E6%B5%8E%E5%AE%81%E6%A3%AE%E9%87%8C%E5%AE%A0%E8%AF%9D%E5%8A%A8%E7%89%A9%E5%8C%BB%E9%99%A2&src=vetmap&coordinate=gaode&callnative=1","route_id":"r2","route_name":"第2段"},{"name":"宠约动物诊疗中心","address":"柳行街道群英路龙城公馆北门","phone":"17515379397;18754798936","category":"医疗保健服务;动物医疗场所;宠物诊所","area":"济宁国家高新技术产业开发区","lng":116.694459,"lat":35.431041,"amap_id":"B0IDHAEHJW","order":29,"prev_distance_km":4.255,"cumulative_distance_km":39.986,"amap_marker_url":"https://uri.amap.com/marker?position=116.694459,35.431041&name=%E5%AE%A0%E7%BA%A6%E5%8A%A8%E7%89%A9%E8%AF%8A%E7%96%97%E4%B8%AD%E5%BF%83&src=vetmap&coordinate=gaode&callnative=1","route_id":"r2","route_name":"第2段"}]}],"rows":[{"name":"喻屯力狼兽药鱼药饲料宠物店","address":"喻屯镇派出所向南400米路西","phone":"13625479856;18266831332","category":"医疗保健服务;动物医疗场所;动物医疗场所","area":"","lng":116.512155,"lat":35.221684,"amap_id":"B0H6CYVOMC","order":1,"prev_distance_km":0.0,"cumulative_distance_km":0.0,"amap_marker_url":"https://uri.amap.com/marker?position=116.512155,35.221684&name=%E5%96%BB%E5%B1%AF%E5%8A%9B%E7%8B%BC%E5%85%BD%E8%8D%AF%E9%B1%BC%E8%8D%AF%E9%A5%B2%E6%96%99%E5%AE%A0%E7%89%A9%E5%BA%97&src=vetmap&coordinate=gaode&callnative=1","route_id":"r1","route_name":"第1段","global_order":1},{"name":"冠宇畜禽综合服务中心","address":"喻屯镇中心路143号","phone":"13325198444;15589755466","category":"医疗保健服务;动物医疗场所;兽医站","area":"","lng":116.515761,"lat":35.232143,"amap_id":"B0L01DFTEC","order":2,"prev_distance_km":1.208,"cumulative_distance_km":1.208,"amap_marker_url":"https://uri.amap.com/marker?position=116.515761,35.232143&name=%E5%86%A0%E5%AE%87%E7%95%9C%E7%A6%BD%E7%BB%BC%E5%90%88%E6%9C%8D%E5%8A%A1%E4%B8%AD%E5%BF%83&src=vetmap&coordinate=gaode&callnative=1","route_id":"r1","route_name":"第1段","global_order":2},{"name":"寻·爱宠动物医院","address":"河都路吾悦广场外街s-5-0155","phone":"15589716030","category":"医疗保健服务;动物医疗场所;宠物诊所","area":"","lng":116.60124,"lat":35.365851,"amap_id":"B0L6CLM4OA","order":3,"prev_distance_km":16.77,"cumulative_distance_km":17.978,"amap_marker_url":"https://uri.amap.com/marker?position=116.601240,35.365851&name=%E5%AF%BB%C2%B7%E7%88%B1%E5%AE%A0%E5%8A%A8%E7%89%A9%E5%8C%BB%E9%99%A2&src=vetmap&coordinate=gaode&callnative=1","route_id":"r1","route_name":"第1段","global_order":3},{"name":"济农动物医院","address":"东赵路一号东首","phone":"18454722220","category":"医疗保健服务;动物医疗场所;宠物诊所","area":"","lng":116.615147,"lat":35.368524,"amap_id":"B0LARM604V","order":4,"prev_distance_km":1.296,"cumulative_distance_km":19.274,"amap_marker_url":"https://uri.amap.com/marker?position=116.615147,35.368524&name=%E6%B5%8E%E5%86%9C%E5%8A%A8%E7%89%A9%E5%8C%BB%E9%99%A2&src=vetmap&coordinate=gaode&callnative=1","route_id":"r1","route_name":"第1段","global_order":4},{"name":"萌多多动物医院","address":"观音阁街道东南华区翠竹园小区东门南侧萌多多动物医院","phone":"18553706626","category":"医疗保健服务;动物医疗场所;宠物诊所","area":"","lng":116.61494,"lat":35.394615,"amap_id":"B0KASHQKYU","order":5,"prev_distance_km":2.901,"cumulative_distance_km":22.175,"amap_marker_url":"https://uri.amap.com/marker?position=116.614940,35.394615&name=%E8%90%8C%E5%A4%9A%E5%A4%9A%E5%8A%A8%E7%89%A9%E5%8C%BB%E9%99%A2&src=vetmap&coordinate=gaode&callnative=1","route_id":"r1","route_name":"第1段","global_order":5},{"name":"迈美森宠物诊所","address":"绿地国际城(北门转盘向东)A4号楼一楼商铺南门","phone":"18266823161","category":"医疗保健服务;动物医疗场所;宠物诊所","area":"","lng":116.613471,"lat":35.395973,"amap_id":"B0HUAH1UTI","order":6,"prev_distance_km":0.201,"cumulative_distance_km":22.376,"amap_marker_url":"https://uri.amap.com/marker?position=116.613471,35.395973&name=%E8%BF%88%E7%BE%8E%E6%A3%AE%E5%AE%A0%E7%89%A9%E8%AF%8A%E6%89%80&src=vetmap&coordinate=gaode&callnative=1","route_id":"r1","route_name":"第1段","global_order":6},{"name":"二郎神宠物超市","address":"建设路36号济宁医学院南80米","phone":"","category":"医疗保健服务;动物医疗场所;宠物诊所","area":"","lng":116.598568,"lat":35.395325,"amap_id":"B0K1M5MBI4","order":7,"prev_distance_km":1.353,"cumulative_distance_km":23.729,"amap_marker_url":"https://uri.amap.com/marker?position=116.598568,35.395325&name=%E4%BA%8C%E9%83%8E%E7%A5%9E%E5%AE%A0%E7%89%A9%E8%B6%85%E5%B8%82&src=vetmap&coordinate=gaode&callnative=1","route_id":"r1","route_name":"第1段","global_order":7},{"name":"吉牧动物医院","address":"南苑街道南柴禾街西保利时光印象商业街一号楼108号","phone":"15554412120","category":"医疗保健服务;动物医疗场所;宠物诊所","area":"","lng":116.593388,"lat":35.387722,"amap_id":"B0J169Y6H4","order":8,"prev_distance_km":0.967,"cumulative_distance_km":24.696,"amap_marker_url":"https://uri.amap.com/marker?position=116.593388,35.387722&name=%E5%90%89%E7%89%A7%E5%8A%A8%E7%89%A9%E5%8C%BB%E9%99%A2&src=vetmap&coordinate=gaode&callnative=1","route_id":"r1","route_name":"第1段","global_order":8},{"name":"吉牧动物医院门诊部","address":"保利·时光印象东门旁","phone":"","category":"医疗保健服务;动物医疗场所;宠物诊所","area":"","lng":116.59333,"lat":35.387738,"amap_id":"B0MBB9XIP9","order":9,"prev_distance_km":0.006,"cumulative_distance_km":24.702,"amap_marker_url":"https://uri.amap.com/marker?position=116.593330,35.387738&name=%E5%90%89%E7%89%A7%E5%8A%A8%E7%89%A9%E5%8C%BB%E9%99%A2%E9%97%A8%E8%AF%8A%E9%83%A8&src=vetmap&coordinate=gaode&callnative=1","route_id":"r1","route_name":"第1段","global_order":9},{"name":"家瑞宠物诊所","address":"王母阁路34-6号附近","phone":"18354765546","category":"医疗保健服务;动物医疗场所;宠物诊所","area":"","lng":116.585626,"lat":35.391374,"amap_id":"B0FFIHAJ1U","order":10,"prev_distance_km":0.807,"cumulative_distance_km":25.508,"amap_marker_url":"https://uri.amap.com/marker?position=116.585626,35.391374&name=%E5%AE%B6%E7%91%9E%E5%AE%A0%E7%89%A9%E8%AF%8A%E6%89%80&src=vetmap&coordinate=gaode&callnative=1","route_id":"r1","route_name":"第1段","global_order":10},{"name":"艾米丽宠物诊疗医院","address":"越河街道办事处东临人防工程及管理房(龙行路16-9)","phone":"18053724882","category":"医疗保健服务;动物医疗场所;宠物诊所","area":"","lng":116.585118,"lat":35.397015,"amap_id":"B0FFFGTFFN","order":11,"prev_distance_km":0.629,"cumulative_distance_km":26.137,"amap_marker_url":"https://uri.amap.com/marker?position=116.585118,35.397015&name=%E8%89%BE%E7%B1%B3%E4%B8%BD%E5%AE%A0%E7%89%A9%E8%AF%8A%E7%96%97%E5%8C%BB%E9%99%A2&src=vetmap&coordinate=gaode&callnative=1","route_id":"r1","route_name":"第1段","global_order":11},{"name":"贝贝佳宠物医院(龙行店)","address":"来鹤小区商3号楼中国电信旁","phone":"13287262715","category":"医疗保健服务;动物医疗场所;宠物诊所","area":"","lng":116.586951,"lat":35.397447,"amap_id":"B0JD4CRG6I","order":12,"prev_distance_km":0.173,"cumulative_distance_km":26.31,"amap_marker_url":"https://uri.amap.com/marker?position=116.586951,35.397447&name=%E8%B4%9D%E8%B4%9D%E4%BD%B3%E5%AE%A0%E7%89%A9%E5%8C%BB%E9%99%A2%28%E9%BE%99%E8%A1%8C%E5%BA%97%29&src=vetmap&coordinate=gaode&callnative=1","route_id":"r1","route_name":"第1段","global_order":12},{"name":"希望宠物门诊","address":"望湖小区南大门向北50米向东","phone":"15092786715","category":"医疗保健服务;动物医疗场所;宠物诊所","area":"","lng":116.58468,"lat":35.399545,"amap_id":"B0FFG48GZP","order":13,"prev_distance_km":0.311,"cumulative_distance_km":26.621,"amap_marker_url":"https://uri.amap.com/marker?position=116.584680,35.399545&name=%E5%B8%8C%E6%9C%9B%E5%AE%A0%E7%89%A9%E9%97%A8%E8%AF%8A&src=vetmap&coordinate=gaode&callnative=1","route_id":"r1","route_name":"第1段","global_order":13},{"name":"宠爱工作室(皇经阁店)","address":"龙行小区南2门旁","phone":"15318420316;16318420316","category":"医疗保健服务;动物医疗场所;动物医疗场所","area":"","lng":116.579098,"lat":35.400384,"amap_id":"B0FFHKUG4O","order":14,"prev_distance_km":0.514,"cumulative_distance_km":27.136,"amap_marker_url":"https://uri.amap.com/marker?position=116.579098,35.400384&name=%E5%AE%A0%E7%88%B1%E5%B7%A5%E4%BD%9C%E5%AE%A4%28%E7%9A%87%E7%BB%8F%E9%98%81%E5%BA%97%29&src=vetmap&coordinate=gaode&callnative=1","route_id":"r1","route_name":"第1段","global_order":14},{"name":"鲁康宠物医院","address":"玄帝届街11-8号","phone":"13954796929;15854719878","category":"医疗保健服务;动物医疗场所;宠物诊所","area":"环城西路","lng":116.573209,"lat":35.398952,"amap_id":"B0FFHKUG1T","order":15,"prev_distance_km":0.557,"cumulative_distance_km":27.693,"amap_marker_url":"https://uri.amap.com/marker?position=116.573209,35.398952&name=%E9%B2%81%E5%BA%B7%E5%AE%A0%E7%89%A9%E5%8C%BB%E9%99%A2&src=vetmap&coordinate=gaode&callnative=1","route_id":"r1","route_name":"第1段","global_order":15},{"name":"贵族宠物医院骨科·猫科(南池商业街店)","address":"南池水御景园C区东门南170米","phone":"15166711860;18654788860","category":"医疗保健服务;动物医疗场所;宠物诊所","area":"","lng":116.57587,"lat":35.390419,"amap_id":"B0H6LCF4HQ","order":16,"prev_distance_km":0.979,"cumulative_distance_km":28.672,"amap_marker_url":"https://uri.amap.com/marker?position=116.575870,35.390419&name=%E8%B4%B5%E6%97%8F%E5%AE%A0%E7%89%A9%E5%8C%BB%E9%99%A2%E9%AA%A8%E7%A7%91%C2%B7%E7%8C%AB%E7%A7%91%28%E5%8D%97%E6%B1%A0%E5%95%86%E4%B8%9A%E8%A1%97%E5%BA%97%29&src=vetmap&coordinate=gaode&callnative=1","route_id":"r1","route_name":"第1段","global_order":16},{"name":"贝贝佳宠物医院","address":"南池乔庄文景园B区玄帝庙街27号","phone":"19153721198","category":"医疗保健服务;动物医疗场所;宠物诊所","area":"车站西路","lng":116.573305,"lat":35.384119,"amap_id":"B0FFM1TGJF","order":17,"prev_distance_km":0.738,"cumulative_distance_km":29.41,"amap_marker_url":"https://uri.amap.com/marker?position=116.573305,35.384119&name=%E8%B4%9D%E8%B4%9D%E4%BD%B3%E5%AE%A0%E7%89%A9%E5%8C%BB%E9%99%A2&src=vetmap&coordinate=gaode&callnative=1","route_id":"r1","route_name":"第1段","global_order":17},{"name":"海创动物门诊","address":"龙行路南池汇景园小区外8号门市","phone":"13805373564","category":"医疗保健服务;动物医疗场所;宠物诊所","area":"","lng":116.569667,"lat":35.397336,"amap_id":"B0FFIQZM23","order":18,"prev_distance_km":1.506,"cumulative_distance_km":30.916,"amap_marker_url":"https://uri.amap.com/marker?position=116.569667,35.397336&name=%E6%B5%B7%E5%88%9B%E5%8A%A8%E7%89%A9%E9%97%A8%E8%AF%8A&src=vetmap&coordinate=gaode&callnative=1","route_id":"r1","route_name":"第1段","global_order":18},{"name":"济宁市任城区我爱我家动物保健中心","address":"天和盛大酒店西30米","phone":"13676371391","category":"医疗保健服务;动物医疗场所;宠物诊所|医疗保健服务;动物医疗场所;兽医站","area":"","lng":116.570906,"lat":35.400147,"amap_id":"B0FFKP1ATW","order":19,"prev_distance_km":0.332,"cumulative_distance_km":31.248,"amap_marker_url":"https://uri.amap.com/marker?position=116.570906,35.400147&name=%E6%B5%8E%E5%AE%81%E5%B8%82%E4%BB%BB%E5%9F%8E%E5%8C%BA%E6%88%91%E7%88%B1%E6%88%91%E5%AE%B6%E5%8A%A8%E7%89%A9%E4%BF%9D%E5%81%A5%E4%B8%AD%E5%BF%83&src=vetmap&coordinate=gaode&callnative=1","route_id":"r1","route_name":"第1段","global_order":19},{"name":"济宁市西郊动物医院","address":"新华路南路","phone":"0537-2280818;13953799530","category":"医疗保健服务;动物医疗场所;宠物诊所","area":"","lng":116.558212,"lat":35.407135,"amap_id":"B0FFG46HZ2","order":20,"prev_distance_km":1.388,"cumulative_distance_km":32.637,"amap_marker_url":"https://uri.amap.com/marker?position=116.558212,35.407135&name=%E6%B5%8E%E5%AE%81%E5%B8%82%E8%A5%BF%E9%83%8A%E5%8A%A8%E7%89%A9%E5%8C%BB%E9%99%A2&src=vetmap&coordinate=gaode&callnative=1","route_id":"r1","route_name":"第1段","global_order":20},{"name":"安佳动物医院","address":"古槐街道环城西路59-39","phone":"19105372225","category":"医疗保健服务;动物医疗场所;宠物诊所","area":"草桥口","lng":116.573523,"lat":35.409001,"amap_id":"B0J0SZAXGE","order":21,"prev_distance_km":1.403,"cumulative_distance_km":34.04,"amap_marker_url":"https://uri.amap.com/marker?position=116.573523,35.409001&name=%E5%AE%89%E4%BD%B3%E5%8A%A8%E7%89%A9%E5%8C%BB%E9%99%A2&src=vetmap&coordinate=gaode&callnative=1","route_id":"r1","route_name":"第1段","global_order":21},{"name":"诺康动物医院","address":"红星中路34-7号","phone":"15615878928","category":"医疗保健服务;动物医疗场所;宠物诊所","area":"古槐路","lng":116.582389,"lat":35.414432,"amap_id":"B0H0OSYL1H","order":22,"prev_distance_km":1.005,"cumulative_distance_km":35.045,"amap_marker_url":"https://uri.amap.com/marker?position=116.582389,35.414432&name=%E8%AF%BA%E5%BA%B7%E5%8A%A8%E7%89%A9%E5%8C%BB%E9%99%A2&src=vetmap&coordinate=gaode&callnative=1","route_id":"r1","route_name":"第1段","global_order":22},{"name":"汤姆狗(东门大街店)","address":"人民公园北门西80米","phone":"0537-2260711","category":"医疗保健服务;动物医疗场所;宠物诊所","area":"","lng":116.587459,"lat":35.411997,"amap_id":"B0FFFGT3BT","order":23,"prev_distance_km":0.533,"cumulative_distance_km":35.578,"amap_marker_url":"https://uri.amap.com/marker?position=116.587459,35.411997&name=%E6%B1%A4%E5%A7%86%E7%8B%97%28%E4%B8%9C%E9%97%A8%E5%A4%A7%E8%A1%97%E5%BA%97%29&src=vetmap&coordinate=gaode&callnative=1","route_id":"r1","route_name":"第1段","global_order":23},{"name":"爱宠宠物美容工作室","address":"红星中路红星8号","phone":"18660732366","category":"医疗保健服务;动物医疗场所;宠物诊所","area":"建设路","lng":116.594869,"lat":35.413418,"amap_id":"B0FFGAVNFL","order":24,"prev_distance_km":0.69,"cumulative_distance_km":36.268,"amap_marker_url":"https://uri.amap.com/marker?position=116.594869,35.413418&name=%E7%88%B1%E5%AE%A0%E5%AE%A0%E7%89%A9%E7%BE%8E%E5%AE%B9%E5%B7%A5%E4%BD%9C%E5%AE%A4&src=vetmap&coordinate=gaode&callnative=1","route_id":"r1","route_name":"第1段","global_order":24},{"name":"多多洛动物医院","address":"万达华府中区东门旁(大润发停车场对面)","phone":"17753701120","category":"医疗保健服务;动物医疗场所;宠物诊所","area":"太白楼","lng":116.603438,"lat":35.409969,"amap_id":"B0HUK78G2R","order":25,"prev_distance_km":0.866,"cumulative_distance_km":37.134,"amap_marker_url":"https://uri.amap.com/marker?position=116.603438,35.409969&name=%E5%A4%9A%E5%A4%9A%E6%B4%9B%E5%8A%A8%E7%89%A9%E5%8C%BB%E9%99%A2&src=vetmap&coordinate=gaode&callnative=1","route_id":"r1","route_name":"第1段","global_order":25},{"name":"森林vet动物诊疗猫科·异宠专科","address":"太白东路33-4号烈士陵园西50米路北","phone":"15020736767;15335378802","category":"医疗保健服务;动物医疗场所;宠物诊所","area":"太白楼","lng":116.610248,"lat":35.407901,"amap_id":"B0IB2DRHR2","order":26,"prev_distance_km":0.659,"cumulative_distance_km":37.793,"amap_marker_url":"https://uri.amap.com/marker?position=116.610248,35.407901&name=%E6%A3%AE%E6%9E%97vet%E5%8A%A8%E7%89%A9%E8%AF%8A%E7%96%97%E7%8C%AB%E7%A7%91%C2%B7%E5%BC%82%E5%AE%A0%E4%B8%93%E7%A7%91&src=vetmap&coordinate=gaode&callnative=1","route_id":"r1","route_name":"第1段","global_order":26},{"name":"济宁市天羽环宠物服务","address":"杨柳街碧桂园二期领誉西南侧","phone":"","category":"医疗保健服务;动物医疗场所;宠物诊所","area":"济宁国家高新技术产业开发区","lng":116.654594,"lat":35.414356,"amap_id":"B0L0NRSS9E","order":27,"prev_distance_km":4.082,"cumulative_distance_km":41.875,"amap_marker_url":"https://uri.amap.com/marker?position=116.654594,35.414356&name=%E6%B5%8E%E5%AE%81%E5%B8%82%E5%A4%A9%E7%BE%BD%E7%8E%AF%E5%AE%A0%E7%89%A9%E6%9C%8D%E5%8A%A1&src=vetmap&coordinate=gaode&callnative=1","route_id":"r1","route_name":"第1段","global_order":27},{"name":"济宁市高新区接庄畜牧兽医服务部","address":"济邹路与建设路交叉口西南20米","phone":"","category":"医疗保健服务;动物医疗场所;兽医站","area":"济宁国家高新技术产业开发区","lng":116.706136,"lat":35.377462,"amap_id":"B0L0V9IY3O","order":28,"prev_distance_km":6.217,"cumulative_distance_km":48.093,"amap_marker_url":"https://uri.amap.com/marker?position=116.706136,35.377462&name=%E6%B5%8E%E5%AE%81%E5%B8%82%E9%AB%98%E6%96%B0%E5%8C%BA%E6%8E%A5%E5%BA%84%E7%95%9C%E7%89%A7%E5%85%BD%E5%8C%BB%E6%9C%8D%E5%8A%A1%E9%83%A8&src=vetmap&coordinate=gaode&callnative=1","route_id":"r1","route_name":"第1段","global_order":28},{"name":"529宠物门诊","address":"后李村矿外路与济宁大道高架桥交叉口向南20米路西","phone":"15554778081","category":"医疗保健服务;动物医疗场所;宠物诊所","area":"济宁国家高新技术产业开发区","lng":116.685729,"lat":35.34761,"amap_id":"B0FFLCWFZY","order":29,"prev_distance_km":3.8,"cumulative_distance_km":51.893,"amap_marker_url":"https://uri.amap.com/marker?position=116.685729,35.347610&name=529%E5%AE%A0%E7%89%A9%E9%97%A8%E8%AF%8A&src=vetmap&coordinate=gaode&callnative=1","route_id":"r1","route_name":"第1段","global_order":29},{"name":"长沟兽医站门诊部","address":"长沟镇商贸街","phone":"","category":"医疗保健服务;动物医疗场所;兽医站|医疗保健服务;急救中心;急救中心","area":"","lng":116.450433,"lat":35.502169,"amap_id":"B0FFHIATX9","order":1,"prev_distance_km":0.0,"cumulative_distance_km":0.0,"amap_marker_url":"https://uri.amap.com/marker?position=116.450433,35.502169&name=%E9%95%BF%E6%B2%9F%E5%85%BD%E5%8C%BB%E7%AB%99%E9%97%A8%E8%AF%8A%E9%83%A8&src=vetmap&coordinate=gaode&callnative=1","route_id":"r2","route_name":"第2段","global_order":30},{"name":"南张兽医站","address":"南张镇","phone":"","category":"医疗保健服务;动物医疗场所;兽医站","area":"","lng":116.512742,"lat":35.458297,"amap_id":"B0FFL2YFCK","order":2,"prev_distance_km":7.459,"cumulative_distance_km":7.459,"amap_marker_url":"https://uri.amap.com/marker?position=116.512742,35.458297&name=%E5%8D%97%E5%BC%A0%E5%85%BD%E5%8C%BB%E7%AB%99&src=vetmap&coordinate=gaode&callnative=1","route_id":"r2","route_name":"第2段","global_order":31},{"name":"任城区犬只留检所","address":"唐口煤业东北390米","phone":"","category":"医疗保健服务;动物医疗场所;动物医疗场所","area":"","lng":116.528561,"lat":35.440869,"amap_id":"B0GKTUOQ70","order":3,"prev_distance_km":2.41,"cumulative_distance_km":9.869,"amap_marker_url":"https://uri.amap.com/marker?position=116.528561,35.440869&name=%E4%BB%BB%E5%9F%8E%E5%8C%BA%E7%8A%AC%E5%8F%AA%E7%95%99%E6%A3%80%E6%89%80&src=vetmap&coordinate=gaode&callnative=1","route_id":"r2","route_name":"第2段","global_order":32},{"name":"任城动物医院(济安桥路)","address":"济安桥北路金宇路路口南100米","phone":"0537-2226268;13153710009;15505370098","category":"医疗保健服务;动物医疗场所;宠物诊所","area":"济安桥","lng":116.565291,"lat":35.429671,"amap_id":"B0FFFGTUE4","order":4,"prev_distance_km":3.553,"cumulative_distance_km":13.422,"amap_marker_url":"https://uri.amap.com/marker?position=116.565291,35.429671&name=%E4%BB%BB%E5%9F%8E%E5%8A%A8%E7%89%A9%E5%8C%BB%E9%99%A2%28%E6%B5%8E%E5%AE%89%E6%A1%A5%E8%B7%AF%29&src=vetmap&coordinate=gaode&callnative=1","route_id":"r2","route_name":"第2段","global_order":33},{"name":"济州动物医院(仁诚雅居店)","address":"仁诚雅居南门东270米","phone":"13053775345","category":"医疗保健服务;动物医疗场所;宠物诊所","area":"古槐路","lng":116.569691,"lat":35.436373,"amap_id":"B0FFLGKL31","order":5,"prev_distance_km":0.845,"cumulative_distance_km":14.267,"amap_marker_url":"https://uri.amap.com/marker?position=116.569691,35.436373&name=%E6%B5%8E%E5%B7%9E%E5%8A%A8%E7%89%A9%E5%8C%BB%E9%99%A2%28%E4%BB%81%E8%AF%9A%E9%9B%85%E5%B1%85%E5%BA%97%29&src=vetmap&coordinate=gaode&callnative=1","route_id":"r2","route_name":"第2段","global_order":34},{"name":"宠医森动物诊疗中心","address":"金城街道常青路12号","phone":"15666175752","category":"医疗保健服务;动物医疗场所;宠物诊所","area":"常青路","lng":116.581694,"lat":35.426096,"amap_id":"B0JRTZWJWP","order":6,"prev_distance_km":1.578,"cumulative_distance_km":15.844,"amap_marker_url":"https://uri.amap.com/marker?position=116.581694,35.426096&name=%E5%AE%A0%E5%8C%BB%E6%A3%AE%E5%8A%A8%E7%89%A9%E8%AF%8A%E7%96%97%E4%B8%AD%E5%BF%83&src=vetmap&coordinate=gaode&callnative=1","route_id":"r2","route_name":"第2段","global_order":35},{"name":"浩诺宠物医院","address":"共青团路与谢营中心街交叉口东南100米","phone":"","category":"医疗保健服务;动物医疗场所;宠物诊所","area":"吴泰闸路","lng":116.589525,"lat":35.427725,"amap_id":"B0L3M7MP4C","order":7,"prev_distance_km":0.732,"cumulative_distance_km":16.577,"amap_marker_url":"https://uri.amap.com/marker?position=116.589525,35.427725&name=%E6%B5%A9%E8%AF%BA%E5%AE%A0%E7%89%A9%E5%8C%BB%E9%99%A2&src=vetmap&coordinate=gaode&callnative=1","route_id":"r2","route_name":"第2段","global_order":36},{"name":"美联众合动物医院(济宁阳光分院)","address":"洸河路恒丰苑小区100-7号门面房","phone":"0537-2285120;13280092257","category":"医疗保健服务;动物医疗场所;宠物诊所","area":"共青团路","lng":116.590043,"lat":35.420103,"amap_id":"B0FFFOOR5M","order":8,"prev_distance_km":0.849,"cumulative_distance_km":17.425,"amap_marker_url":"https://uri.amap.com/marker?position=116.590043,35.420103&name=%E7%BE%8E%E8%81%94%E4%BC%97%E5%90%88%E5%8A%A8%E7%89%A9%E5%8C%BB%E9%99%A2%28%E6%B5%8E%E5%AE%81%E9%98%B3%E5%85%89%E5%88%86%E9%99%A2%29&src=vetmap&coordinate=gaode&callnative=1","route_id":"r2","route_name":"第2段","global_order":37},{"name":"阳光宠物医院(洸河路)","address":"恒丰苑洸河路北门旁","phone":"","category":"医疗保健服务;动物医疗场所;宠物诊所","area":"共青团路","lng":116.59018,"lat":35.419966,"amap_id":"B0HR6P7UC3","order":9,"prev_distance_km":0.02,"cumulative_distance_km":17.445,"amap_marker_url":"https://uri.amap.com/marker?position=116.590180,35.419966&name=%E9%98%B3%E5%85%89%E5%AE%A0%E7%89%A9%E5%8C%BB%E9%99%A2%28%E6%B4%B8%E6%B2%B3%E8%B7%AF%29&src=vetmap&coordinate=gaode&callnative=1","route_id":"r2","route_name":"第2段","global_order":38},{"name":"联宠动物医院(海关路店)","address":"海关路21-9号","phone":"0537-2589120;18266797922","category":"医疗保健服务;动物医疗场所;宠物诊所","area":"建设路","lng":116.597493,"lat":35.418197,"amap_id":"B0FFH0DI9U","order":10,"prev_distance_km":0.691,"cumulative_distance_km":18.136,"amap_marker_url":"https://uri.amap.com/marker?position=116.597493,35.418197&name=%E8%81%94%E5%AE%A0%E5%8A%A8%E7%89%A9%E5%8C%BB%E9%99%A2%28%E6%B5%B7%E5%85%B3%E8%B7%AF%E5%BA%97%29&src=vetmap&coordinate=gaode&callnative=1","route_id":"r2","route_name":"第2段","global_order":39},{"name":"甲乙丁动物医院(新世纪广场店)","address":"洸河路16号","phone":"0537-2218120;17686117121","category":"医疗保健服务;动物医疗场所;宠物诊所","area":"","lng":116.604849,"lat":35.42069,"amap_id":"B0KRNRPJ5D","order":11,"prev_distance_km":0.722,"cumulative_distance_km":18.858,"amap_marker_url":"https://uri.amap.com/marker?position=116.604849,35.420690&name=%E7%94%B2%E4%B9%99%E4%B8%81%E5%8A%A8%E7%89%A9%E5%8C%BB%E9%99%A2%28%E6%96%B0%E4%B8%96%E7%BA%AA%E5%B9%BF%E5%9C%BA%E5%BA%97%29&src=vetmap&coordinate=gaode&callnative=1","route_id":"r2","route_name":"第2段","global_order":40},{"name":"青禾动物医院","address":"仙营街道仙都小区A7号楼02号","phone":"16653751200","category":"医疗保健服务;动物医疗场所;宠物诊所","area":"吴泰闸路","lng":116.598863,"lat":35.422986,"amap_id":"B0LAT57D3C","order":12,"prev_distance_km":0.599,"cumulative_distance_km":19.458,"amap_marker_url":"https://uri.amap.com/marker?position=116.598863,35.422986&name=%E9%9D%92%E7%A6%BE%E5%8A%A8%E7%89%A9%E5%8C%BB%E9%99%A2&src=vetmap&coordinate=gaode&callnative=1","route_id":"r2","route_name":"第2段","global_order":41},{"name":"汤姆狗动物医院(赛宝店)","address":"吴泰闸路63-3号","phone":"0537-2360707;13853740970","category":"医疗保健服务;动物医疗场所;宠物诊所","area":"金宇路","lng":116.599162,"lat":35.425166,"amap_id":"B0FFFGTF96","order":13,"prev_distance_km":0.244,"cumulative_distance_km":19.702,"amap_marker_url":"https://uri.amap.com/marker?position=116.599162,35.425166&name=%E6%B1%A4%E5%A7%86%E7%8B%97%E5%8A%A8%E7%89%A9%E5%8C%BB%E9%99%A2%28%E8%B5%9B%E5%AE%9D%E5%BA%97%29&src=vetmap&coordinate=gaode&callnative=1","route_id":"r2","route_name":"第2段","global_order":42},{"name":"天诺雅公司动物医院","address":"共青团路与任城大道交叉口南200米","phone":"","category":"医疗保健服务;动物医疗场所;宠物诊所","area":"金宇路","lng":116.5882,"lat":35.438451,"amap_id":"B0IUUAO17X","order":14,"prev_distance_km":1.78,"cumulative_distance_km":21.482,"amap_marker_url":"https://uri.amap.com/marker?position=116.588200,35.438451&name=%E5%A4%A9%E8%AF%BA%E9%9B%85%E5%85%AC%E5%8F%B8%E5%8A%A8%E7%89%A9%E5%8C%BB%E9%99%A2&src=vetmap&coordinate=gaode&callnative=1","route_id":"r2","route_name":"第2段","global_order":43},{"name":"爱莲堂宠物诊所","address":"李营街道睿湖壹号商业街3号","phone":"0537-2299894;16653738010","category":"医疗保健服务;动物医疗场所;宠物诊所","area":"","lng":116.599106,"lat":35.443148,"amap_id":"B0JGHZQKDE","order":15,"prev_distance_km":1.118,"cumulative_distance_km":22.599,"amap_marker_url":"https://uri.amap.com/marker?position=116.599106,35.443148&name=%E7%88%B1%E8%8E%B2%E5%A0%82%E5%AE%A0%E7%89%A9%E8%AF%8A%E6%89%80&src=vetmap&coordinate=gaode&callnative=1","route_id":"r2","route_name":"第2段","global_order":44},{"name":"济宁市葆慧康动物医院(瑞马分院)","address":"任顺路瑞马名门商业街北首110号","phone":"13176173075","category":"医疗保健服务;动物医疗场所;宠物诊所","area":"","lng":116.613393,"lat":35.45259,"amap_id":"B0HKJUZ8YD","order":16,"prev_distance_km":1.666,"cumulative_distance_km":24.266,"amap_marker_url":"https://uri.amap.com/marker?position=116.613393,35.452590&name=%E6%B5%8E%E5%AE%81%E5%B8%82%E8%91%86%E6%85%A7%E5%BA%B7%E5%8A%A8%E7%89%A9%E5%8C%BB%E9%99%A2%28%E7%91%9E%E9%A9%AC%E5%88%86%E9%99%A2%29&src=vetmap&coordinate=gaode&callnative=1","route_id":"r2","route_name":"第2段","global_order":45},{"name":"维宠宠物诊所(环西店)","address":"翠都佳苑7号楼底商","phone":"15668188625","category":"医疗保健服务;动物医疗场所;宠物诊所","area":"金宇路","lng":116.604376,"lat":35.439078,"amap_id":"B0GKJYWPZ3","order":17,"prev_distance_km":1.71,"cumulative_distance_km":25.976,"amap_marker_url":"https://uri.amap.com/marker?position=116.604376,35.439078&name=%E7%BB%B4%E5%AE%A0%E5%AE%A0%E7%89%A9%E8%AF%8A%E6%89%80%28%E7%8E%AF%E8%A5%BF%E5%BA%97%29&src=vetmap&coordinate=gaode&callnative=1","route_id":"r2","route_name":"第2段","global_order":46},{"name":"贵族宠物医院(佳世客店)","address":"富丽华佳苑西门北220米","phone":"15588770996","category":"医疗保健服务;动物医疗场所;宠物诊所","area":"金宇路","lng":116.602403,"lat":35.434411,"amap_id":"B0JDHS8L2W","order":18,"prev_distance_km":0.549,"cumulative_distance_km":26.525,"amap_marker_url":"https://uri.amap.com/marker?position=116.602403,35.434411&name=%E8%B4%B5%E6%97%8F%E5%AE%A0%E7%89%A9%E5%8C%BB%E9%99%A2%28%E4%BD%B3%E4%B8%96%E5%AE%A2%E5%BA%97%29&src=vetmap&coordinate=gaode&callnative=1","route_id":"r2","route_name":"第2段","global_order":47},{"name":"宠来宠趣宠物美容会所","address":"新元路与丰泰路交叉口北160米","phone":"13963792525","category":"医疗保健服务;动物医疗场所;动物医疗场所","area":"","lng":116.611086,"lat":35.434231,"amap_id":"B0KANUQJKP","order":19,"prev_distance_km":0.787,"cumulative_distance_km":27.312,"amap_marker_url":"https://uri.amap.com/marker?position=116.611086,35.434231&name=%E5%AE%A0%E6%9D%A5%E5%AE%A0%E8%B6%A3%E5%AE%A0%E7%89%A9%E7%BE%8E%E5%AE%B9%E4%BC%9A%E6%89%80&src=vetmap&coordinate=gaode&callnative=1","route_id":"r2","route_name":"第2段","global_order":48},{"name":"美联众合动物医院(科苑路店)","address":"科苑路1号商业阳光盛景园00单元-2层0106-0107门面房","phone":"0537-2883120;15562365853","category":"医疗保健服务;动物医疗场所;宠物诊所","area":"科苑路","lng":116.616399,"lat":35.427559,"amap_id":"B0G0X6VUH5","order":20,"prev_distance_km":0.884,"cumulative_distance_km":28.196,"amap_marker_url":"https://uri.amap.com/marker?position=116.616399,35.427559&name=%E7%BE%8E%E8%81%94%E4%BC%97%E5%90%88%E5%8A%A8%E7%89%A9%E5%8C%BB%E9%99%A2%28%E7%A7%91%E8%8B%91%E8%B7%AF%E5%BA%97%29&src=vetmap&coordinate=gaode&callnative=1","route_id":"r2","route_name":"第2段","global_order":49},{"name":"济宁爱宠宠物医院","address":"洸河路43号","phone":"0537-2334299;13562747029","category":"医疗保健服务;动物医疗场所;宠物诊所","area":"科苑路","lng":116.614605,"lat":35.420771,"amap_id":"B0FFH4AQTZ","order":21,"prev_distance_km":0.772,"cumulative_distance_km":28.968,"amap_marker_url":"https://uri.amap.com/marker?position=116.614605,35.420771&name=%E6%B5%8E%E5%AE%81%E7%88%B1%E5%AE%A0%E5%AE%A0%E7%89%A9%E5%8C%BB%E9%99%A2&src=vetmap&coordinate=gaode&callnative=1","route_id":"r2","route_name":"第2段","global_order":50},{"name":"沐棠宠物","address":"明珠花园祥和园南1门东70米","phone":"15020727361","category":"医疗保健服务;动物医疗场所;动物医疗场所","area":"科苑路","lng":116.619205,"lat":35.415478,"amap_id":"B0L0MC9KDI","order":22,"prev_distance_km":0.721,"cumulative_distance_km":29.689,"amap_marker_url":"https://uri.amap.com/marker?position=116.619205,35.415478&name=%E6%B2%90%E6%A3%A0%E5%AE%A0%E7%89%A9&src=vetmap&coordinate=gaode&callnative=1","route_id":"r2","route_name":"第2段","global_order":51},{"name":"济宁市葆慧康","address":"洸河办事处东闸社区东闸商城北3-5营业房","phone":"0537-2337728","category":"医疗保健服务;动物医疗场所;宠物诊所","area":"科苑路","lng":116.620475,"lat":35.422025,"amap_id":"B0FFK3SK4O","order":23,"prev_distance_km":0.737,"cumulative_distance_km":30.427,"amap_marker_url":"https://uri.amap.com/marker?position=116.620475,35.422025&name=%E6%B5%8E%E5%AE%81%E5%B8%82%E8%91%86%E6%85%A7%E5%BA%B7&src=vetmap&coordinate=gaode&callnative=1","route_id":"r2","route_name":"第2段","global_order":52},{"name":"派特宠物医院(新闻大厦店)","address":"洸河路与火炬路交叉口向东路南新闻大厦","phone":"13625370216","category":"医疗保健服务;动物医疗场所;宠物诊所","area":"火炬路","lng":116.624323,"lat":35.420087,"amap_id":"B0FFJ3C18R","order":24,"prev_distance_km":0.41,"cumulative_distance_km":30.836,"amap_marker_url":"https://uri.amap.com/marker?position=116.624323,35.420087&name=%E6%B4%BE%E7%89%B9%E5%AE%A0%E7%89%A9%E5%8C%BB%E9%99%A2%28%E6%96%B0%E9%97%BB%E5%A4%A7%E5%8E%A6%E5%BA%97%29&src=vetmap&coordinate=gaode&callnative=1","route_id":"r2","route_name":"第2段","global_order":53},{"name":"瑞麟安宠动物诊疗中心","address":"冠亚星城c1底商152号瑞麟安宠动物诊疗中心","phone":"0537-2969120;15668100287","category":"医疗保健服务;动物医疗场所;宠物诊所","area":"","lng":116.628785,"lat":35.424732,"amap_id":"B0L1NAW3A7","order":25,"prev_distance_km":0.656,"cumulative_distance_km":31.492,"amap_marker_url":"https://uri.amap.com/marker?position=116.628785,35.424732&name=%E7%91%9E%E9%BA%9F%E5%AE%89%E5%AE%A0%E5%8A%A8%E7%89%A9%E8%AF%8A%E7%96%97%E4%B8%AD%E5%BF%83&src=vetmap&coordinate=gaode&callnative=1","route_id":"r2","route_name":"第2段","global_order":54},{"name":"福来动物诊疗","address":"凌云路与锦园路交叉口东北280米","phone":"15853784011","category":"医疗保健服务;动物医疗场所;宠物诊所","area":"济宁国家高新技术产业开发区","lng":116.644625,"lat":35.418375,"amap_id":"B0LGF7J1SR","order":26,"prev_distance_km":1.6,"cumulative_distance_km":33.092,"amap_marker_url":"https://uri.amap.com/marker?position=116.644625,35.418375&name=%E7%A6%8F%E6%9D%A5%E5%8A%A8%E7%89%A9%E8%AF%8A%E7%96%97&src=vetmap&coordinate=gaode&callnative=1","route_id":"r2","route_name":"第2段","global_order":55},{"name":"佑康动物医院","address":"柳行街道菱花富贵园二期2号商业街1单元0112室","phone":"15650550120","category":"医疗保健服务;动物医疗场所;宠物诊所","area":"济宁国家高新技术产业开发区","lng":116.655084,"lat":35.427992,"amap_id":"B0KAUCNE4M","order":27,"prev_distance_km":1.429,"cumulative_distance_km":34.521,"amap_marker_url":"https://uri.amap.com/marker?position=116.655084,35.427992&name=%E4%BD%91%E5%BA%B7%E5%8A%A8%E7%89%A9%E5%8C%BB%E9%99%A2&src=vetmap&coordinate=gaode&callnative=1","route_id":"r2","route_name":"第2段","global_order":56},{"name":"济宁森里宠话动物医院","address":"杨柳国际新城小公寓区7号楼西南侧门头房","phone":"17562105251","category":"医疗保健服务;动物医疗场所;宠物诊所","area":"济宁国家高新技术产业开发区","lng":116.648121,"lat":35.437278,"amap_id":"B0I17CSQOC","order":28,"prev_distance_km":1.21,"cumulative_distance_km":35.731,"amap_marker_url":"https://uri.amap.com/marker?position=116.648121,35.437278&name=%E6%B5%8E%E5%AE%81%E6%A3%AE%E9%87%8C%E5%AE%A0%E8%AF%9D%E5%8A%A8%E7%89%A9%E5%8C%BB%E9%99%A2&src=vetmap&coordinate=gaode&callnative=1","route_id":"r2","route_name":"第2段","global_order":57},{"name":"宠约动物诊疗中心","address":"柳行街道群英路龙城公馆北门","phone":"17515379397;18754798936","category":"医疗保健服务;动物医疗场所;宠物诊所","area":"济宁国家高新技术产业开发区","lng":116.694459,"lat":35.431041,"amap_id":"B0IDHAEHJW","order":29,"prev_distance_km":4.255,"cumulative_distance_km":39.986,"amap_marker_url":"https://uri.amap.com/marker?position=116.694459,35.431041&name=%E5%AE%A0%E7%BA%A6%E5%8A%A8%E7%89%A9%E8%AF%8A%E7%96%97%E4%B8%AD%E5%BF%83&src=vetmap&coordinate=gaode&callnative=1","route_id":"r2","route_name":"第2段","global_order":58}]}