{"summary":{"id":"d00355","province":"山东省","city":"泰安市","district":"泰山区","count":36,"total_distance_km":32.697,"coordinate_system":"GCJ-02 / Amap","generated_at":"2026-05-07 19:56:16"},"rows":[{"name":"泰康宠物兽医诊所","address":"徂徕路和万官大街的交叉口附近","phone":"13583813872;13805386023","category":"医疗保健服务;动物医疗场所;宠物诊所","area":"","lng":117.146974,"lat":36.147567,"amap_id":"B0JUM6ZA3S","order":1,"prev_distance_km":0.0,"cumulative_distance_km":0.0,"amap_marker_url":"https://uri.amap.com/marker?position=117.146974,36.147567&name=%E6%B3%B0%E5%BA%B7%E5%AE%A0%E7%89%A9%E5%85%BD%E5%8C%BB%E8%AF%8A%E6%89%80&src=vetmap&coordinate=gaode&callnative=1"},{"name":"我爱我宠宠物诊所","address":"南关大街中岳花园41-26号","phone":"18653817927","category":"医疗保健服务;动物医疗场所;宠物诊所","area":"南湖路","lng":117.132324,"lat":36.180036,"amap_id":"B0FFIHMOQE","order":2,"prev_distance_km":3.842,"cumulative_distance_km":3.842,"amap_marker_url":"https://uri.amap.com/marker?position=117.132324,36.180036&name=%E6%88%91%E7%88%B1%E6%88%91%E5%AE%A0%E5%AE%A0%E7%89%A9%E8%AF%8A%E6%89%80&src=vetmap&coordinate=gaode&callnative=1"},{"name":"仁偲动物医院","address":"南关大街22-1号","phone":"15753808120","category":"医疗保健服务;动物医疗场所;宠物诊所","area":"南湖路","lng":117.132829,"lat":36.182229,"amap_id":"B0K6KC3G0H","order":3,"prev_distance_km":0.248,"cumulative_distance_km":4.09,"amap_marker_url":"https://uri.amap.com/marker?position=117.132829,36.182229&name=%E4%BB%81%E5%81%B2%E5%8A%A8%E7%89%A9%E5%8C%BB%E9%99%A2&src=vetmap&coordinate=gaode&callnative=1"},{"name":"咚来咪动物医院","address":"灵山大街259-6号尚座国际(西1门)底商","phone":"18253809868","category":"医疗保健服务;动物医疗场所;宠物诊所","area":"","lng":117.13709,"lat":36.183844,"amap_id":"B0HRZUNBOO","order":4,"prev_distance_km":0.422,"cumulative_distance_km":4.513,"amap_marker_url":"https://uri.amap.com/marker?position=117.137090,36.183844&name=%E5%92%9A%E6%9D%A5%E5%92%AA%E5%8A%A8%E7%89%A9%E5%8C%BB%E9%99%A2&src=vetmap&coordinate=gaode&callnative=1"},{"name":"龙龙宠物医院","address":"新灵山大街梦想谷东361-14","phone":"13953857397;15318111968","category":"医疗保健服务;动物医疗场所;宠物诊所","area":"","lng":117.139945,"lat":36.184872,"amap_id":"B021A0OMF7","order":5,"prev_distance_km":0.281,"cumulative_distance_km":4.794,"amap_marker_url":"https://uri.amap.com/marker?position=117.139945,36.184872&name=%E9%BE%99%E9%BE%99%E5%AE%A0%E7%89%A9%E5%8C%BB%E9%99%A2&src=vetmap&coordinate=gaode&callnative=1"},{"name":"520宠物医院","address":"虎山路35-2号东湖公园西门","phone":"18888269520","category":"医疗保健服务;动物医疗场所;宠物诊所","area":"","lng":117.137817,"lat":36.186897,"amap_id":"B0FFICFY6C","order":6,"prev_distance_km":0.295,"cumulative_distance_km":5.089,"amap_marker_url":"https://uri.amap.com/marker?position=117.137817,36.186897&name=520%E5%AE%A0%E7%89%A9%E5%8C%BB%E9%99%A2&src=vetmap&coordinate=gaode&callnative=1"},{"name":"汪族宠物医院","address":"南湖公园北门对过(巨鼎酒店东临)","phone":"13053835533","category":"医疗保健服务;动物医疗场所;宠物诊所","area":"青年路","lng":117.128437,"lat":36.184201,"amap_id":"B0FFIMPRPG","order":7,"prev_distance_km":0.894,"cumulative_distance_km":5.982,"amap_marker_url":"https://uri.amap.com/marker?position=117.128437,36.184201&name=%E6%B1%AA%E6%97%8F%E5%AE%A0%E7%89%A9%E5%8C%BB%E9%99%A2&src=vetmap&coordinate=gaode&callnative=1"},{"name":"阳光宠物医院","address":"龙潭路140-6号","phone":"15966030778","category":"医疗保健服务;动物医疗场所;宠物诊所","area":"","lng":117.112113,"lat":36.18167,"amap_id":"B0JD4CQT57","order":8,"prev_distance_km":1.492,"cumulative_distance_km":7.474,"amap_marker_url":"https://uri.amap.com/marker?position=117.112113,36.181670&name=%E9%98%B3%E5%85%89%E5%AE%A0%E7%89%A9%E5%8C%BB%E9%99%A2&src=vetmap&coordinate=gaode&callnative=1"},{"name":"尤尤宠物医院(梦想谷店)","address":"灵山大街三里梦想谷电商产业园1楼门租房107","phone":"13335281819;18454817775","category":"医疗保健服务;动物医疗场所;宠物诊所","area":"","lng":117.105375,"lat":36.179675,"amap_id":"B0FFHK0FUJ","order":9,"prev_distance_km":0.644,"cumulative_distance_km":8.118,"amap_marker_url":"https://uri.amap.com/marker?position=117.105375,36.179675&name=%E5%B0%A4%E5%B0%A4%E5%AE%A0%E7%89%A9%E5%8C%BB%E9%99%A2%28%E6%A2%A6%E6%83%B3%E8%B0%B7%E5%BA%97%29&src=vetmap&coordinate=gaode&callnative=1"},{"name":"慕恩宠物医院(24h)·转诊中心·中兽医专科·全科诊疗·","address":"荣院东路58-4","phone":"0538-8666868;19553630861","category":"医疗保健服务;动物医疗场所;宠物诊所","area":"","lng":117.101973,"lat":36.180318,"amap_id":"B0H1HHSC3C","order":10,"prev_distance_km":0.314,"cumulative_distance_km":8.432,"amap_marker_url":"https://uri.amap.com/marker?position=117.101973,36.180318&name=%E6%85%95%E6%81%A9%E5%AE%A0%E7%89%A9%E5%8C%BB%E9%99%A2%2824h%29%C2%B7%E8%BD%AC%E8%AF%8A%E4%B8%AD%E5%BF%83%C2%B7%E4%B8%AD%E5%85%BD%E5%8C%BB%E4%B8%93%E7%A7%91%C2%B7%E5%85%A8%E7%A7%91%E8%AF%8A%E7%96%97%C2%B7&src=vetmap&coordinate=gaode&callnative=1"},{"name":"小伙伴宠物医院(万达店)","address":"灵山大街与佳苑路交汇处东北50米","phone":"0538-8206120;19605380388","category":"医疗保健服务;动物医疗场所;宠物诊所","area":"","lng":117.081619,"lat":36.177672,"amap_id":"B0J0BCTQJB","order":11,"prev_distance_km":1.85,"cumulative_distance_km":10.282,"amap_marker_url":"https://uri.amap.com/marker?position=117.081619,36.177672&name=%E5%B0%8F%E4%BC%99%E4%BC%B4%E5%AE%A0%E7%89%A9%E5%8C%BB%E9%99%A2%28%E4%B8%87%E8%BE%BE%E5%BA%97%29&src=vetmap&coordinate=gaode&callnative=1"},{"name":"茵莱美宠物医院","address":"国华时代沿街店铺109室","phone":"18105485078","category":"医疗保健服务;动物医疗场所;宠物诊所","area":"","lng":117.084856,"lat":36.195,"amap_id":"B0KDDK680O","order":12,"prev_distance_km":1.949,"cumulative_distance_km":12.231,"amap_marker_url":"https://uri.amap.com/marker?position=117.084856,36.195000&name=%E8%8C%B5%E8%8E%B1%E7%BE%8E%E5%AE%A0%E7%89%A9%E5%8C%BB%E9%99%A2&src=vetmap&coordinate=gaode&callnative=1"},{"name":"乐轩宠物","address":"","phone":"13583890607","category":"医疗保健服务;动物医疗场所;动物医疗场所","area":"后七里","lng":117.090939,"lat":36.187762,"amap_id":"B0JK25TY4B","order":13,"prev_distance_km":0.972,"cumulative_distance_km":13.203,"amap_marker_url":"https://uri.amap.com/marker?position=117.090939,36.187762&name=%E4%B9%90%E8%BD%A9%E5%AE%A0%E7%89%A9&src=vetmap&coordinate=gaode&callnative=1"},{"name":"爱宠之家宠物医院(迎胜分院)","address":"财源街道望岳C区1号续建商住楼6号营业房","phone":"19353807111","category":"医疗保健服务;动物医疗场所;宠物诊所","area":"后七里","lng":117.095769,"lat":36.186939,"amap_id":"B0I2FAFHPO","order":14,"prev_distance_km":0.443,"cumulative_distance_km":13.647,"amap_marker_url":"https://uri.amap.com/marker?position=117.095769,36.186939&name=%E7%88%B1%E5%AE%A0%E4%B9%8B%E5%AE%B6%E5%AE%A0%E7%89%A9%E5%8C%BB%E9%99%A2%28%E8%BF%8E%E8%83%9C%E5%88%86%E9%99%A2%29&src=vetmap&coordinate=gaode&callnative=1"},{"name":"宠它宠物医院","address":"迎胜路316号路东","phone":"15205388896","category":"医疗保健服务;动物医疗场所;宠物诊所","area":"后七里","lng":117.096392,"lat":36.186709,"amap_id":"B0I1TA5IP0","order":15,"prev_distance_km":0.061,"cumulative_distance_km":13.708,"amap_marker_url":"https://uri.amap.com/marker?position=117.096392,36.186709&name=%E5%AE%A0%E5%AE%83%E5%AE%A0%E7%89%A9%E5%8C%BB%E9%99%A2&src=vetmap&coordinate=gaode&callnative=1"},{"name":"鑫鑫宠物医院","address":"迎胜南路七里大桥下西侧8号门头房","phone":"18454817778","category":"医疗保健服务;动物医疗场所;宠物诊所","area":"后七里","lng":117.095765,"lat":36.191465,"amap_id":"B0G27UF130","order":16,"prev_distance_km":0.532,"cumulative_distance_km":14.24,"amap_marker_url":"https://uri.amap.com/marker?position=117.095765,36.191465&name=%E9%91%AB%E9%91%AB%E5%AE%A0%E7%89%A9%E5%8C%BB%E9%99%A2&src=vetmap&coordinate=gaode&callnative=1"},{"name":"外贸畜产院","address":"科山路与擂鼓石大街交叉口南180米","phone":"","category":"医疗保健服务;动物医疗场所;动物医疗场所","area":"擂鼓石大街","lng":117.099125,"lat":36.197525,"amap_id":"B0MB4UYP1U","order":17,"prev_distance_km":0.738,"cumulative_distance_km":14.978,"amap_marker_url":"https://uri.amap.com/marker?position=117.099125,36.197525&name=%E5%A4%96%E8%B4%B8%E7%95%9C%E4%BA%A7%E9%99%A2&src=vetmap&coordinate=gaode&callnative=1"},{"name":"科山宠物医院","address":"擂鼓石大街659-1号","phone":"0538-8280488;13954800488","category":"医疗保健服务;动物医疗场所;宠物诊所","area":"擂鼓石大街","lng":117.101915,"lat":36.199357,"amap_id":"B0FFI9TUFF","order":18,"prev_distance_km":0.323,"cumulative_distance_km":15.301,"amap_marker_url":"https://uri.amap.com/marker?position=117.101915,36.199357&name=%E7%A7%91%E5%B1%B1%E5%AE%A0%E7%89%A9%E5%8C%BB%E9%99%A2&src=vetmap&coordinate=gaode&callnative=1"},{"name":"心仪动物医院·山东农业大学教学动物医院·中心院","address":"山景叠院东南1门旁","phone":"18653865271","category":"医疗保健服务;动物医疗场所;宠物诊所","area":"文化路","lng":117.104189,"lat":36.195745,"amap_id":"B0FFLME2VD","order":19,"prev_distance_km":0.45,"cumulative_distance_km":15.751,"amap_marker_url":"https://uri.amap.com/marker?position=117.104189,36.195745&name=%E5%BF%83%E4%BB%AA%E5%8A%A8%E7%89%A9%E5%8C%BB%E9%99%A2%C2%B7%E5%B1%B1%E4%B8%9C%E5%86%9C%E4%B8%9A%E5%A4%A7%E5%AD%A6%E6%95%99%E5%AD%A6%E5%8A%A8%E7%89%A9%E5%8C%BB%E9%99%A2%C2%B7%E4%B8%AD%E5%BF%83%E9%99%A2&src=vetmap&coordinate=gaode&callnative=1"},{"name":"爱宠之家宠物医院(傲徕峰分院)","address":"财源街道傲徕峰路以东康复路以北中国铁建山语观邸6号楼106号","phone":"15163862111","category":"医疗保健服务;动物医疗场所;宠物诊所","area":"文化路","lng":117.106138,"lat":36.194053,"amap_id":"B0KBN7G8XT","order":20,"prev_distance_km":0.257,"cumulative_distance_km":16.008,"amap_marker_url":"https://uri.amap.com/marker?position=117.106138,36.194053&name=%E7%88%B1%E5%AE%A0%E4%B9%8B%E5%AE%B6%E5%AE%A0%E7%89%A9%E5%8C%BB%E9%99%A2%28%E5%82%B2%E5%BE%95%E5%B3%B0%E5%88%86%E9%99%A2%29&src=vetmap&coordinate=gaode&callnative=1"},{"name":"惠农禽病诊所","address":"文化路29-1号","phone":"","category":"医疗保健服务;动物医疗场所;兽医站","area":"文化路","lng":117.108377,"lat":36.195328,"amap_id":"B0FFFFZLRI","order":21,"prev_distance_km":0.246,"cumulative_distance_km":16.254,"amap_marker_url":"https://uri.amap.com/marker?position=117.108377,36.195328&name=%E6%83%A0%E5%86%9C%E7%A6%BD%E7%97%85%E8%AF%8A%E6%89%80&src=vetmap&coordinate=gaode&callnative=1"},{"name":"宠森堡动物医院","address":"龙潭路55号擂鼓石花园沿街商业楼8","phone":"15621582355","category":"医疗保健服务;动物医疗场所;宠物诊所","area":"擂鼓石大街","lng":117.111557,"lat":36.200668,"amap_id":"B0IUFHWXLD","order":22,"prev_distance_km":0.659,"cumulative_distance_km":16.913,"amap_marker_url":"https://uri.amap.com/marker?position=117.111557,36.200668&name=%E5%AE%A0%E6%A3%AE%E5%A0%A1%E5%8A%A8%E7%89%A9%E5%8C%BB%E9%99%A2&src=vetmap&coordinate=gaode&callnative=1"},{"name":"沐菲宠物医院","address":"岱下华庭东北2门旁","phone":"0538-8206058;15094808459","category":"医疗保健服务;动物医疗场所;宠物诊所","area":"擂鼓石大街","lng":117.115075,"lat":36.201325,"amap_id":"B0K1X5YAE6","order":23,"prev_distance_km":0.324,"cumulative_distance_km":17.237,"amap_marker_url":"https://uri.amap.com/marker?position=117.115075,36.201325&name=%E6%B2%90%E8%8F%B2%E5%AE%A0%E7%89%A9%E5%8C%BB%E9%99%A2&src=vetmap&coordinate=gaode&callnative=1"},{"name":"恒康宠物医院","address":"信德泰山御园101","phone":"0538-8668399","category":"医疗保健服务;动物医疗场所;宠物诊所","area":"擂鼓石大街","lng":117.114504,"lat":36.200208,"amap_id":"B0FFGFTQDQ","order":24,"prev_distance_km":0.134,"cumulative_distance_km":17.371,"amap_marker_url":"https://uri.amap.com/marker?position=117.114504,36.200208&name=%E6%81%92%E5%BA%B7%E5%AE%A0%E7%89%A9%E5%8C%BB%E9%99%A2&src=vetmap&coordinate=gaode&callnative=1"},{"name":"山东农业大学动物医院","address":"岱宗大街与清真寺街交叉口西南140米","phone":"","category":"医疗保健服务;动物医疗场所;宠物诊所","area":"岱宗大街","lng":117.120866,"lat":36.193176,"amap_id":"B0K0NAB8YH","order":25,"prev_distance_km":0.968,"cumulative_distance_km":18.339,"amap_marker_url":"https://uri.amap.com/marker?position=117.120866,36.193176&name=%E5%B1%B1%E4%B8%9C%E5%86%9C%E4%B8%9A%E5%A4%A7%E5%AD%A6%E5%8A%A8%E7%89%A9%E5%8C%BB%E9%99%A2&src=vetmap&coordinate=gaode&callnative=1"},{"name":"牧康禽病诊断中心","address":"岱宗大街90-12号","phone":"","category":"医疗保健服务;动物医疗场所;宠物诊所","area":"岱宗大街","lng":117.122312,"lat":36.193359,"amap_id":"B021A010B3","order":26,"prev_distance_km":0.131,"cumulative_distance_km":18.471,"amap_marker_url":"https://uri.amap.com/marker?position=117.122312,36.193359&name=%E7%89%A7%E5%BA%B7%E7%A6%BD%E7%97%85%E8%AF%8A%E6%96%AD%E4%B8%AD%E5%BF%83&src=vetmap&coordinate=gaode&callnative=1"},{"name":"爱康宠物医院(奈河东路店)","address":"渿河东路8-6号","phone":"0538-6152888","category":"医疗保健服务;动物医疗场所;宠物诊所","area":"岱宗大街","lng":117.125057,"lat":36.192809,"amap_id":"B021A0OM0W","order":27,"prev_distance_km":0.254,"cumulative_distance_km":18.725,"amap_marker_url":"https://uri.amap.com/marker?position=117.125057,36.192809&name=%E7%88%B1%E5%BA%B7%E5%AE%A0%E7%89%A9%E5%8C%BB%E9%99%A2%28%E5%A5%88%E6%B2%B3%E4%B8%9C%E8%B7%AF%E5%BA%97%29&src=vetmap&coordinate=gaode&callnative=1"},{"name":"龙腾宠物医院(二中店)","address":"擂鼓石大街373-2号","phone":"13954818913","category":"医疗保健服务;动物医疗场所;宠物诊所","area":"虎山路","lng":117.142352,"lat":36.202983,"amap_id":"B0FFFFYPYT","order":28,"prev_distance_km":1.92,"cumulative_distance_km":20.645,"amap_marker_url":"https://uri.amap.com/marker?position=117.142352,36.202983&name=%E9%BE%99%E8%85%BE%E5%AE%A0%E7%89%A9%E5%8C%BB%E9%99%A2%28%E4%BA%8C%E4%B8%AD%E5%BA%97%29&src=vetmap&coordinate=gaode&callnative=1"},{"name":"周阳宠物医院(宝龙院)","address":"宝龙城市广场B7-1015室","phone":"0538-8099120","category":"医疗保健服务;动物医疗场所;宠物诊所","area":"岱道庵路","lng":117.148698,"lat":36.207818,"amap_id":"B0GD3M1KOZ","order":29,"prev_distance_km":0.783,"cumulative_distance_km":21.428,"amap_marker_url":"https://uri.amap.com/marker?position=117.148698,36.207818&name=%E5%91%A8%E9%98%B3%E5%AE%A0%E7%89%A9%E5%8C%BB%E9%99%A2%28%E5%AE%9D%E9%BE%99%E9%99%A2%29&src=vetmap&coordinate=gaode&callnative=1"},{"name":"宠里宠物医院","address":"佛光路228号","phone":"15666666489","category":"医疗保健服务;动物医疗场所;宠物诊所","area":"","lng":117.171542,"lat":36.210143,"amap_id":"B0JUM51N6W","order":30,"prev_distance_km":2.066,"cumulative_distance_km":23.494,"amap_marker_url":"https://uri.amap.com/marker?position=117.171542,36.210143&name=%E5%AE%A0%E9%87%8C%E5%AE%A0%E7%89%A9%E5%8C%BB%E9%99%A2&src=vetmap&coordinate=gaode&callnative=1"},{"name":"尤尤·宠圈宠物生活馆(吾悦店)","address":"吾悦广场欢喜街二楼S2-225","phone":"0538-7188883;17662573551","category":"医疗保健服务;动物医疗场所;宠物诊所","area":"","lng":117.178179,"lat":36.19661,"amap_id":"B0LRORXGU8","order":31,"prev_distance_km":1.618,"cumulative_distance_km":25.112,"amap_marker_url":"https://uri.amap.com/marker?position=117.178179,36.196610&name=%E5%B0%A4%E5%B0%A4%C2%B7%E5%AE%A0%E5%9C%88%E5%AE%A0%E7%89%A9%E7%94%9F%E6%B4%BB%E9%A6%86%28%E5%90%BE%E6%82%A6%E5%BA%97%29&src=vetmap&coordinate=gaode&callnative=1"},{"name":"宠来宠趣宠物医院急诊24h","address":"繁荣大街","phone":"18853841000","category":"医疗保健服务;动物医疗场所;宠物诊所","area":"唐王街","lng":117.165154,"lat":36.196726,"amap_id":"B0FFJNP7FQ","order":32,"prev_distance_km":1.169,"cumulative_distance_km":26.281,"amap_marker_url":"https://uri.amap.com/marker?position=117.165154,36.196726&name=%E5%AE%A0%E6%9D%A5%E5%AE%A0%E8%B6%A3%E5%AE%A0%E7%89%A9%E5%8C%BB%E9%99%A2%E6%80%A5%E8%AF%8A24h&src=vetmap&coordinate=gaode&callnative=1"},{"name":"宠康宠物诊所","address":"繁荣大街建工佳苑101","phone":"17563757687","category":"医疗保健服务;动物医疗场所;宠物诊所","area":"唐王街","lng":117.164192,"lat":36.196615,"amap_id":"B0L0RC695R","order":33,"prev_distance_km":0.087,"cumulative_distance_km":26.368,"amap_marker_url":"https://uri.amap.com/marker?position=117.164192,36.196615&name=%E5%AE%A0%E5%BA%B7%E5%AE%A0%E7%89%A9%E8%AF%8A%E6%89%80&src=vetmap&coordinate=gaode&callnative=1"},{"name":"贝康宠物医院(唐訾路店)","address":"唐訾路9号","phone":"15163876651;15698135505","category":"医疗保健服务;动物医疗场所;宠物诊所","area":"","lng":117.16093,"lat":36.192562,"amap_id":"B0FFM91R8R","order":34,"prev_distance_km":0.537,"cumulative_distance_km":26.906,"amap_marker_url":"https://uri.amap.com/marker?position=117.160930,36.192562&name=%E8%B4%9D%E5%BA%B7%E5%AE%A0%E7%89%A9%E5%8C%BB%E9%99%A2%28%E5%94%90%E8%A8%BE%E8%B7%AF%E5%BA%97%29&src=vetmap&coordinate=gaode&callnative=1"},{"name":"怡家动物门诊","address":"花园路283号花园公寓11号门头房","phone":"13173387712","category":"医疗保健服务;动物医疗场所;宠物诊所","area":"","lng":117.156308,"lat":36.184512,"amap_id":"B0KAYA1COT","order":35,"prev_distance_km":0.987,"cumulative_distance_km":27.892,"amap_marker_url":"https://uri.amap.com/marker?position=117.156308,36.184512&name=%E6%80%A1%E5%AE%B6%E5%8A%A8%E7%89%A9%E9%97%A8%E8%AF%8A&src=vetmap&coordinate=gaode&callnative=1"},{"name":"禽病门诊","address":"博阳路与文化东路交叉口东北100米","phone":"","category":"医疗保健服务;动物医疗场所;动物医疗场所","area":"","lng":117.206467,"lat":36.169418,"amap_id":"B0FFLF7DJM","order":36,"prev_distance_km":4.805,"cumulative_distance_km":32.697,"amap_marker_url":"https://uri.amap.com/marker?position=117.206467,36.169418&name=%E7%A6%BD%E7%97%85%E9%97%A8%E8%AF%8A&src=vetmap&coordinate=gaode&callnative=1"}]}