{"summary":{"id":"d00330","province":"山东省","city":"德州市","district":"临邑县","count":13,"total_distance_km":71.027,"coordinate_system":"GCJ-02 / Amap","generated_at":"2026-05-07 20:21:46"},"rows":[{"name":"德平动检所","address":"323省道路北","phone":"","category":"医疗保健服务;动物医疗场所;宠物诊所","area":"","lng":116.935491,"lat":37.454926,"amap_id":"B0HDBCHFVQ","order":1,"prev_distance_km":0.0,"cumulative_distance_km":0.0,"amap_marker_url":"https://uri.amap.com/marker?position=116.935491,37.454926&name=%E5%BE%B7%E5%B9%B3%E5%8A%A8%E6%A3%80%E6%89%80&src=vetmap&coordinate=gaode&callnative=1"},{"name":"理合务镇畜禽服务中心","address":"中国邮政(临邑县理合务镇政府西南)","phone":"0534-4822047;13853432336","category":"医疗保健服务;动物医疗场所;动物医疗场所","area":"","lng":116.963444,"lat":37.362784,"amap_id":"B0FFFZRP7Y","order":2,"prev_distance_km":10.539,"cumulative_distance_km":10.539,"amap_marker_url":"https://uri.amap.com/marker?position=116.963444,37.362784&name=%E7%90%86%E5%90%88%E5%8A%A1%E9%95%87%E7%95%9C%E7%A6%BD%E6%9C%8D%E5%8A%A1%E4%B8%AD%E5%BF%83&src=vetmap&coordinate=gaode&callnative=1"},{"name":"临邑爱康宠物医院","address":"苍圣大街东首往西50米路北","phone":"18505444111","category":"医疗保健服务;动物医疗场所;宠物诊所","area":"","lng":116.879538,"lat":37.193722,"amap_id":"B0FFHH796Y","order":3,"prev_distance_km":20.212,"cumulative_distance_km":30.751,"amap_marker_url":"https://uri.amap.com/marker?position=116.879538,37.193722&name=%E4%B8%B4%E9%82%91%E7%88%B1%E5%BA%B7%E5%AE%A0%E7%89%A9%E5%8C%BB%E9%99%A2&src=vetmap&coordinate=gaode&callnative=1"},{"name":"恒丰动物保健服务中心","address":"迎宾南路","phone":"0534-4436232;0534-8960120","category":"医疗保健服务;动物医疗场所;宠物诊所","area":"","lng":116.874085,"lat":37.181826,"amap_id":"B0FFG8PTJG","order":4,"prev_distance_km":1.408,"cumulative_distance_km":32.159,"amap_marker_url":"https://uri.amap.com/marker?position=116.874085,37.181826&name=%E6%81%92%E4%B8%B0%E5%8A%A8%E7%89%A9%E4%BF%9D%E5%81%A5%E6%9C%8D%E5%8A%A1%E4%B8%AD%E5%BF%83&src=vetmap&coordinate=gaode&callnative=1"},{"name":"爱犬人俱乐部宠物门诊","address":"迎宾南路路西","phone":"13047466678","category":"医疗保健服务;动物医疗场所;宠物诊所","area":"","lng":116.873413,"lat":37.18262,"amap_id":"B02160PD3B","order":5,"prev_distance_km":0.106,"cumulative_distance_km":32.265,"amap_marker_url":"https://uri.amap.com/marker?position=116.873413,37.182620&name=%E7%88%B1%E7%8A%AC%E4%BA%BA%E4%BF%B1%E4%B9%90%E9%83%A8%E5%AE%A0%E7%89%A9%E9%97%A8%E8%AF%8A&src=vetmap&coordinate=gaode&callnative=1"},{"name":"山东惠宠动物医院(苍圣大街店)","address":"渤海路与苍圣大街交叉口西六号商铺","phone":"18053444120","category":"医疗保健服务;动物医疗场所;宠物诊所","area":"","lng":116.857727,"lat":37.19258,"amap_id":"B0H3JU5GQ5","order":6,"prev_distance_km":1.777,"cumulative_distance_km":34.042,"amap_marker_url":"https://uri.amap.com/marker?position=116.857727,37.192580&name=%E5%B1%B1%E4%B8%9C%E6%83%A0%E5%AE%A0%E5%8A%A8%E7%89%A9%E5%8C%BB%E9%99%A2%28%E8%8B%8D%E5%9C%A3%E5%A4%A7%E8%A1%97%E5%BA%97%29&src=vetmap&coordinate=gaode&callnative=1"},{"name":"孙远宠医动物医院","address":"邢侗街道恒源路与广场大街交叉口东南角第一间","phone":"15665880085","category":"医疗保健服务;动物医疗场所;宠物诊所","area":"","lng":116.854153,"lat":37.188343,"amap_id":"B0FFFS9DAP","order":7,"prev_distance_km":0.568,"cumulative_distance_km":34.61,"amap_marker_url":"https://uri.amap.com/marker?position=116.854153,37.188343&name=%E5%AD%99%E8%BF%9C%E5%AE%A0%E5%8C%BB%E5%8A%A8%E7%89%A9%E5%8C%BB%E9%99%A2&src=vetmap&coordinate=gaode&callnative=1"},{"name":"佳友宠物","address":"西安路与上海路交叉口东南320米","phone":"","category":"医疗保健服务;动物医疗场所;动物医疗场所","area":"临盘","lng":116.786413,"lat":37.210136,"amap_id":"B0KBAAZI86","order":8,"prev_distance_km":6.471,"cumulative_distance_km":41.081,"amap_marker_url":"https://uri.amap.com/marker?position=116.786413,37.210136&name=%E4%BD%B3%E5%8F%8B%E5%AE%A0%E7%89%A9&src=vetmap&coordinate=gaode&callnative=1"},{"name":"山东临盘716畜禽兽医门诊","address":"西安路与致富大街交叉口东北40米","phone":"13455192013","category":"医疗保健服务;动物医疗场所;兽医站","area":"","lng":116.781911,"lat":37.20203,"amap_id":"B0FFGK9O9E","order":9,"prev_distance_km":0.986,"cumulative_distance_km":42.066,"amap_marker_url":"https://uri.amap.com/marker?position=116.781911,37.202030&name=%E5%B1%B1%E4%B8%9C%E4%B8%B4%E7%9B%98716%E7%95%9C%E7%A6%BD%E5%85%BD%E5%8C%BB%E9%97%A8%E8%AF%8A&src=vetmap&coordinate=gaode&callnative=1"},{"name":"临盘街道办事处畜牧兽医服务中心","address":"西安路","phone":"0534-4861820;13953459011","category":"医疗保健服务;动物医疗场所;兽医站","area":"","lng":116.78129,"lat":37.202,"amap_id":"B0FFGKBX6T","order":10,"prev_distance_km":0.055,"cumulative_distance_km":42.121,"amap_marker_url":"https://uri.amap.com/marker?position=116.781290,37.202000&name=%E4%B8%B4%E7%9B%98%E8%A1%97%E9%81%93%E5%8A%9E%E4%BA%8B%E5%A4%84%E7%95%9C%E7%89%A7%E5%85%BD%E5%8C%BB%E6%9C%8D%E5%8A%A1%E4%B8%AD%E5%BF%83&src=vetmap&coordinate=gaode&callnative=1"},{"name":"畜牧兽医咨询站","address":"兴隆大街与临兴大道交叉口东北60米","phone":"","category":"医疗保健服务;动物医疗场所;兽医站","area":"","lng":116.770446,"lat":37.0776,"amap_id":"B0FFGYQAAP","order":11,"prev_distance_km":13.866,"cumulative_distance_km":55.987,"amap_marker_url":"https://uri.amap.com/marker?position=116.770446,37.077600&name=%E7%95%9C%E7%89%A7%E5%85%BD%E5%8C%BB%E5%92%A8%E8%AF%A2%E7%AB%99&src=vetmap&coordinate=gaode&callnative=1"},{"name":"兴隆镇兽医站","address":"兴隆大街北50米临邑县兴隆中学附近","phone":"13573419687","category":"医疗保健服务;动物医疗场所;兽医站","area":"","lng":116.772169,"lat":37.077887,"amap_id":"B0FFHFT9CZ","order":12,"prev_distance_km":0.156,"cumulative_distance_km":56.143,"amap_marker_url":"https://uri.amap.com/marker?position=116.772169,37.077887&name=%E5%85%B4%E9%9A%86%E9%95%87%E5%85%BD%E5%8C%BB%E7%AB%99&src=vetmap&coordinate=gaode&callnative=1"},{"name":"畜禽疫病防治中心","address":"顺风路","phone":"0534-4723668","category":"医疗保健服务;动物医疗场所;动物医疗场所","area":"","lng":116.928895,"lat":37.03022,"amap_id":"B0FFITNJ13","order":13,"prev_distance_km":14.884,"cumulative_distance_km":71.027,"amap_marker_url":"https://uri.amap.com/marker?position=116.928895,37.030220&name=%E7%95%9C%E7%A6%BD%E7%96%AB%E7%97%85%E9%98%B2%E6%B2%BB%E4%B8%AD%E5%BF%83&src=vetmap&coordinate=gaode&callnative=1"}]}