{"summary":{"id":"d00387","province":"山东省","city":"淄博市","district":"高青县","count":8,"total_distance_km":31.359,"coordinate_system":"GCJ-02 / Amap","generated_at":"2026-05-07 19:56:19"},"rows":[{"name":"兴隆兽医门诊","address":"S246(渔洋街)","phone":"","category":"医疗保健服务;动物医疗场所;兽医站","area":"","lng":117.693803,"lat":37.183156,"amap_id":"B02150QYK9","order":1,"prev_distance_km":0.0,"cumulative_distance_km":0.0,"amap_marker_url":"https://uri.amap.com/marker?position=117.693803,37.183156&name=%E5%85%B4%E9%9A%86%E5%85%BD%E5%8C%BB%E9%97%A8%E8%AF%8A&src=vetmap&coordinate=gaode&callnative=1"},{"name":"高青县常家镇畜牧兽医工作站","address":"田翟路东北30米","phone":"","category":"医疗保健服务;动物医疗场所;兽医站","area":"","lng":117.83206,"lat":37.211078,"amap_id":"B0H1FUDVO4","order":2,"prev_distance_km":12.633,"cumulative_distance_km":12.633,"amap_marker_url":"https://uri.amap.com/marker?position=117.832060,37.211078&name=%E9%AB%98%E9%9D%92%E5%8E%BF%E5%B8%B8%E5%AE%B6%E9%95%87%E7%95%9C%E7%89%A7%E5%85%BD%E5%8C%BB%E5%B7%A5%E4%BD%9C%E7%AB%99&src=vetmap&coordinate=gaode&callnative=1"},{"name":"高青县田镇镇畜牧兽医站","address":"芦湖商城一期中段","phone":"","category":"医疗保健服务;动物医疗场所;兽医站","area":"","lng":117.834557,"lat":37.174294,"amap_id":"B02150QFOR","order":3,"prev_distance_km":4.096,"cumulative_distance_km":16.73,"amap_marker_url":"https://uri.amap.com/marker?position=117.834557,37.174294&name=%E9%AB%98%E9%9D%92%E5%8E%BF%E7%94%B0%E9%95%87%E9%95%87%E7%95%9C%E7%89%A7%E5%85%BD%E5%8C%BB%E7%AB%99&src=vetmap&coordinate=gaode&callnative=1"},{"name":"新旺福宠物诊所","address":"王府井商业城20号甲14号","phone":"13675339304;15288952818","category":"医疗保健服务;动物医疗场所;宠物诊所","area":"","lng":117.831292,"lat":37.172466,"amap_id":"B0JG7XZ3FF","order":4,"prev_distance_km":0.354,"cumulative_distance_km":17.083,"amap_marker_url":"https://uri.amap.com/marker?position=117.831292,37.172466&name=%E6%96%B0%E6%97%BA%E7%A6%8F%E5%AE%A0%E7%89%A9%E8%AF%8A%E6%89%80&src=vetmap&coordinate=gaode&callnative=1"},{"name":"众悦宠物医院(淄博高青店)","address":"田盛园西门旁","phone":"15269387652","category":"医疗保健服务;动物医疗场所;宠物诊所","area":"","lng":117.846969,"lat":37.167975,"amap_id":"B0J1MAUXTI","order":5,"prev_distance_km":1.476,"cumulative_distance_km":18.559,"amap_marker_url":"https://uri.amap.com/marker?position=117.846969,37.167975&name=%E4%BC%97%E6%82%A6%E5%AE%A0%E7%89%A9%E5%8C%BB%E9%99%A2%28%E6%B7%84%E5%8D%9A%E9%AB%98%E9%9D%92%E5%BA%97%29&src=vetmap&coordinate=gaode&callnative=1"},{"name":"贵族宠物店","address":"银岭世家北沿街6号甲54号","phone":"13255339997","category":"医疗保健服务;动物医疗场所;动物医疗场所","area":"","lng":117.850876,"lat":37.171767,"amap_id":"B0FFIPD8W7","order":6,"prev_distance_km":0.546,"cumulative_distance_km":19.105,"amap_marker_url":"https://uri.amap.com/marker?position=117.850876,37.171767&name=%E8%B4%B5%E6%97%8F%E5%AE%A0%E7%89%A9%E5%BA%97&src=vetmap&coordinate=gaode&callnative=1"},{"name":"萌宝宠物医院","address":"国井大道1-10号","phone":"","category":"医疗保健服务;动物医疗场所;宠物诊所","area":"","lng":117.85659,"lat":37.170656,"amap_id":"B0JRSALXKJ","order":7,"prev_distance_km":0.521,"cumulative_distance_km":19.626,"amap_marker_url":"https://uri.amap.com/marker?position=117.856590,37.170656&name=%E8%90%8C%E5%AE%9D%E5%AE%A0%E7%89%A9%E5%8C%BB%E9%99%A2&src=vetmap&coordinate=gaode&callnative=1"},{"name":"高青县高城镇畜牧兽医工作站","address":"高城镇中共高城管区总支部委员会","phone":"","category":"医疗保健服务;动物医疗场所;兽医站","area":"","lng":117.956231,"lat":37.101193,"amap_id":"B02150Q9X8","order":8,"prev_distance_km":11.734,"cumulative_distance_km":31.359,"amap_marker_url":"https://uri.amap.com/marker?position=117.956231,37.101193&name=%E9%AB%98%E9%9D%92%E5%8E%BF%E9%AB%98%E5%9F%8E%E9%95%87%E7%95%9C%E7%89%A7%E5%85%BD%E5%8C%BB%E5%B7%A5%E4%BD%9C%E7%AB%99&src=vetmap&coordinate=gaode&callnative=1"}]}