{"summary":{"id":"d00397","province":"山东省","city":"潍坊市","district":"奎文区","count":48,"route_count":1,"max_route_clinics":48,"total_distance_km":36.502,"coordinate_system":"GCJ-02 / Amap","generated_at":"2026-05-07 21:27:29"},"routes":[{"id":"r1","name":"第1段","count":48,"total_distance_km":36.502,"rows":[{"name":"潍坊丛林动物医院","address":"渤海路与珠光街路口西30米路南","phone":"0536-8656120;13006568120","category":"医疗保健服务;动物医疗场所;宠物诊所","area":"","lng":119.18074,"lat":36.674169,"amap_id":"B0K1OHTYQZ","order":1,"prev_distance_km":0.0,"cumulative_distance_km":0.0,"amap_marker_url":"https://uri.amap.com/marker?position=119.180740,36.674169&name=%E6%BD%8D%E5%9D%8A%E4%B8%9B%E6%9E%97%E5%8A%A8%E7%89%A9%E5%8C%BB%E9%99%A2&src=vetmap&coordinate=gaode&callnative=1","route_id":"r1","route_name":"第1段"},{"name":"默德宠物医院","address":"潍县中路樱前街路口南200路西恒大影城北侧商铺楼10号","phone":"17353626655","category":"医疗保健服务;动物医疗场所;宠物诊所","area":"","lng":119.182333,"lat":36.686457,"amap_id":"B0FFIS5P6V","order":2,"prev_distance_km":1.374,"cumulative_distance_km":1.374,"amap_marker_url":"https://uri.amap.com/marker?position=119.182333,36.686457&name=%E9%BB%98%E5%BE%B7%E5%AE%A0%E7%89%A9%E5%8C%BB%E9%99%A2&src=vetmap&coordinate=gaode&callnative=1","route_id":"r1","route_name":"第1段"},{"name":"柏华宠物医院","address":"金马路观泰巷19-25","phone":"15866537909","category":"医疗保健服务;动物医疗场所;宠物诊所","area":"","lng":119.174866,"lat":36.686061,"amap_id":"B0HK6S52UU","order":3,"prev_distance_km":0.667,"cumulative_distance_km":2.041,"amap_marker_url":"https://uri.amap.com/marker?position=119.174866,36.686061&name=%E6%9F%8F%E5%8D%8E%E5%AE%A0%E7%89%A9%E5%8C%BB%E9%99%A2&src=vetmap&coordinate=gaode&callnative=1","route_id":"r1","route_name":"第1段"},{"name":"恩和宠物医院","address":"樱前街大观天下二期商铺402号(大观一期东1门东行50米路北)","phone":"13325245886","category":"医疗保健服务;动物医疗场所;宠物诊所","area":"","lng":119.170615,"lat":36.687483,"amap_id":"B0FFJAOTGM","order":4,"prev_distance_km":0.411,"cumulative_distance_km":2.452,"amap_marker_url":"https://uri.amap.com/marker?position=119.170615,36.687483&name=%E6%81%A9%E5%92%8C%E5%AE%A0%E7%89%A9%E5%8C%BB%E9%99%A2&src=vetmap&coordinate=gaode&callnative=1","route_id":"r1","route_name":"第1段"},{"name":"凌云动物医院","address":"水岸华府北门东110米","phone":"19106367067","category":"医疗保健服务;动物医疗场所;宠物诊所","area":"","lng":119.178702,"lat":36.695146,"amap_id":"B0K2CC3XGV","order":5,"prev_distance_km":1.116,"cumulative_distance_km":3.568,"amap_marker_url":"https://uri.amap.com/marker?position=119.178702,36.695146&name=%E5%87%8C%E4%BA%91%E5%8A%A8%E7%89%A9%E5%8C%BB%E9%99%A2&src=vetmap&coordinate=gaode&callnative=1","route_id":"r1","route_name":"第1段"},{"name":"诺潍宠美旗舰店宠物美容乐园","address":"金马路梨园街交叉口东100米路南","phone":"13625360211","category":"医疗保健服务;动物医疗场所;动物医疗场所","area":"","lng":119.179219,"lat":36.695186,"amap_id":"B0KAFLA9AV","order":6,"prev_distance_km":0.046,"cumulative_distance_km":3.614,"amap_marker_url":"https://uri.amap.com/marker?position=119.179219,36.695186&name=%E8%AF%BA%E6%BD%8D%E5%AE%A0%E7%BE%8E%E6%97%97%E8%88%B0%E5%BA%97%E5%AE%A0%E7%89%A9%E7%BE%8E%E5%AE%B9%E4%B9%90%E5%9B%AD&src=vetmap&coordinate=gaode&callnative=1","route_id":"r1","route_name":"第1段"},{"name":"初心动物医院(晟景大厦店)","address":"健康东街10811号晟景大厦","phone":"13583601120","category":"医疗保健服务;动物医疗场所;宠物诊所","area":"","lng":119.176967,"lat":36.703121,"amap_id":"B0JD0ZX362","order":7,"prev_distance_km":0.905,"cumulative_distance_km":4.519,"amap_marker_url":"https://uri.amap.com/marker?position=119.176967,36.703121&name=%E5%88%9D%E5%BF%83%E5%8A%A8%E7%89%A9%E5%8C%BB%E9%99%A2%28%E6%99%9F%E6%99%AF%E5%A4%A7%E5%8E%A6%E5%BA%97%29&src=vetmap&coordinate=gaode&callnative=1","route_id":"r1","route_name":"第1段"},{"name":"乐新动物医院心脏专科","address":"东金一号B区沿街商铺S8-114","phone":"0536-6361123;16665667276;17863668932","category":"医疗保健服务;动物医疗场所;宠物诊所","area":"","lng":119.193411,"lat":36.714353,"amap_id":"B0KKH55YZM","order":8,"prev_distance_km":1.926,"cumulative_distance_km":6.445,"amap_marker_url":"https://uri.amap.com/marker?position=119.193411,36.714353&name=%E4%B9%90%E6%96%B0%E5%8A%A8%E7%89%A9%E5%8C%BB%E9%99%A2%E5%BF%83%E8%84%8F%E4%B8%93%E7%A7%91&src=vetmap&coordinate=gaode&callnative=1","route_id":"r1","route_name":"第1段"},{"name":"雨樟动物医院·牙科·综合全科","address":"奎文区高新区新城街道锦城社区北宫东街2188号北大锦城18-5商铺","phone":"17601638564","category":"医疗保健服务;动物医疗场所;宠物诊所","area":"","lng":119.183708,"lat":36.72539,"amap_id":"B0J2AU6QAF","order":9,"prev_distance_km":1.501,"cumulative_distance_km":7.946,"amap_marker_url":"https://uri.amap.com/marker?position=119.183708,36.725390&name=%E9%9B%A8%E6%A8%9F%E5%8A%A8%E7%89%A9%E5%8C%BB%E9%99%A2%C2%B7%E7%89%99%E7%A7%91%C2%B7%E7%BB%BC%E5%90%88%E5%85%A8%E7%A7%91&src=vetmap&coordinate=gaode&callnative=1","route_id":"r1","route_name":"第1段"},{"name":"丞鑫伴侣动物诊疗中心","address":"创新街406号","phone":"15263686292","category":"医疗保健服务;动物医疗场所;宠物诊所","area":"","lng":119.180543,"lat":36.724608,"amap_id":"B0JGBS5PL4","order":10,"prev_distance_km":0.295,"cumulative_distance_km":8.241,"amap_marker_url":"https://uri.amap.com/marker?position=119.180543,36.724608&name=%E4%B8%9E%E9%91%AB%E4%BC%B4%E4%BE%A3%E5%8A%A8%E7%89%A9%E8%AF%8A%E7%96%97%E4%B8%AD%E5%BF%83&src=vetmap&coordinate=gaode&callnative=1","route_id":"r1","route_name":"第1段"},{"name":"潍坊高新区阳光宠物诊所","address":"卧龙东街与银枫路交叉口北20米路东","phone":"18865365120","category":"医疗保健服务;动物医疗场所;宠物诊所","area":"","lng":119.179692,"lat":36.735285,"amap_id":"B0FFFXZ7CH","order":11,"prev_distance_km":1.19,"cumulative_distance_km":9.431,"amap_marker_url":"https://uri.amap.com/marker?position=119.179692,36.735285&name=%E6%BD%8D%E5%9D%8A%E9%AB%98%E6%96%B0%E5%8C%BA%E9%98%B3%E5%85%89%E5%AE%A0%E7%89%A9%E8%AF%8A%E6%89%80&src=vetmap&coordinate=gaode&callnative=1","route_id":"r1","route_name":"第1段"},{"name":"小牧童宠物医院(高新店)","address":"中阳银枫家园北门西200米","phone":"13001532520","category":"医疗保健服务;动物医疗场所;宠物诊所","area":"","lng":119.175696,"lat":36.733914,"amap_id":"B0K1DZA53K","order":12,"prev_distance_km":0.387,"cumulative_distance_km":9.818,"amap_marker_url":"https://uri.amap.com/marker?position=119.175696,36.733914&name=%E5%B0%8F%E7%89%A7%E7%AB%A5%E5%AE%A0%E7%89%A9%E5%8C%BB%E9%99%A2%28%E9%AB%98%E6%96%B0%E5%BA%97%29&src=vetmap&coordinate=gaode&callnative=1","route_id":"r1","route_name":"第1段"},{"name":"爱康宠物诊疗中心(桐荫街店)","address":"桐荫街1914号","phone":"13375363633","category":"医疗保健服务;动物医疗场所;宠物诊所","area":"","lng":119.171839,"lat":36.730306,"amap_id":"B0FFFAMYI4","order":13,"prev_distance_km":0.528,"cumulative_distance_km":10.347,"amap_marker_url":"https://uri.amap.com/marker?position=119.171839,36.730306&name=%E7%88%B1%E5%BA%B7%E5%AE%A0%E7%89%A9%E8%AF%8A%E7%96%97%E4%B8%AD%E5%BF%83%28%E6%A1%90%E8%8D%AB%E8%A1%97%E5%BA%97%29&src=vetmap&coordinate=gaode&callnative=1","route_id":"r1","route_name":"第1段"},{"name":"壹家宠物诊所","address":"福寿东街3951-9号","phone":"13371097722","category":"医疗保健服务;动物医疗场所;宠物诊所","area":"","lng":119.17423,"lat":36.721326,"amap_id":"B0FFKJWNUZ","order":14,"prev_distance_km":1.021,"cumulative_distance_km":11.368,"amap_marker_url":"https://uri.amap.com/marker?position=119.174230,36.721326&name=%E5%A3%B9%E5%AE%B6%E5%AE%A0%E7%89%A9%E8%AF%8A%E6%89%80&src=vetmap&coordinate=gaode&callnative=1","route_id":"r1","route_name":"第1段"},{"name":"乐贝动物医院","address":"福寿东街4936号世纪华润酒店西200米","phone":"0536-8877120","category":"医疗保健服务;动物医疗场所;宠物诊所","area":"","lng":119.162758,"lat":36.720293,"amap_id":"B0LBBUPPXF","order":15,"prev_distance_km":1.029,"cumulative_distance_km":12.397,"amap_marker_url":"https://uri.amap.com/marker?position=119.162758,36.720293&name=%E4%B9%90%E8%B4%9D%E5%8A%A8%E7%89%A9%E5%8C%BB%E9%99%A2&src=vetmap&coordinate=gaode&callnative=1","route_id":"r1","route_name":"第1段"},{"name":"小伙伴宠物医院(东方路店)","address":"东方路东风街北300米路西新富锦光公寓B6","phone":"0536-8852120","category":"医疗保健服务;动物医疗场所;宠物诊所","area":"","lng":119.165196,"lat":36.716576,"amap_id":"B0FFG2LDCF","order":16,"prev_distance_km":0.467,"cumulative_distance_km":12.864,"amap_marker_url":"https://uri.amap.com/marker?position=119.165196,36.716576&name=%E5%B0%8F%E4%BC%99%E4%BC%B4%E5%AE%A0%E7%89%A9%E5%8C%BB%E9%99%A2%28%E4%B8%9C%E6%96%B9%E8%B7%AF%E5%BA%97%29&src=vetmap&coordinate=gaode&callnative=1","route_id":"r1","route_name":"第1段"},{"name":"牧院心仪动物医院","address":"健康东街与东方路交叉口东200米牧院南校区内","phone":"15621731953","category":"医疗保健服务;动物医疗场所;兽医站","area":"","lng":119.166856,"lat":36.701786,"amap_id":"B0FFK94ID3","order":17,"prev_distance_km":1.651,"cumulative_distance_km":14.515,"amap_marker_url":"https://uri.amap.com/marker?position=119.166856,36.701786&name=%E7%89%A7%E9%99%A2%E5%BF%83%E4%BB%AA%E5%8A%A8%E7%89%A9%E5%8C%BB%E9%99%A2&src=vetmap&coordinate=gaode&callnative=1","route_id":"r1","route_name":"第1段"},{"name":"李小乐宠物医院","address":"健康东街225号","phone":"0536-3145120","category":"医疗保健服务;动物医疗场所;宠物诊所","area":"","lng":119.169408,"lat":36.700351,"amap_id":"B0G2PRJ5Q4","order":18,"prev_distance_km":0.278,"cumulative_distance_km":14.793,"amap_marker_url":"https://uri.amap.com/marker?position=119.169408,36.700351&name=%E6%9D%8E%E5%B0%8F%E4%B9%90%E5%AE%A0%E7%89%A9%E5%8C%BB%E9%99%A2&src=vetmap&coordinate=gaode&callnative=1","route_id":"r1","route_name":"第1段"},{"name":"佳一动物医院·牙专科·犬猫全科","address":"奎文区高新区东方路梨园街东50米路南(柒星云境西)","phone":"15668223780","category":"医疗保健服务;动物医疗场所;宠物诊所","area":"","lng":119.168901,"lat":36.694259,"amap_id":"B0KUSRQCSB","order":19,"prev_distance_km":0.679,"cumulative_distance_km":15.472,"amap_marker_url":"https://uri.amap.com/marker?position=119.168901,36.694259&name=%E4%BD%B3%E4%B8%80%E5%8A%A8%E7%89%A9%E5%8C%BB%E9%99%A2%C2%B7%E7%89%99%E4%B8%93%E7%A7%91%C2%B7%E7%8A%AC%E7%8C%AB%E5%85%A8%E7%A7%91&src=vetmap&coordinate=gaode&callnative=1","route_id":"r1","route_name":"第1段"},{"name":"益宠动物诊疗中心(九龙山庄店)","address":"梨园路益宠动物医院","phone":"18660677120","category":"医疗保健服务;动物医疗场所;宠物诊所","area":"","lng":119.151867,"lat":36.686599,"amap_id":"B0FFKGBTAE","order":20,"prev_distance_km":1.741,"cumulative_distance_km":17.213,"amap_marker_url":"https://uri.amap.com/marker?position=119.151867,36.686599&name=%E7%9B%8A%E5%AE%A0%E5%8A%A8%E7%89%A9%E8%AF%8A%E7%96%97%E4%B8%AD%E5%BF%83%28%E4%B9%9D%E9%BE%99%E5%B1%B1%E5%BA%84%E5%BA%97%29&src=vetmap&coordinate=gaode&callnative=1","route_id":"r1","route_name":"第1段"},{"name":"宠之爱动物医院(清溪街店)","address":"文化路与清溪街交叉路口向东100米路南","phone":"18366577120","category":"医疗保健服务;动物医疗场所;宠物诊所","area":"","lng":119.142935,"lat":36.68027,"amap_id":"B0218160OP","order":21,"prev_distance_km":1.063,"cumulative_distance_km":18.276,"amap_marker_url":"https://uri.amap.com/marker?position=119.142935,36.680270&name=%E5%AE%A0%E4%B9%8B%E7%88%B1%E5%8A%A8%E7%89%A9%E5%8C%BB%E9%99%A2%28%E6%B8%85%E6%BA%AA%E8%A1%97%E5%BA%97%29&src=vetmap&coordinate=gaode&callnative=1","route_id":"r1","route_name":"第1段"},{"name":"福宠动物医院","address":"樱前街与庄樱路交叉口西120米","phone":"","category":"医疗保健服务;动物医疗场所;宠物诊所","area":"虞河","lng":119.136925,"lat":36.690075,"amap_id":"B0M6KRCQML","order":22,"prev_distance_km":1.215,"cumulative_distance_km":19.491,"amap_marker_url":"https://uri.amap.com/marker?position=119.136925,36.690075&name=%E7%A6%8F%E5%AE%A0%E5%8A%A8%E7%89%A9%E5%8C%BB%E9%99%A2&src=vetmap&coordinate=gaode&callnative=1","route_id":"r1","route_name":"第1段"},{"name":"爱心宠物诊所(潍坊奎文区)","address":"樱前街文化路交叉口西200米路北","phone":"15762451818","category":"医疗保健服务;动物医疗场所;宠物诊所","area":"虞河","lng":119.136917,"lat":36.690083,"amap_id":"B0FFG55MMK","order":23,"prev_distance_km":0.001,"cumulative_distance_km":19.492,"amap_marker_url":"https://uri.amap.com/marker?position=119.136917,36.690083&name=%E7%88%B1%E5%BF%83%E5%AE%A0%E7%89%A9%E8%AF%8A%E6%89%80%28%E6%BD%8D%E5%9D%8A%E5%A5%8E%E6%96%87%E5%8C%BA%29&src=vetmap&coordinate=gaode&callnative=1","route_id":"r1","route_name":"第1段"},{"name":"宠屋宠物生活馆·Lafancy's官方授权洗护中心","address":"庄樱路与樱前街交叉口北260米","phone":"18678033999","category":"医疗保健服务;动物医疗场所;动物医疗场所","area":"虞河","lng":119.138425,"lat":36.692175,"amap_id":"B0KDZ1LLV7","order":24,"prev_distance_km":0.269,"cumulative_distance_km":19.761,"amap_marker_url":"https://uri.amap.com/marker?position=119.138425,36.692175&name=%E5%AE%A0%E5%B1%8B%E5%AE%A0%E7%89%A9%E7%94%9F%E6%B4%BB%E9%A6%86%C2%B7Lafancy%27s%E5%AE%98%E6%96%B9%E6%8E%88%E6%9D%83%E6%B4%97%E6%8A%A4%E4%B8%AD%E5%BF%83&src=vetmap&coordinate=gaode&callnative=1","route_id":"r1","route_name":"第1段"},{"name":"问心动物医院","address":"健康东街以南虞河路以东南户1-2层","phone":"17663655120","category":"医疗保健服务;动物医疗场所;宠物诊所","area":"虞河","lng":119.133588,"lat":36.693216,"amap_id":"B0LD4UPIR5","order":25,"prev_distance_km":0.447,"cumulative_distance_km":20.207,"amap_marker_url":"https://uri.amap.com/marker?position=119.133588,36.693216&name=%E9%97%AE%E5%BF%83%E5%8A%A8%E7%89%A9%E5%8C%BB%E9%99%A2&src=vetmap&coordinate=gaode&callnative=1","route_id":"r1","route_name":"第1段"},{"name":"潍坊隆辉兽药有限公司","address":"健康东街13863-4号","phone":"0536-8076668","category":"医疗保健服务;动物医疗场所;动物医疗场所","area":"虞河","lng":119.135522,"lat":36.694702,"amap_id":"B0FFKT6Y2D","order":26,"prev_distance_km":0.239,"cumulative_distance_km":20.446,"amap_marker_url":"https://uri.amap.com/marker?position=119.135522,36.694702&name=%E6%BD%8D%E5%9D%8A%E9%9A%86%E8%BE%89%E5%85%BD%E8%8D%AF%E6%9C%89%E9%99%90%E5%85%AC%E5%8F%B8&src=vetmap&coordinate=gaode&callnative=1","route_id":"r1","route_name":"第1段"},{"name":"兰田动物医院","address":"广文街道健康街文化路口西150米路北","phone":"18369626662","category":"医疗保健服务;动物医疗场所;宠物诊所","area":"虞河","lng":119.138239,"lat":36.694976,"amap_id":"B0LD3HJ0X6","order":27,"prev_distance_km":0.244,"cumulative_distance_km":20.69,"amap_marker_url":"https://uri.amap.com/marker?position=119.138239,36.694976&name=%E5%85%B0%E7%94%B0%E5%8A%A8%E7%89%A9%E5%8C%BB%E9%99%A2&src=vetmap&coordinate=gaode&callnative=1","route_id":"r1","route_name":"第1段"},{"name":"潍宠汇动物医院(文化路店)","address":"文化路健康街西北角第一排第三间","phone":"18678002120","category":"医疗保健服务;动物医疗场所;宠物诊所","area":"虞河","lng":119.140321,"lat":36.695695,"amap_id":"B0FFIXATT6","order":28,"prev_distance_km":0.202,"cumulative_distance_km":20.892,"amap_marker_url":"https://uri.amap.com/marker?position=119.140321,36.695695&name=%E6%BD%8D%E5%AE%A0%E6%B1%87%E5%8A%A8%E7%89%A9%E5%8C%BB%E9%99%A2%28%E6%96%87%E5%8C%96%E8%B7%AF%E5%BA%97%29&src=vetmap&coordinate=gaode&callnative=1","route_id":"r1","route_name":"第1段"},{"name":"宠嘉宠物医院","address":"西虞·天成北门旁","phone":"15153633259;15153633916;15153682828","category":"医疗保健服务;动物医疗场所;宠物诊所","area":"虞河","lng":119.13774,"lat":36.705994,"amap_id":"B0G31ZW499","order":29,"prev_distance_km":1.168,"cumulative_distance_km":22.06,"amap_marker_url":"https://uri.amap.com/marker?position=119.137740,36.705994&name=%E5%AE%A0%E5%98%89%E5%AE%A0%E7%89%A9%E5%8C%BB%E9%99%A2&src=vetmap&coordinate=gaode&callnative=1","route_id":"r1","route_name":"第1段"},{"name":"小伙伴宠物医院(新华路店)","address":"新华路1691号盛世华廷7号楼124号商业房","phone":"0536-8067120","category":"医疗保健服务;动物医疗场所;宠物诊所","area":"","lng":119.148169,"lat":36.705078,"amap_id":"B0JU75HBEP","order":30,"prev_distance_km":0.935,"cumulative_distance_km":22.996,"amap_marker_url":"https://uri.amap.com/marker?position=119.148169,36.705078&name=%E5%B0%8F%E4%BC%99%E4%BC%B4%E5%AE%A0%E7%89%A9%E5%8C%BB%E9%99%A2%28%E6%96%B0%E5%8D%8E%E8%B7%AF%E5%BA%97%29&src=vetmap&coordinate=gaode&callnative=1","route_id":"r1","route_name":"第1段"},{"name":"国际金牌猫友好医院","address":"中天下潍坊国际东门旁","phone":"","category":"医疗保健服务;动物医疗场所;宠物诊所","area":"","lng":119.148163,"lat":36.705162,"amap_id":"B0KDC9QU8P","order":31,"prev_distance_km":0.009,"cumulative_distance_km":23.005,"amap_marker_url":"https://uri.amap.com/marker?position=119.148163,36.705162&name=%E5%9B%BD%E9%99%85%E9%87%91%E7%89%8C%E7%8C%AB%E5%8F%8B%E5%A5%BD%E5%8C%BB%E9%99%A2&src=vetmap&coordinate=gaode&callnative=1","route_id":"r1","route_name":"第1段"},{"name":"牧院心仪动物医院(奎文院)","address":"德蒙商务广场B座南门旁","phone":"18560218210","category":"医疗保健服务;动物医疗场所;宠物诊所","area":"","lng":119.146412,"lat":36.7132,"amap_id":"B0KD1HE1MN","order":32,"prev_distance_km":0.907,"cumulative_distance_km":23.912,"amap_marker_url":"https://uri.amap.com/marker?position=119.146412,36.713200&name=%E7%89%A7%E9%99%A2%E5%BF%83%E4%BB%AA%E5%8A%A8%E7%89%A9%E5%8C%BB%E9%99%A2%28%E5%A5%8E%E6%96%87%E9%99%A2%29&src=vetmap&coordinate=gaode&callnative=1","route_id":"r1","route_name":"第1段"},{"name":"小伙伴宠物医院(文化路店)","address":"福寿街与文化路交叉口东20米路北","phone":"0536-8461120","category":"医疗保健服务;动物医疗场所;宠物诊所","area":"","lng":119.141752,"lat":36.720123,"amap_id":"B0H66HC4DY","order":33,"prev_distance_km":0.875,"cumulative_distance_km":24.787,"amap_marker_url":"https://uri.amap.com/marker?position=119.141752,36.720123&name=%E5%B0%8F%E4%BC%99%E4%BC%B4%E5%AE%A0%E7%89%A9%E5%8C%BB%E9%99%A2%28%E6%96%87%E5%8C%96%E8%B7%AF%E5%BA%97%29&src=vetmap&coordinate=gaode&callnative=1","route_id":"r1","route_name":"第1段"},{"name":"涛涛宠物诊疗","address":"东风街272号名门现代城C31号商铺","phone":"15315243000","category":"医疗保健服务;动物医疗场所;宠物诊所","area":"","lng":119.127717,"lat":36.712733,"amap_id":"B0IGYUGOMB","order":34,"prev_distance_km":1.497,"cumulative_distance_km":26.284,"amap_marker_url":"https://uri.amap.com/marker?position=119.127717,36.712733&name=%E6%B6%9B%E6%B6%9B%E5%AE%A0%E7%89%A9%E8%AF%8A%E7%96%97&src=vetmap&coordinate=gaode&callnative=1","route_id":"r1","route_name":"第1段"},{"name":"三木森宠物医院","address":"东风东街名门现代城北门东30米路南","phone":"13287676629;15263632120","category":"医疗保健服务;动物医疗场所;宠物诊所","area":"","lng":119.126964,"lat":36.712639,"amap_id":"B0FFMAEO9V","order":35,"prev_distance_km":0.068,"cumulative_distance_km":26.352,"amap_marker_url":"https://uri.amap.com/marker?position=119.126964,36.712639&name=%E4%B8%89%E6%9C%A8%E6%A3%AE%E5%AE%A0%E7%89%A9%E5%8C%BB%E9%99%A2&src=vetmap&coordinate=gaode&callnative=1","route_id":"r1","route_name":"第1段"},{"name":"申普宠物","address":"潍州路街道四平路1473号宝莲公寓14号商铺1层","phone":"","category":"医疗保健服务;动物医疗场所;动物医疗场所","area":"","lng":119.114984,"lat":36.700965,"amap_id":"B0LA1Z9O88","order":36,"prev_distance_km":1.681,"cumulative_distance_km":28.033,"amap_marker_url":"https://uri.amap.com/marker?position=119.114984,36.700965&name=%E7%94%B3%E6%99%AE%E5%AE%A0%E7%89%A9&src=vetmap&coordinate=gaode&callnative=1","route_id":"r1","route_name":"第1段"},{"name":"星辰宠物","address":"东关街道李家街四平家园6号楼商铺","phone":"15650256175","category":"医疗保健服务;动物医疗场所;动物医疗场所","area":"","lng":119.113773,"lat":36.71471,"amap_id":"B0KU6MY6SD","order":37,"prev_distance_km":1.532,"cumulative_distance_km":29.565,"amap_marker_url":"https://uri.amap.com/marker?position=119.113773,36.714710&name=%E6%98%9F%E8%BE%B0%E5%AE%A0%E7%89%A9&src=vetmap&coordinate=gaode&callnative=1","route_id":"r1","route_name":"第1段"},{"name":"小伙伴宠物医院(奎文店转诊中心)","address":"福寿东街6899-7号","phone":"19853631035","category":"医疗保健服务;动物医疗场所;宠物诊所","area":"","lng":119.114361,"lat":36.719188,"amap_id":"B02180IYUG","order":38,"prev_distance_km":0.501,"cumulative_distance_km":30.065,"amap_marker_url":"https://uri.amap.com/marker?position=119.114361,36.719188&name=%E5%B0%8F%E4%BC%99%E4%BC%B4%E5%AE%A0%E7%89%A9%E5%8C%BB%E9%99%A2%28%E5%A5%8E%E6%96%87%E5%BA%97%E8%BD%AC%E8%AF%8A%E4%B8%AD%E5%BF%83%29&src=vetmap&coordinate=gaode&callnative=1","route_id":"r1","route_name":"第1段"},{"name":"安康动物医院(奎文店)","address":"四平路与福寿街交叉口向北50米路西","phone":"15908000052;18663615120","category":"医疗保健服务;动物医疗场所;宠物诊所","area":"","lng":119.115784,"lat":36.719804,"amap_id":"B0FFGE8YFQ","order":39,"prev_distance_km":0.144,"cumulative_distance_km":30.21,"amap_marker_url":"https://uri.amap.com/marker?position=119.115784,36.719804&name=%E5%AE%89%E5%BA%B7%E5%8A%A8%E7%89%A9%E5%8C%BB%E9%99%A2%28%E5%A5%8E%E6%96%87%E5%BA%97%29&src=vetmap&coordinate=gaode&callnative=1","route_id":"r1","route_name":"第1段"},{"name":"都奇美动物门诊","address":"四平路1104号与工福街交叉口北路东","phone":"13258080202;13280127958","category":"医疗保健服务;动物医疗场所;宠物诊所","area":"","lng":119.116335,"lat":36.722105,"amap_id":"B021815ZYR","order":40,"prev_distance_km":0.261,"cumulative_distance_km":30.47,"amap_marker_url":"https://uri.amap.com/marker?position=119.116335,36.722105&name=%E9%83%BD%E5%A5%87%E7%BE%8E%E5%8A%A8%E7%89%A9%E9%97%A8%E8%AF%8A&src=vetmap&coordinate=gaode&callnative=1","route_id":"r1","route_name":"第1段"},{"name":"宠康动物医院(北宫店)","address":"北宫东街298号","phone":"0536-8799120;15653683120","category":"医疗保健服务;动物医疗场所;宠物诊所","area":"","lng":119.120673,"lat":36.723601,"amap_id":"B0FFKGBJ95","order":41,"prev_distance_km":0.421,"cumulative_distance_km":30.891,"amap_marker_url":"https://uri.amap.com/marker?position=119.120673,36.723601&name=%E5%AE%A0%E5%BA%B7%E5%8A%A8%E7%89%A9%E5%8C%BB%E9%99%A2%28%E5%8C%97%E5%AE%AB%E5%BA%97%29&src=vetmap&coordinate=gaode&callnative=1","route_id":"r1","route_name":"第1段"},{"name":"联宠宠物医院","address":"北宫东街与游麟路交叉口北80米","phone":"15726366624","category":"医疗保健服务;动物医疗场所;宠物诊所","area":"","lng":119.119075,"lat":36.724574,"amap_id":"B0J3VO91TR","order":42,"prev_distance_km":0.179,"cumulative_distance_km":31.07,"amap_marker_url":"https://uri.amap.com/marker?position=119.119075,36.724574&name=%E8%81%94%E5%AE%A0%E5%AE%A0%E7%89%A9%E5%8C%BB%E9%99%A2&src=vetmap&coordinate=gaode&callnative=1","route_id":"r1","route_name":"第1段"},{"name":"贝佳宠物医院(卧龙街店)","address":"卧龙东街与四平路交叉口东180米","phone":"","category":"医疗保健服务;动物医疗场所;宠物诊所","area":"","lng":119.117102,"lat":36.730428,"amap_id":"B0K1UP8T9N","order":43,"prev_distance_km":0.674,"cumulative_distance_km":31.744,"amap_marker_url":"https://uri.amap.com/marker?position=119.117102,36.730428&name=%E8%B4%9D%E4%BD%B3%E5%AE%A0%E7%89%A9%E5%8C%BB%E9%99%A2%28%E5%8D%A7%E9%BE%99%E8%A1%97%E5%BA%97%29&src=vetmap&coordinate=gaode&callnative=1","route_id":"r1","route_name":"第1段"},{"name":"恒康动物门诊","address":"玉清东街20089号","phone":"13455668076","category":"医疗保健服务;动物医疗场所;宠物诊所","area":"","lng":119.115752,"lat":36.736729,"amap_id":"B0KRBAQJJX","order":44,"prev_distance_km":0.711,"cumulative_distance_km":32.455,"amap_marker_url":"https://uri.amap.com/marker?position=119.115752,36.736729&name=%E6%81%92%E5%BA%B7%E5%8A%A8%E7%89%A9%E9%97%A8%E8%AF%8A&src=vetmap&coordinate=gaode&callnative=1","route_id":"r1","route_name":"第1段"},{"name":"爱诺动物医院(唯一伴侣鸢飞分院)","address":"鸢飞路与北宫东街交叉口亚星集团宿舍旁","phone":"0536-8971120","category":"医疗保健服务;动物医疗场所;宠物诊所","area":"","lng":119.126724,"lat":36.72669,"amap_id":"B0FFGCZA3G","order":45,"prev_distance_km":1.484,"cumulative_distance_km":33.939,"amap_marker_url":"https://uri.amap.com/marker?position=119.126724,36.726690&name=%E7%88%B1%E8%AF%BA%E5%8A%A8%E7%89%A9%E5%8C%BB%E9%99%A2%28%E5%94%AF%E4%B8%80%E4%BC%B4%E4%BE%A3%E9%B8%A2%E9%A3%9E%E5%88%86%E9%99%A2%29&src=vetmap&coordinate=gaode&callnative=1","route_id":"r1","route_name":"第1段"},{"name":"喵呜猫宠物医院潍坊猫专科医院","address":"玉清东街江山帝景A区","phone":"17861227688","category":"医疗保健服务;动物医疗场所;宠物诊所","area":"","lng":119.139022,"lat":36.736556,"amap_id":"B0FFM0JRW5","order":46,"prev_distance_km":1.551,"cumulative_distance_km":35.49,"amap_marker_url":"https://uri.amap.com/marker?position=119.139022,36.736556&name=%E5%96%B5%E5%91%9C%E7%8C%AB%E5%AE%A0%E7%89%A9%E5%8C%BB%E9%99%A2%E6%BD%8D%E5%9D%8A%E7%8C%AB%E4%B8%93%E7%A7%91%E5%8C%BB%E9%99%A2&src=vetmap&coordinate=gaode&callnative=1","route_id":"r1","route_name":"第1段"},{"name":"贝佳宠物医院(玉清街店)","address":"玉清东街16356西北方向110米","phone":"15169443055;15863296558","category":"医疗保健服务;动物医疗场所;宠物诊所","area":"","lng":119.13751,"lat":36.737271,"amap_id":"B0FFHS4QOL","order":47,"prev_distance_km":0.156,"cumulative_distance_km":35.646,"amap_marker_url":"https://uri.amap.com/marker?position=119.137510,36.737271&name=%E8%B4%9D%E4%BD%B3%E5%AE%A0%E7%89%A9%E5%8C%BB%E9%99%A2%28%E7%8E%89%E6%B8%85%E8%A1%97%E5%BA%97%29&src=vetmap&coordinate=gaode&callnative=1","route_id":"r1","route_name":"第1段"},{"name":"大河马动物医院·口腔专科·中兽医·异宠","address":"玄武街与文化路交叉口紫御东郡商铺","phone":"13188833367","category":"医疗保健服务;动物医疗场所;宠物诊所","area":"","lng":119.138496,"lat":36.74493,"amap_id":"B0K2GULEZZ","order":48,"prev_distance_km":0.856,"cumulative_distance_km":36.502,"amap_marker_url":"https://uri.amap.com/marker?position=119.138496,36.744930&name=%E5%A4%A7%E6%B2%B3%E9%A9%AC%E5%8A%A8%E7%89%A9%E5%8C%BB%E9%99%A2%C2%B7%E5%8F%A3%E8%85%94%E4%B8%93%E7%A7%91%C2%B7%E4%B8%AD%E5%85%BD%E5%8C%BB%C2%B7%E5%BC%82%E5%AE%A0&src=vetmap&coordinate=gaode&callnative=1","route_id":"r1","route_name":"第1段"}]}],"rows":[{"name":"潍坊丛林动物医院","address":"渤海路与珠光街路口西30米路南","phone":"0536-8656120;13006568120","category":"医疗保健服务;动物医疗场所;宠物诊所","area":"","lng":119.18074,"lat":36.674169,"amap_id":"B0K1OHTYQZ","order":1,"prev_distance_km":0.0,"cumulative_distance_km":0.0,"amap_marker_url":"https://uri.amap.com/marker?position=119.180740,36.674169&name=%E6%BD%8D%E5%9D%8A%E4%B8%9B%E6%9E%97%E5%8A%A8%E7%89%A9%E5%8C%BB%E9%99%A2&src=vetmap&coordinate=gaode&callnative=1","route_id":"r1","route_name":"第1段","global_order":1},{"name":"默德宠物医院","address":"潍县中路樱前街路口南200路西恒大影城北侧商铺楼10号","phone":"17353626655","category":"医疗保健服务;动物医疗场所;宠物诊所","area":"","lng":119.182333,"lat":36.686457,"amap_id":"B0FFIS5P6V","order":2,"prev_distance_km":1.374,"cumulative_distance_km":1.374,"amap_marker_url":"https://uri.amap.com/marker?position=119.182333,36.686457&name=%E9%BB%98%E5%BE%B7%E5%AE%A0%E7%89%A9%E5%8C%BB%E9%99%A2&src=vetmap&coordinate=gaode&callnative=1","route_id":"r1","route_name":"第1段","global_order":2},{"name":"柏华宠物医院","address":"金马路观泰巷19-25","phone":"15866537909","category":"医疗保健服务;动物医疗场所;宠物诊所","area":"","lng":119.174866,"lat":36.686061,"amap_id":"B0HK6S52UU","order":3,"prev_distance_km":0.667,"cumulative_distance_km":2.041,"amap_marker_url":"https://uri.amap.com/marker?position=119.174866,36.686061&name=%E6%9F%8F%E5%8D%8E%E5%AE%A0%E7%89%A9%E5%8C%BB%E9%99%A2&src=vetmap&coordinate=gaode&callnative=1","route_id":"r1","route_name":"第1段","global_order":3},{"name":"恩和宠物医院","address":"樱前街大观天下二期商铺402号(大观一期东1门东行50米路北)","phone":"13325245886","category":"医疗保健服务;动物医疗场所;宠物诊所","area":"","lng":119.170615,"lat":36.687483,"amap_id":"B0FFJAOTGM","order":4,"prev_distance_km":0.411,"cumulative_distance_km":2.452,"amap_marker_url":"https://uri.amap.com/marker?position=119.170615,36.687483&name=%E6%81%A9%E5%92%8C%E5%AE%A0%E7%89%A9%E5%8C%BB%E9%99%A2&src=vetmap&coordinate=gaode&callnative=1","route_id":"r1","route_name":"第1段","global_order":4},{"name":"凌云动物医院","address":"水岸华府北门东110米","phone":"19106367067","category":"医疗保健服务;动物医疗场所;宠物诊所","area":"","lng":119.178702,"lat":36.695146,"amap_id":"B0K2CC3XGV","order":5,"prev_distance_km":1.116,"cumulative_distance_km":3.568,"amap_marker_url":"https://uri.amap.com/marker?position=119.178702,36.695146&name=%E5%87%8C%E4%BA%91%E5%8A%A8%E7%89%A9%E5%8C%BB%E9%99%A2&src=vetmap&coordinate=gaode&callnative=1","route_id":"r1","route_name":"第1段","global_order":5},{"name":"诺潍宠美旗舰店宠物美容乐园","address":"金马路梨园街交叉口东100米路南","phone":"13625360211","category":"医疗保健服务;动物医疗场所;动物医疗场所","area":"","lng":119.179219,"lat":36.695186,"amap_id":"B0KAFLA9AV","order":6,"prev_distance_km":0.046,"cumulative_distance_km":3.614,"amap_marker_url":"https://uri.amap.com/marker?position=119.179219,36.695186&name=%E8%AF%BA%E6%BD%8D%E5%AE%A0%E7%BE%8E%E6%97%97%E8%88%B0%E5%BA%97%E5%AE%A0%E7%89%A9%E7%BE%8E%E5%AE%B9%E4%B9%90%E5%9B%AD&src=vetmap&coordinate=gaode&callnative=1","route_id":"r1","route_name":"第1段","global_order":6},{"name":"初心动物医院(晟景大厦店)","address":"健康东街10811号晟景大厦","phone":"13583601120","category":"医疗保健服务;动物医疗场所;宠物诊所","area":"","lng":119.176967,"lat":36.703121,"amap_id":"B0JD0ZX362","order":7,"prev_distance_km":0.905,"cumulative_distance_km":4.519,"amap_marker_url":"https://uri.amap.com/marker?position=119.176967,36.703121&name=%E5%88%9D%E5%BF%83%E5%8A%A8%E7%89%A9%E5%8C%BB%E9%99%A2%28%E6%99%9F%E6%99%AF%E5%A4%A7%E5%8E%A6%E5%BA%97%29&src=vetmap&coordinate=gaode&callnative=1","route_id":"r1","route_name":"第1段","global_order":7},{"name":"乐新动物医院心脏专科","address":"东金一号B区沿街商铺S8-114","phone":"0536-6361123;16665667276;17863668932","category":"医疗保健服务;动物医疗场所;宠物诊所","area":"","lng":119.193411,"lat":36.714353,"amap_id":"B0KKH55YZM","order":8,"prev_distance_km":1.926,"cumulative_distance_km":6.445,"amap_marker_url":"https://uri.amap.com/marker?position=119.193411,36.714353&name=%E4%B9%90%E6%96%B0%E5%8A%A8%E7%89%A9%E5%8C%BB%E9%99%A2%E5%BF%83%E8%84%8F%E4%B8%93%E7%A7%91&src=vetmap&coordinate=gaode&callnative=1","route_id":"r1","route_name":"第1段","global_order":8},{"name":"雨樟动物医院·牙科·综合全科","address":"奎文区高新区新城街道锦城社区北宫东街2188号北大锦城18-5商铺","phone":"17601638564","category":"医疗保健服务;动物医疗场所;宠物诊所","area":"","lng":119.183708,"lat":36.72539,"amap_id":"B0J2AU6QAF","order":9,"prev_distance_km":1.501,"cumulative_distance_km":7.946,"amap_marker_url":"https://uri.amap.com/marker?position=119.183708,36.725390&name=%E9%9B%A8%E6%A8%9F%E5%8A%A8%E7%89%A9%E5%8C%BB%E9%99%A2%C2%B7%E7%89%99%E7%A7%91%C2%B7%E7%BB%BC%E5%90%88%E5%85%A8%E7%A7%91&src=vetmap&coordinate=gaode&callnative=1","route_id":"r1","route_name":"第1段","global_order":9},{"name":"丞鑫伴侣动物诊疗中心","address":"创新街406号","phone":"15263686292","category":"医疗保健服务;动物医疗场所;宠物诊所","area":"","lng":119.180543,"lat":36.724608,"amap_id":"B0JGBS5PL4","order":10,"prev_distance_km":0.295,"cumulative_distance_km":8.241,"amap_marker_url":"https://uri.amap.com/marker?position=119.180543,36.724608&name=%E4%B8%9E%E9%91%AB%E4%BC%B4%E4%BE%A3%E5%8A%A8%E7%89%A9%E8%AF%8A%E7%96%97%E4%B8%AD%E5%BF%83&src=vetmap&coordinate=gaode&callnative=1","route_id":"r1","route_name":"第1段","global_order":10},{"name":"潍坊高新区阳光宠物诊所","address":"卧龙东街与银枫路交叉口北20米路东","phone":"18865365120","category":"医疗保健服务;动物医疗场所;宠物诊所","area":"","lng":119.179692,"lat":36.735285,"amap_id":"B0FFFXZ7CH","order":11,"prev_distance_km":1.19,"cumulative_distance_km":9.431,"amap_marker_url":"https://uri.amap.com/marker?position=119.179692,36.735285&name=%E6%BD%8D%E5%9D%8A%E9%AB%98%E6%96%B0%E5%8C%BA%E9%98%B3%E5%85%89%E5%AE%A0%E7%89%A9%E8%AF%8A%E6%89%80&src=vetmap&coordinate=gaode&callnative=1","route_id":"r1","route_name":"第1段","global_order":11},{"name":"小牧童宠物医院(高新店)","address":"中阳银枫家园北门西200米","phone":"13001532520","category":"医疗保健服务;动物医疗场所;宠物诊所","area":"","lng":119.175696,"lat":36.733914,"amap_id":"B0K1DZA53K","order":12,"prev_distance_km":0.387,"cumulative_distance_km":9.818,"amap_marker_url":"https://uri.amap.com/marker?position=119.175696,36.733914&name=%E5%B0%8F%E7%89%A7%E7%AB%A5%E5%AE%A0%E7%89%A9%E5%8C%BB%E9%99%A2%28%E9%AB%98%E6%96%B0%E5%BA%97%29&src=vetmap&coordinate=gaode&callnative=1","route_id":"r1","route_name":"第1段","global_order":12},{"name":"爱康宠物诊疗中心(桐荫街店)","address":"桐荫街1914号","phone":"13375363633","category":"医疗保健服务;动物医疗场所;宠物诊所","area":"","lng":119.171839,"lat":36.730306,"amap_id":"B0FFFAMYI4","order":13,"prev_distance_km":0.528,"cumulative_distance_km":10.347,"amap_marker_url":"https://uri.amap.com/marker?position=119.171839,36.730306&name=%E7%88%B1%E5%BA%B7%E5%AE%A0%E7%89%A9%E8%AF%8A%E7%96%97%E4%B8%AD%E5%BF%83%28%E6%A1%90%E8%8D%AB%E8%A1%97%E5%BA%97%29&src=vetmap&coordinate=gaode&callnative=1","route_id":"r1","route_name":"第1段","global_order":13},{"name":"壹家宠物诊所","address":"福寿东街3951-9号","phone":"13371097722","category":"医疗保健服务;动物医疗场所;宠物诊所","area":"","lng":119.17423,"lat":36.721326,"amap_id":"B0FFKJWNUZ","order":14,"prev_distance_km":1.021,"cumulative_distance_km":11.368,"amap_marker_url":"https://uri.amap.com/marker?position=119.174230,36.721326&name=%E5%A3%B9%E5%AE%B6%E5%AE%A0%E7%89%A9%E8%AF%8A%E6%89%80&src=vetmap&coordinate=gaode&callnative=1","route_id":"r1","route_name":"第1段","global_order":14},{"name":"乐贝动物医院","address":"福寿东街4936号世纪华润酒店西200米","phone":"0536-8877120","category":"医疗保健服务;动物医疗场所;宠物诊所","area":"","lng":119.162758,"lat":36.720293,"amap_id":"B0LBBUPPXF","order":15,"prev_distance_km":1.029,"cumulative_distance_km":12.397,"amap_marker_url":"https://uri.amap.com/marker?position=119.162758,36.720293&name=%E4%B9%90%E8%B4%9D%E5%8A%A8%E7%89%A9%E5%8C%BB%E9%99%A2&src=vetmap&coordinate=gaode&callnative=1","route_id":"r1","route_name":"第1段","global_order":15},{"name":"小伙伴宠物医院(东方路店)","address":"东方路东风街北300米路西新富锦光公寓B6","phone":"0536-8852120","category":"医疗保健服务;动物医疗场所;宠物诊所","area":"","lng":119.165196,"lat":36.716576,"amap_id":"B0FFG2LDCF","order":16,"prev_distance_km":0.467,"cumulative_distance_km":12.864,"amap_marker_url":"https://uri.amap.com/marker?position=119.165196,36.716576&name=%E5%B0%8F%E4%BC%99%E4%BC%B4%E5%AE%A0%E7%89%A9%E5%8C%BB%E9%99%A2%28%E4%B8%9C%E6%96%B9%E8%B7%AF%E5%BA%97%29&src=vetmap&coordinate=gaode&callnative=1","route_id":"r1","route_name":"第1段","global_order":16},{"name":"牧院心仪动物医院","address":"健康东街与东方路交叉口东200米牧院南校区内","phone":"15621731953","category":"医疗保健服务;动物医疗场所;兽医站","area":"","lng":119.166856,"lat":36.701786,"amap_id":"B0FFK94ID3","order":17,"prev_distance_km":1.651,"cumulative_distance_km":14.515,"amap_marker_url":"https://uri.amap.com/marker?position=119.166856,36.701786&name=%E7%89%A7%E9%99%A2%E5%BF%83%E4%BB%AA%E5%8A%A8%E7%89%A9%E5%8C%BB%E9%99%A2&src=vetmap&coordinate=gaode&callnative=1","route_id":"r1","route_name":"第1段","global_order":17},{"name":"李小乐宠物医院","address":"健康东街225号","phone":"0536-3145120","category":"医疗保健服务;动物医疗场所;宠物诊所","area":"","lng":119.169408,"lat":36.700351,"amap_id":"B0G2PRJ5Q4","order":18,"prev_distance_km":0.278,"cumulative_distance_km":14.793,"amap_marker_url":"https://uri.amap.com/marker?position=119.169408,36.700351&name=%E6%9D%8E%E5%B0%8F%E4%B9%90%E5%AE%A0%E7%89%A9%E5%8C%BB%E9%99%A2&src=vetmap&coordinate=gaode&callnative=1","route_id":"r1","route_name":"第1段","global_order":18},{"name":"佳一动物医院·牙专科·犬猫全科","address":"奎文区高新区东方路梨园街东50米路南(柒星云境西)","phone":"15668223780","category":"医疗保健服务;动物医疗场所;宠物诊所","area":"","lng":119.168901,"lat":36.694259,"amap_id":"B0KUSRQCSB","order":19,"prev_distance_km":0.679,"cumulative_distance_km":15.472,"amap_marker_url":"https://uri.amap.com/marker?position=119.168901,36.694259&name=%E4%BD%B3%E4%B8%80%E5%8A%A8%E7%89%A9%E5%8C%BB%E9%99%A2%C2%B7%E7%89%99%E4%B8%93%E7%A7%91%C2%B7%E7%8A%AC%E7%8C%AB%E5%85%A8%E7%A7%91&src=vetmap&coordinate=gaode&callnative=1","route_id":"r1","route_name":"第1段","global_order":19},{"name":"益宠动物诊疗中心(九龙山庄店)","address":"梨园路益宠动物医院","phone":"18660677120","category":"医疗保健服务;动物医疗场所;宠物诊所","area":"","lng":119.151867,"lat":36.686599,"amap_id":"B0FFKGBTAE","order":20,"prev_distance_km":1.741,"cumulative_distance_km":17.213,"amap_marker_url":"https://uri.amap.com/marker?position=119.151867,36.686599&name=%E7%9B%8A%E5%AE%A0%E5%8A%A8%E7%89%A9%E8%AF%8A%E7%96%97%E4%B8%AD%E5%BF%83%28%E4%B9%9D%E9%BE%99%E5%B1%B1%E5%BA%84%E5%BA%97%29&src=vetmap&coordinate=gaode&callnative=1","route_id":"r1","route_name":"第1段","global_order":20},{"name":"宠之爱动物医院(清溪街店)","address":"文化路与清溪街交叉路口向东100米路南","phone":"18366577120","category":"医疗保健服务;动物医疗场所;宠物诊所","area":"","lng":119.142935,"lat":36.68027,"amap_id":"B0218160OP","order":21,"prev_distance_km":1.063,"cumulative_distance_km":18.276,"amap_marker_url":"https://uri.amap.com/marker?position=119.142935,36.680270&name=%E5%AE%A0%E4%B9%8B%E7%88%B1%E5%8A%A8%E7%89%A9%E5%8C%BB%E9%99%A2%28%E6%B8%85%E6%BA%AA%E8%A1%97%E5%BA%97%29&src=vetmap&coordinate=gaode&callnative=1","route_id":"r1","route_name":"第1段","global_order":21},{"name":"福宠动物医院","address":"樱前街与庄樱路交叉口西120米","phone":"","category":"医疗保健服务;动物医疗场所;宠物诊所","area":"虞河","lng":119.136925,"lat":36.690075,"amap_id":"B0M6KRCQML","order":22,"prev_distance_km":1.215,"cumulative_distance_km":19.491,"amap_marker_url":"https://uri.amap.com/marker?position=119.136925,36.690075&name=%E7%A6%8F%E5%AE%A0%E5%8A%A8%E7%89%A9%E5%8C%BB%E9%99%A2&src=vetmap&coordinate=gaode&callnative=1","route_id":"r1","route_name":"第1段","global_order":22},{"name":"爱心宠物诊所(潍坊奎文区)","address":"樱前街文化路交叉口西200米路北","phone":"15762451818","category":"医疗保健服务;动物医疗场所;宠物诊所","area":"虞河","lng":119.136917,"lat":36.690083,"amap_id":"B0FFG55MMK","order":23,"prev_distance_km":0.001,"cumulative_distance_km":19.492,"amap_marker_url":"https://uri.amap.com/marker?position=119.136917,36.690083&name=%E7%88%B1%E5%BF%83%E5%AE%A0%E7%89%A9%E8%AF%8A%E6%89%80%28%E6%BD%8D%E5%9D%8A%E5%A5%8E%E6%96%87%E5%8C%BA%29&src=vetmap&coordinate=gaode&callnative=1","route_id":"r1","route_name":"第1段","global_order":23},{"name":"宠屋宠物生活馆·Lafancy's官方授权洗护中心","address":"庄樱路与樱前街交叉口北260米","phone":"18678033999","category":"医疗保健服务;动物医疗场所;动物医疗场所","area":"虞河","lng":119.138425,"lat":36.692175,"amap_id":"B0KDZ1LLV7","order":24,"prev_distance_km":0.269,"cumulative_distance_km":19.761,"amap_marker_url":"https://uri.amap.com/marker?position=119.138425,36.692175&name=%E5%AE%A0%E5%B1%8B%E5%AE%A0%E7%89%A9%E7%94%9F%E6%B4%BB%E9%A6%86%C2%B7Lafancy%27s%E5%AE%98%E6%96%B9%E6%8E%88%E6%9D%83%E6%B4%97%E6%8A%A4%E4%B8%AD%E5%BF%83&src=vetmap&coordinate=gaode&callnative=1","route_id":"r1","route_name":"第1段","global_order":24},{"name":"问心动物医院","address":"健康东街以南虞河路以东南户1-2层","phone":"17663655120","category":"医疗保健服务;动物医疗场所;宠物诊所","area":"虞河","lng":119.133588,"lat":36.693216,"amap_id":"B0LD4UPIR5","order":25,"prev_distance_km":0.447,"cumulative_distance_km":20.207,"amap_marker_url":"https://uri.amap.com/marker?position=119.133588,36.693216&name=%E9%97%AE%E5%BF%83%E5%8A%A8%E7%89%A9%E5%8C%BB%E9%99%A2&src=vetmap&coordinate=gaode&callnative=1","route_id":"r1","route_name":"第1段","global_order":25},{"name":"潍坊隆辉兽药有限公司","address":"健康东街13863-4号","phone":"0536-8076668","category":"医疗保健服务;动物医疗场所;动物医疗场所","area":"虞河","lng":119.135522,"lat":36.694702,"amap_id":"B0FFKT6Y2D","order":26,"prev_distance_km":0.239,"cumulative_distance_km":20.446,"amap_marker_url":"https://uri.amap.com/marker?position=119.135522,36.694702&name=%E6%BD%8D%E5%9D%8A%E9%9A%86%E8%BE%89%E5%85%BD%E8%8D%AF%E6%9C%89%E9%99%90%E5%85%AC%E5%8F%B8&src=vetmap&coordinate=gaode&callnative=1","route_id":"r1","route_name":"第1段","global_order":26},{"name":"兰田动物医院","address":"广文街道健康街文化路口西150米路北","phone":"18369626662","category":"医疗保健服务;动物医疗场所;宠物诊所","area":"虞河","lng":119.138239,"lat":36.694976,"amap_id":"B0LD3HJ0X6","order":27,"prev_distance_km":0.244,"cumulative_distance_km":20.69,"amap_marker_url":"https://uri.amap.com/marker?position=119.138239,36.694976&name=%E5%85%B0%E7%94%B0%E5%8A%A8%E7%89%A9%E5%8C%BB%E9%99%A2&src=vetmap&coordinate=gaode&callnative=1","route_id":"r1","route_name":"第1段","global_order":27},{"name":"潍宠汇动物医院(文化路店)","address":"文化路健康街西北角第一排第三间","phone":"18678002120","category":"医疗保健服务;动物医疗场所;宠物诊所","area":"虞河","lng":119.140321,"lat":36.695695,"amap_id":"B0FFIXATT6","order":28,"prev_distance_km":0.202,"cumulative_distance_km":20.892,"amap_marker_url":"https://uri.amap.com/marker?position=119.140321,36.695695&name=%E6%BD%8D%E5%AE%A0%E6%B1%87%E5%8A%A8%E7%89%A9%E5%8C%BB%E9%99%A2%28%E6%96%87%E5%8C%96%E8%B7%AF%E5%BA%97%29&src=vetmap&coordinate=gaode&callnative=1","route_id":"r1","route_name":"第1段","global_order":28},{"name":"宠嘉宠物医院","address":"西虞·天成北门旁","phone":"15153633259;15153633916;15153682828","category":"医疗保健服务;动物医疗场所;宠物诊所","area":"虞河","lng":119.13774,"lat":36.705994,"amap_id":"B0G31ZW499","order":29,"prev_distance_km":1.168,"cumulative_distance_km":22.06,"amap_marker_url":"https://uri.amap.com/marker?position=119.137740,36.705994&name=%E5%AE%A0%E5%98%89%E5%AE%A0%E7%89%A9%E5%8C%BB%E9%99%A2&src=vetmap&coordinate=gaode&callnative=1","route_id":"r1","route_name":"第1段","global_order":29},{"name":"小伙伴宠物医院(新华路店)","address":"新华路1691号盛世华廷7号楼124号商业房","phone":"0536-8067120","category":"医疗保健服务;动物医疗场所;宠物诊所","area":"","lng":119.148169,"lat":36.705078,"amap_id":"B0JU75HBEP","order":30,"prev_distance_km":0.935,"cumulative_distance_km":22.996,"amap_marker_url":"https://uri.amap.com/marker?position=119.148169,36.705078&name=%E5%B0%8F%E4%BC%99%E4%BC%B4%E5%AE%A0%E7%89%A9%E5%8C%BB%E9%99%A2%28%E6%96%B0%E5%8D%8E%E8%B7%AF%E5%BA%97%29&src=vetmap&coordinate=gaode&callnative=1","route_id":"r1","route_name":"第1段","global_order":30},{"name":"国际金牌猫友好医院","address":"中天下潍坊国际东门旁","phone":"","category":"医疗保健服务;动物医疗场所;宠物诊所","area":"","lng":119.148163,"lat":36.705162,"amap_id":"B0KDC9QU8P","order":31,"prev_distance_km":0.009,"cumulative_distance_km":23.005,"amap_marker_url":"https://uri.amap.com/marker?position=119.148163,36.705162&name=%E5%9B%BD%E9%99%85%E9%87%91%E7%89%8C%E7%8C%AB%E5%8F%8B%E5%A5%BD%E5%8C%BB%E9%99%A2&src=vetmap&coordinate=gaode&callnative=1","route_id":"r1","route_name":"第1段","global_order":31},{"name":"牧院心仪动物医院(奎文院)","address":"德蒙商务广场B座南门旁","phone":"18560218210","category":"医疗保健服务;动物医疗场所;宠物诊所","area":"","lng":119.146412,"lat":36.7132,"amap_id":"B0KD1HE1MN","order":32,"prev_distance_km":0.907,"cumulative_distance_km":23.912,"amap_marker_url":"https://uri.amap.com/marker?position=119.146412,36.713200&name=%E7%89%A7%E9%99%A2%E5%BF%83%E4%BB%AA%E5%8A%A8%E7%89%A9%E5%8C%BB%E9%99%A2%28%E5%A5%8E%E6%96%87%E9%99%A2%29&src=vetmap&coordinate=gaode&callnative=1","route_id":"r1","route_name":"第1段","global_order":32},{"name":"小伙伴宠物医院(文化路店)","address":"福寿街与文化路交叉口东20米路北","phone":"0536-8461120","category":"医疗保健服务;动物医疗场所;宠物诊所","area":"","lng":119.141752,"lat":36.720123,"amap_id":"B0H66HC4DY","order":33,"prev_distance_km":0.875,"cumulative_distance_km":24.787,"amap_marker_url":"https://uri.amap.com/marker?position=119.141752,36.720123&name=%E5%B0%8F%E4%BC%99%E4%BC%B4%E5%AE%A0%E7%89%A9%E5%8C%BB%E9%99%A2%28%E6%96%87%E5%8C%96%E8%B7%AF%E5%BA%97%29&src=vetmap&coordinate=gaode&callnative=1","route_id":"r1","route_name":"第1段","global_order":33},{"name":"涛涛宠物诊疗","address":"东风街272号名门现代城C31号商铺","phone":"15315243000","category":"医疗保健服务;动物医疗场所;宠物诊所","area":"","lng":119.127717,"lat":36.712733,"amap_id":"B0IGYUGOMB","order":34,"prev_distance_km":1.497,"cumulative_distance_km":26.284,"amap_marker_url":"https://uri.amap.com/marker?position=119.127717,36.712733&name=%E6%B6%9B%E6%B6%9B%E5%AE%A0%E7%89%A9%E8%AF%8A%E7%96%97&src=vetmap&coordinate=gaode&callnative=1","route_id":"r1","route_name":"第1段","global_order":34},{"name":"三木森宠物医院","address":"东风东街名门现代城北门东30米路南","phone":"13287676629;15263632120","category":"医疗保健服务;动物医疗场所;宠物诊所","area":"","lng":119.126964,"lat":36.712639,"amap_id":"B0FFMAEO9V","order":35,"prev_distance_km":0.068,"cumulative_distance_km":26.352,"amap_marker_url":"https://uri.amap.com/marker?position=119.126964,36.712639&name=%E4%B8%89%E6%9C%A8%E6%A3%AE%E5%AE%A0%E7%89%A9%E5%8C%BB%E9%99%A2&src=vetmap&coordinate=gaode&callnative=1","route_id":"r1","route_name":"第1段","global_order":35},{"name":"申普宠物","address":"潍州路街道四平路1473号宝莲公寓14号商铺1层","phone":"","category":"医疗保健服务;动物医疗场所;动物医疗场所","area":"","lng":119.114984,"lat":36.700965,"amap_id":"B0LA1Z9O88","order":36,"prev_distance_km":1.681,"cumulative_distance_km":28.033,"amap_marker_url":"https://uri.amap.com/marker?position=119.114984,36.700965&name=%E7%94%B3%E6%99%AE%E5%AE%A0%E7%89%A9&src=vetmap&coordinate=gaode&callnative=1","route_id":"r1","route_name":"第1段","global_order":36},{"name":"星辰宠物","address":"东关街道李家街四平家园6号楼商铺","phone":"15650256175","category":"医疗保健服务;动物医疗场所;动物医疗场所","area":"","lng":119.113773,"lat":36.71471,"amap_id":"B0KU6MY6SD","order":37,"prev_distance_km":1.532,"cumulative_distance_km":29.565,"amap_marker_url":"https://uri.amap.com/marker?position=119.113773,36.714710&name=%E6%98%9F%E8%BE%B0%E5%AE%A0%E7%89%A9&src=vetmap&coordinate=gaode&callnative=1","route_id":"r1","route_name":"第1段","global_order":37},{"name":"小伙伴宠物医院(奎文店转诊中心)","address":"福寿东街6899-7号","phone":"19853631035","category":"医疗保健服务;动物医疗场所;宠物诊所","area":"","lng":119.114361,"lat":36.719188,"amap_id":"B02180IYUG","order":38,"prev_distance_km":0.501,"cumulative_distance_km":30.065,"amap_marker_url":"https://uri.amap.com/marker?position=119.114361,36.719188&name=%E5%B0%8F%E4%BC%99%E4%BC%B4%E5%AE%A0%E7%89%A9%E5%8C%BB%E9%99%A2%28%E5%A5%8E%E6%96%87%E5%BA%97%E8%BD%AC%E8%AF%8A%E4%B8%AD%E5%BF%83%29&src=vetmap&coordinate=gaode&callnative=1","route_id":"r1","route_name":"第1段","global_order":38},{"name":"安康动物医院(奎文店)","address":"四平路与福寿街交叉口向北50米路西","phone":"15908000052;18663615120","category":"医疗保健服务;动物医疗场所;宠物诊所","area":"","lng":119.115784,"lat":36.719804,"amap_id":"B0FFGE8YFQ","order":39,"prev_distance_km":0.144,"cumulative_distance_km":30.21,"amap_marker_url":"https://uri.amap.com/marker?position=119.115784,36.719804&name=%E5%AE%89%E5%BA%B7%E5%8A%A8%E7%89%A9%E5%8C%BB%E9%99%A2%28%E5%A5%8E%E6%96%87%E5%BA%97%29&src=vetmap&coordinate=gaode&callnative=1","route_id":"r1","route_name":"第1段","global_order":39},{"name":"都奇美动物门诊","address":"四平路1104号与工福街交叉口北路东","phone":"13258080202;13280127958","category":"医疗保健服务;动物医疗场所;宠物诊所","area":"","lng":119.116335,"lat":36.722105,"amap_id":"B021815ZYR","order":40,"prev_distance_km":0.261,"cumulative_distance_km":30.47,"amap_marker_url":"https://uri.amap.com/marker?position=119.116335,36.722105&name=%E9%83%BD%E5%A5%87%E7%BE%8E%E5%8A%A8%E7%89%A9%E9%97%A8%E8%AF%8A&src=vetmap&coordinate=gaode&callnative=1","route_id":"r1","route_name":"第1段","global_order":40},{"name":"宠康动物医院(北宫店)","address":"北宫东街298号","phone":"0536-8799120;15653683120","category":"医疗保健服务;动物医疗场所;宠物诊所","area":"","lng":119.120673,"lat":36.723601,"amap_id":"B0FFKGBJ95","order":41,"prev_distance_km":0.421,"cumulative_distance_km":30.891,"amap_marker_url":"https://uri.amap.com/marker?position=119.120673,36.723601&name=%E5%AE%A0%E5%BA%B7%E5%8A%A8%E7%89%A9%E5%8C%BB%E9%99%A2%28%E5%8C%97%E5%AE%AB%E5%BA%97%29&src=vetmap&coordinate=gaode&callnative=1","route_id":"r1","route_name":"第1段","global_order":41},{"name":"联宠宠物医院","address":"北宫东街与游麟路交叉口北80米","phone":"15726366624","category":"医疗保健服务;动物医疗场所;宠物诊所","area":"","lng":119.119075,"lat":36.724574,"amap_id":"B0J3VO91TR","order":42,"prev_distance_km":0.179,"cumulative_distance_km":31.07,"amap_marker_url":"https://uri.amap.com/marker?position=119.119075,36.724574&name=%E8%81%94%E5%AE%A0%E5%AE%A0%E7%89%A9%E5%8C%BB%E9%99%A2&src=vetmap&coordinate=gaode&callnative=1","route_id":"r1","route_name":"第1段","global_order":42},{"name":"贝佳宠物医院(卧龙街店)","address":"卧龙东街与四平路交叉口东180米","phone":"","category":"医疗保健服务;动物医疗场所;宠物诊所","area":"","lng":119.117102,"lat":36.730428,"amap_id":"B0K1UP8T9N","order":43,"prev_distance_km":0.674,"cumulative_distance_km":31.744,"amap_marker_url":"https://uri.amap.com/marker?position=119.117102,36.730428&name=%E8%B4%9D%E4%BD%B3%E5%AE%A0%E7%89%A9%E5%8C%BB%E9%99%A2%28%E5%8D%A7%E9%BE%99%E8%A1%97%E5%BA%97%29&src=vetmap&coordinate=gaode&callnative=1","route_id":"r1","route_name":"第1段","global_order":43},{"name":"恒康动物门诊","address":"玉清东街20089号","phone":"13455668076","category":"医疗保健服务;动物医疗场所;宠物诊所","area":"","lng":119.115752,"lat":36.736729,"amap_id":"B0KRBAQJJX","order":44,"prev_distance_km":0.711,"cumulative_distance_km":32.455,"amap_marker_url":"https://uri.amap.com/marker?position=119.115752,36.736729&name=%E6%81%92%E5%BA%B7%E5%8A%A8%E7%89%A9%E9%97%A8%E8%AF%8A&src=vetmap&coordinate=gaode&callnative=1","route_id":"r1","route_name":"第1段","global_order":44},{"name":"爱诺动物医院(唯一伴侣鸢飞分院)","address":"鸢飞路与北宫东街交叉口亚星集团宿舍旁","phone":"0536-8971120","category":"医疗保健服务;动物医疗场所;宠物诊所","area":"","lng":119.126724,"lat":36.72669,"amap_id":"B0FFGCZA3G","order":45,"prev_distance_km":1.484,"cumulative_distance_km":33.939,"amap_marker_url":"https://uri.amap.com/marker?position=119.126724,36.726690&name=%E7%88%B1%E8%AF%BA%E5%8A%A8%E7%89%A9%E5%8C%BB%E9%99%A2%28%E5%94%AF%E4%B8%80%E4%BC%B4%E4%BE%A3%E9%B8%A2%E9%A3%9E%E5%88%86%E9%99%A2%29&src=vetmap&coordinate=gaode&callnative=1","route_id":"r1","route_name":"第1段","global_order":45},{"name":"喵呜猫宠物医院潍坊猫专科医院","address":"玉清东街江山帝景A区","phone":"17861227688","category":"医疗保健服务;动物医疗场所;宠物诊所","area":"","lng":119.139022,"lat":36.736556,"amap_id":"B0FFM0JRW5","order":46,"prev_distance_km":1.551,"cumulative_distance_km":35.49,"amap_marker_url":"https://uri.amap.com/marker?position=119.139022,36.736556&name=%E5%96%B5%E5%91%9C%E7%8C%AB%E5%AE%A0%E7%89%A9%E5%8C%BB%E9%99%A2%E6%BD%8D%E5%9D%8A%E7%8C%AB%E4%B8%93%E7%A7%91%E5%8C%BB%E9%99%A2&src=vetmap&coordinate=gaode&callnative=1","route_id":"r1","route_name":"第1段","global_order":46},{"name":"贝佳宠物医院(玉清街店)","address":"玉清东街16356西北方向110米","phone":"15169443055;15863296558","category":"医疗保健服务;动物医疗场所;宠物诊所","area":"","lng":119.13751,"lat":36.737271,"amap_id":"B0FFHS4QOL","order":47,"prev_distance_km":0.156,"cumulative_distance_km":35.646,"amap_marker_url":"https://uri.amap.com/marker?position=119.137510,36.737271&name=%E8%B4%9D%E4%BD%B3%E5%AE%A0%E7%89%A9%E5%8C%BB%E9%99%A2%28%E7%8E%89%E6%B8%85%E8%A1%97%E5%BA%97%29&src=vetmap&coordinate=gaode&callnative=1","route_id":"r1","route_name":"第1段","global_order":47},{"name":"大河马动物医院·口腔专科·中兽医·异宠","address":"玄武街与文化路交叉口紫御东郡商铺","phone":"13188833367","category":"医疗保健服务;动物医疗场所;宠物诊所","area":"","lng":119.138496,"lat":36.74493,"amap_id":"B0K2GULEZZ","order":48,"prev_distance_km":0.856,"cumulative_distance_km":36.502,"amap_marker_url":"https://uri.amap.com/marker?position=119.138496,36.744930&name=%E5%A4%A7%E6%B2%B3%E9%A9%AC%E5%8A%A8%E7%89%A9%E5%8C%BB%E9%99%A2%C2%B7%E5%8F%A3%E8%85%94%E4%B8%93%E7%A7%91%C2%B7%E4%B8%AD%E5%85%BD%E5%8C%BB%C2%B7%E5%BC%82%E5%AE%A0&src=vetmap&coordinate=gaode&callnative=1","route_id":"r1","route_name":"第1段","global_order":48}]}