{"summary":{"id":"d00322","province":"山东省","city":"临沂市","district":"莒南县","count":41,"route_count":1,"max_route_clinics":41,"total_distance_km":166.358,"coordinate_system":"GCJ-02 / Amap","generated_at":"2026-05-07 21:27:17"},"routes":[{"id":"r1","name":"第1段","count":41,"total_distance_km":166.358,"rows":[{"name":"临港区坪上兽医站","address":"振兴路3号","phone":"","category":"医疗保健服务;动物医疗场所;兽医站","area":"","lng":119.080844,"lat":35.176241,"amap_id":"B0FFGR0Q87","order":1,"prev_distance_km":0.0,"cumulative_distance_km":0.0,"amap_marker_url":"https://uri.amap.com/marker?position=119.080844,35.176241&name=%E4%B8%B4%E6%B8%AF%E5%8C%BA%E5%9D%AA%E4%B8%8A%E5%85%BD%E5%8C%BB%E7%AB%99&src=vetmap&coordinate=gaode&callnative=1","route_id":"r1","route_name":"第1段"},{"name":"畜牧兽医门诊","address":"坊前派出所东侧170米","phone":"","category":"医疗保健服务;动物医疗场所;兽医站","area":"","lng":118.994081,"lat":35.158001,"amap_id":"B0GU51VP6J","order":2,"prev_distance_km":8.143,"cumulative_distance_km":8.143,"amap_marker_url":"https://uri.amap.com/marker?position=118.994081,35.158001&name=%E7%95%9C%E7%89%A7%E5%85%BD%E5%8C%BB%E9%97%A8%E8%AF%8A&src=vetmap&coordinate=gaode&callnative=1","route_id":"r1","route_name":"第1段"},{"name":"壮岗兽医站","address":"板团路与金赣线交叉口北260米","phone":"13563951089","category":"医疗保健服务;动物医疗场所;兽医站","area":"","lng":119.047364,"lat":35.075935,"amap_id":"B0KAZMGY6H","order":3,"prev_distance_km":10.332,"cumulative_distance_km":18.476,"amap_marker_url":"https://uri.amap.com/marker?position=119.047364,35.075935&name=%E5%A3%AE%E5%B2%97%E5%85%BD%E5%8C%BB%E7%AB%99&src=vetmap&coordinate=gaode&callnative=1","route_id":"r1","route_name":"第1段"},{"name":"三和兽药门诊","address":"金赣线与板团路交叉口西380米","phone":"","category":"医疗保健服务;动物医疗场所;兽医站","area":"","lng":119.042899,"lat":35.074219,"amap_id":"B0I23STK3M","order":4,"prev_distance_km":0.449,"cumulative_distance_km":18.925,"amap_marker_url":"https://uri.amap.com/marker?position=119.042899,35.074219&name=%E4%B8%89%E5%92%8C%E5%85%BD%E8%8D%AF%E9%97%A8%E8%AF%8A&src=vetmap&coordinate=gaode&callnative=1","route_id":"r1","route_name":"第1段"},{"name":"洙边动物保健门诊","address":"莒南海鼎饲料有限公司东门北110米","phone":"15865249070","category":"医疗保健服务;动物医疗场所;兽医站","area":"","lng":118.867618,"lat":35.076507,"amap_id":"B0FFG4ERKS","order":5,"prev_distance_km":15.953,"cumulative_distance_km":34.878,"amap_marker_url":"https://uri.amap.com/marker?position=118.867618,35.076507&name=%E6%B4%99%E8%BE%B9%E5%8A%A8%E7%89%A9%E4%BF%9D%E5%81%A5%E9%97%A8%E8%AF%8A&src=vetmap&coordinate=gaode&callnative=1","route_id":"r1","route_name":"第1段"},{"name":"洙边镇兽医站","address":"242省道西50米","phone":"13371278808;15588117567","category":"医疗保健服务;动物医疗场所;兽医站","area":"","lng":118.8671,"lat":35.078695,"amap_id":"B0FFHUBZK4","order":6,"prev_distance_km":0.248,"cumulative_distance_km":35.125,"amap_marker_url":"https://uri.amap.com/marker?position=118.867100,35.078695&name=%E6%B4%99%E8%BE%B9%E9%95%87%E5%85%BD%E5%8C%BB%E7%AB%99&src=vetmap&coordinate=gaode&callnative=1","route_id":"r1","route_name":"第1段"},{"name":"康利兽药门诊","address":"242省道东50米","phone":"13864947098","category":"医疗保健服务;动物医疗场所;兽医站","area":"","lng":118.867288,"lat":35.079475,"amap_id":"B0FFFZOIOF","order":7,"prev_distance_km":0.088,"cumulative_distance_km":35.214,"amap_marker_url":"https://uri.amap.com/marker?position=118.867288,35.079475&name=%E5%BA%B7%E5%88%A9%E5%85%BD%E8%8D%AF%E9%97%A8%E8%AF%8A&src=vetmap&coordinate=gaode&callnative=1","route_id":"r1","route_name":"第1段"},{"name":"莒南县惠泽动物医院有限公司","address":"242省道西侧","phone":"","category":"医疗保健服务;动物医疗场所;兽医站","area":"","lng":118.864858,"lat":35.087639,"amap_id":"B0GDJU4SGX","order":8,"prev_distance_km":0.934,"cumulative_distance_km":36.148,"amap_marker_url":"https://uri.amap.com/marker?position=118.864858,35.087639&name=%E8%8E%92%E5%8D%97%E5%8E%BF%E6%83%A0%E6%B3%BD%E5%8A%A8%E7%89%A9%E5%8C%BB%E9%99%A2%E6%9C%89%E9%99%90%E5%85%AC%E5%8F%B8&src=vetmap&coordinate=gaode&callnative=1","route_id":"r1","route_name":"第1段"},{"name":"洙边兽医站","address":"242省道西50米","phone":"","category":"医疗保健服务;动物医疗场所;兽医站","area":"","lng":118.864846,"lat":35.087689,"amap_id":"B0FFHUR1RX","order":9,"prev_distance_km":0.006,"cumulative_distance_km":36.154,"amap_marker_url":"https://uri.amap.com/marker?position=118.864846,35.087689&name=%E6%B4%99%E8%BE%B9%E5%85%BD%E5%8C%BB%E7%AB%99&src=vetmap&coordinate=gaode&callnative=1","route_id":"r1","route_name":"第1段"},{"name":"金邦农生物科技公司直营金邦农动保门诊","address":"宋沟浴池西北侧240米","phone":"15163978288","category":"医疗保健服务;动物医疗场所;兽医站","area":"","lng":118.758345,"lat":35.047777,"amap_id":"B0FFIDJXI6","order":10,"prev_distance_km":10.66,"cumulative_distance_km":46.814,"amap_marker_url":"https://uri.amap.com/marker?position=118.758345,35.047777&name=%E9%87%91%E9%82%A6%E5%86%9C%E7%94%9F%E7%89%A9%E7%A7%91%E6%8A%80%E5%85%AC%E5%8F%B8%E7%9B%B4%E8%90%A5%E9%87%91%E9%82%A6%E5%86%9C%E5%8A%A8%E4%BF%9D%E9%97%A8%E8%AF%8A&src=vetmap&coordinate=gaode&callnative=1","route_id":"r1","route_name":"第1段"},{"name":"嘉瑞兽医门诊","address":"相沟镇逢集路口东20米路北","phone":"15215399533","category":"医疗保健服务;动物医疗场所;兽医站","area":"","lng":118.754737,"lat":35.076959,"amap_id":"B0HUL555XZ","order":11,"prev_distance_km":3.261,"cumulative_distance_km":50.076,"amap_marker_url":"https://uri.amap.com/marker?position=118.754737,35.076959&name=%E5%98%89%E7%91%9E%E5%85%BD%E5%8C%BB%E9%97%A8%E8%AF%8A&src=vetmap&coordinate=gaode&callnative=1","route_id":"r1","route_name":"第1段"},{"name":"赵家兽医专为民服务","address":"225省道西50米","phone":"15054997886","category":"医疗保健服务;动物医疗场所;兽医站","area":"","lng":118.690772,"lat":35.113462,"amap_id":"B0HGVRQXZN","order":12,"prev_distance_km":7.095,"cumulative_distance_km":57.171,"amap_marker_url":"https://uri.amap.com/marker?position=118.690772,35.113462&name=%E8%B5%B5%E5%AE%B6%E5%85%BD%E5%8C%BB%E4%B8%93%E4%B8%BA%E6%B0%91%E6%9C%8D%E5%8A%A1&src=vetmap&coordinate=gaode&callnative=1","route_id":"r1","route_name":"第1段"},{"name":"莒南县畜牧局板泉防疫检疫所","address":"运军路1号正东方向150米","phone":"","category":"医疗保健服务;动物医疗场所;兽医站","area":"","lng":118.697146,"lat":35.127059,"amap_id":"B0FFK4MSYM","order":13,"prev_distance_km":1.619,"cumulative_distance_km":58.79,"amap_marker_url":"https://uri.amap.com/marker?position=118.697146,35.127059&name=%E8%8E%92%E5%8D%97%E5%8E%BF%E7%95%9C%E7%89%A7%E5%B1%80%E6%9D%BF%E6%B3%89%E9%98%B2%E7%96%AB%E6%A3%80%E7%96%AB%E6%89%80&src=vetmap&coordinate=gaode&callnative=1","route_id":"r1","route_name":"第1段"},{"name":"兽医门诊","address":"板泉镇周岭村","phone":"13053932080","category":"医疗保健服务;动物医疗场所;兽医站","area":"","lng":118.726909,"lat":35.151705,"amap_id":"B0IRHSSS32","order":14,"prev_distance_km":3.852,"cumulative_distance_km":62.642,"amap_marker_url":"https://uri.amap.com/marker?position=118.726909,35.151705&name=%E5%85%BD%E5%8C%BB%E9%97%A8%E8%AF%8A&src=vetmap&coordinate=gaode&callnative=1","route_id":"r1","route_name":"第1段"},{"name":"临沂同进畜牧宠物诊所","address":"十字路镇宋家欢疃沟村","phone":"13734397988","category":"医疗保健服务;动物医疗场所;兽医站","area":"","lng":118.745494,"lat":35.167647,"amap_id":"B0JBDUU7LH","order":15,"prev_distance_km":2.449,"cumulative_distance_km":65.091,"amap_marker_url":"https://uri.amap.com/marker?position=118.745494,35.167647&name=%E4%B8%B4%E6%B2%82%E5%90%8C%E8%BF%9B%E7%95%9C%E7%89%A7%E5%AE%A0%E7%89%A9%E8%AF%8A%E6%89%80&src=vetmap&coordinate=gaode&callnative=1","route_id":"r1","route_name":"第1段"},{"name":"康源兽药门诊","address":"乐百家超市西侧120米","phone":"","category":"医疗保健服务;动物医疗场所;兽医站","area":"","lng":118.776809,"lat":35.170255,"amap_id":"B0JR5MOYRI","order":16,"prev_distance_km":2.861,"cumulative_distance_km":67.952,"amap_marker_url":"https://uri.amap.com/marker?position=118.776809,35.170255&name=%E5%BA%B7%E6%BA%90%E5%85%BD%E8%8D%AF%E9%97%A8%E8%AF%8A&src=vetmap&coordinate=gaode&callnative=1","route_id":"r1","route_name":"第1段"},{"name":"圣信宠物门诊","address":"三中西沿街楼","phone":"13792989501;13805499849","category":"医疗保健服务;动物医疗场所;宠物诊所","area":"","lng":118.822159,"lat":35.1733,"amap_id":"B0ID77QEAQ","order":17,"prev_distance_km":4.136,"cumulative_distance_km":72.088,"amap_marker_url":"https://uri.amap.com/marker?position=118.822159,35.173300&name=%E5%9C%A3%E4%BF%A1%E5%AE%A0%E7%89%A9%E9%97%A8%E8%AF%8A&src=vetmap&coordinate=gaode&callnative=1","route_id":"r1","route_name":"第1段"},{"name":"金城国际动物医院","address":"天桥路与嵋山路交叉口南100米","phone":"","category":"医疗保健服务;动物医疗场所;宠物诊所","area":"","lng":118.844128,"lat":35.169382,"amap_id":"B0K67H1TIE","order":18,"prev_distance_km":2.044,"cumulative_distance_km":74.131,"amap_marker_url":"https://uri.amap.com/marker?position=118.844128,35.169382&name=%E9%87%91%E5%9F%8E%E5%9B%BD%E9%99%85%E5%8A%A8%E7%89%A9%E5%8C%BB%E9%99%A2&src=vetmap&coordinate=gaode&callnative=1","route_id":"r1","route_name":"第1段"},{"name":"莒南县动物医院","address":"金城国际西2门北90米","phone":"0539-7281278","category":"医疗保健服务;动物医疗场所;宠物诊所","area":"","lng":118.844157,"lat":35.16945,"amap_id":"B0FFKDIOPV","order":19,"prev_distance_km":0.008,"cumulative_distance_km":74.139,"amap_marker_url":"https://uri.amap.com/marker?position=118.844157,35.169450&name=%E8%8E%92%E5%8D%97%E5%8E%BF%E5%8A%A8%E7%89%A9%E5%8C%BB%E9%99%A2&src=vetmap&coordinate=gaode&callnative=1","route_id":"r1","route_name":"第1段"},{"name":"猪病门诊","address":"天桥路与嵋山路交叉口北60米","phone":"","category":"医疗保健服务;动物医疗场所;兽医站","area":"","lng":118.844318,"lat":35.17085,"amap_id":"B0L3CXK8QH","order":20,"prev_distance_km":0.156,"cumulative_distance_km":74.296,"amap_marker_url":"https://uri.amap.com/marker?position=118.844318,35.170850&name=%E7%8C%AA%E7%97%85%E9%97%A8%E8%AF%8A&src=vetmap&coordinate=gaode&callnative=1","route_id":"r1","route_name":"第1段"},{"name":"宠贝康宠物医院","address":"十字路镇温泉路华泉苑南区西沿街","phone":"19905392688","category":"医疗保健服务;动物医疗场所;宠物诊所","area":"","lng":118.848985,"lat":35.173987,"amap_id":"B0L0DMMRD3","order":21,"prev_distance_km":0.549,"cumulative_distance_km":74.845,"amap_marker_url":"https://uri.amap.com/marker?position=118.848985,35.173987&name=%E5%AE%A0%E8%B4%9D%E5%BA%B7%E5%AE%A0%E7%89%A9%E5%8C%BB%E9%99%A2&src=vetmap&coordinate=gaode&callnative=1","route_id":"r1","route_name":"第1段"},{"name":"爱宠动物医院(金都上城店)","address":"金都上城东南门西50米","phone":"","category":"医疗保健服务;动物医疗场所;宠物诊所","area":"","lng":118.856968,"lat":35.187954,"amap_id":"B0KUAZ049U","order":22,"prev_distance_km":1.714,"cumulative_distance_km":76.559,"amap_marker_url":"https://uri.amap.com/marker?position=118.856968,35.187954&name=%E7%88%B1%E5%AE%A0%E5%8A%A8%E7%89%A9%E5%8C%BB%E9%99%A2%28%E9%87%91%E9%83%BD%E4%B8%8A%E5%9F%8E%E5%BA%97%29&src=vetmap&coordinate=gaode&callnative=1","route_id":"r1","route_name":"第1段"},{"name":"兽医站门诊部","address":"实验中学园丁苑南门西80米","phone":"","category":"医疗保健服务;动物医疗场所;兽医站","area":"","lng":118.848372,"lat":35.195507,"amap_id":"B0FFG1RODI","order":23,"prev_distance_km":1.147,"cumulative_distance_km":77.706,"amap_marker_url":"https://uri.amap.com/marker?position=118.848372,35.195507&name=%E5%85%BD%E5%8C%BB%E7%AB%99%E9%97%A8%E8%AF%8A%E9%83%A8&src=vetmap&coordinate=gaode&callnative=1","route_id":"r1","route_name":"第1段"},{"name":"艾瑞宠物诊所","address":"天桥路景城花园东沿街5-106","phone":"18264968857","category":"医疗保健服务;动物医疗场所;宠物诊所","area":"","lng":118.841782,"lat":35.196185,"amap_id":"B0H3PU4SCA","order":24,"prev_distance_km":0.604,"cumulative_distance_km":78.31,"amap_marker_url":"https://uri.amap.com/marker?position=118.841782,35.196185&name=%E8%89%BE%E7%91%9E%E5%AE%A0%E7%89%A9%E8%AF%8A%E6%89%80&src=vetmap&coordinate=gaode&callnative=1","route_id":"r1","route_name":"第1段"},{"name":"兽医门诊","address":"洪石路与天桥路交叉口西60米","phone":"13562922805","category":"医疗保健服务;动物医疗场所;兽医站","area":"","lng":118.841658,"lat":35.194883,"amap_id":"B0FFGPY1SE","order":25,"prev_distance_km":0.145,"cumulative_distance_km":78.455,"amap_marker_url":"https://uri.amap.com/marker?position=118.841658,35.194883&name=%E5%85%BD%E5%8C%BB%E9%97%A8%E8%AF%8A&src=vetmap&coordinate=gaode&callnative=1","route_id":"r1","route_name":"第1段"},{"name":"乐乐宠物","address":"裕隆国际B区东门旁","phone":"","category":"医疗保健服务;动物医疗场所;动物医疗场所|购物服务;专卖店;宠物用品店","area":"","lng":118.829625,"lat":35.178525,"amap_id":"B0MBBUW8CN","order":26,"prev_distance_km":2.122,"cumulative_distance_km":80.577,"amap_marker_url":"https://uri.amap.com/marker?position=118.829625,35.178525&name=%E4%B9%90%E4%B9%90%E5%AE%A0%E7%89%A9&src=vetmap&coordinate=gaode&callnative=1","route_id":"r1","route_name":"第1段"},{"name":"尹相良兽医门诊","address":"莒南经济开发区后良店村卫生室西侧60米","phone":"","category":"医疗保健服务;动物医疗场所;兽医站","area":"","lng":118.784258,"lat":35.209947,"amap_id":"B0JU6RQRCL","order":27,"prev_distance_km":5.404,"cumulative_distance_km":85.981,"amap_marker_url":"https://uri.amap.com/marker?position=118.784258,35.209947&name=%E5%B0%B9%E7%9B%B8%E8%89%AF%E5%85%BD%E5%8C%BB%E9%97%A8%E8%AF%8A&src=vetmap&coordinate=gaode&callnative=1","route_id":"r1","route_name":"第1段"},{"name":"大信兽药","address":"中共西岭泉村支部委员会西侧150米","phone":"","category":"医疗保健服务;动物医疗场所;兽医站","area":"","lng":118.73759,"lat":35.224289,"amap_id":"B0ID77KINT","order":28,"prev_distance_km":4.53,"cumulative_distance_km":90.511,"amap_marker_url":"https://uri.amap.com/marker?position=118.737590,35.224289&name=%E5%A4%A7%E4%BF%A1%E5%85%BD%E8%8D%AF&src=vetmap&coordinate=gaode&callnative=1","route_id":"r1","route_name":"第1段"},{"name":"莒南县兽医站(岭泉镇连锁店)","address":"岭泉镇政府","phone":"","category":"医疗保健服务;动物医疗场所;兽医站","area":"","lng":118.728387,"lat":35.226767,"amap_id":"B0GUB5MG0K","order":29,"prev_distance_km":0.88,"cumulative_distance_km":91.391,"amap_marker_url":"https://uri.amap.com/marker?position=118.728387,35.226767&name=%E8%8E%92%E5%8D%97%E5%8E%BF%E5%85%BD%E5%8C%BB%E7%AB%99%28%E5%B2%AD%E6%B3%89%E9%95%87%E8%BF%9E%E9%94%81%E5%BA%97%29&src=vetmap&coordinate=gaode&callnative=1","route_id":"r1","route_name":"第1段"},{"name":"群邦兽医站","address":"纪业全羊汤东南侧50米","phone":"","category":"医疗保健服务;动物医疗场所;兽医站","area":"","lng":118.677986,"lat":35.269596,"amap_id":"B0J07LBJET","order":30,"prev_distance_km":6.605,"cumulative_distance_km":97.996,"amap_marker_url":"https://uri.amap.com/marker?position=118.677986,35.269596&name=%E7%BE%A4%E9%82%A6%E5%85%BD%E5%8C%BB%E7%AB%99&src=vetmap&coordinate=gaode&callnative=1","route_id":"r1","route_name":"第1段"},{"name":"石莲子兽医门诊","address":"石莲子莲水湾社区逢集路口南50米","phone":"15265171400","category":"医疗保健服务;动物医疗场所;兽医站","area":"","lng":118.640554,"lat":35.311327,"amap_id":"B0FFLJFKDY","order":31,"prev_distance_km":5.751,"cumulative_distance_km":103.747,"amap_marker_url":"https://uri.amap.com/marker?position=118.640554,35.311327&name=%E7%9F%B3%E8%8E%B2%E5%AD%90%E5%85%BD%E5%8C%BB%E9%97%A8%E8%AF%8A&src=vetmap&coordinate=gaode&callnative=1","route_id":"r1","route_name":"第1段"},{"name":"莒南县顺康兽医门诊有限公司","address":"良沂线","phone":"","category":"医疗保健服务;动物医疗场所;兽医站","area":"","lng":118.614795,"lat":35.380052,"amap_id":"B0HBO6HQ7L","order":32,"prev_distance_km":7.991,"cumulative_distance_km":111.738,"amap_marker_url":"https://uri.amap.com/marker?position=118.614795,35.380052&name=%E8%8E%92%E5%8D%97%E5%8E%BF%E9%A1%BA%E5%BA%B7%E5%85%BD%E5%8C%BB%E9%97%A8%E8%AF%8A%E6%9C%89%E9%99%90%E5%85%AC%E5%8F%B8&src=vetmap&coordinate=gaode&callnative=1","route_id":"r1","route_name":"第1段"},{"name":"官庄动物卫生室","address":"大店镇北小官庄村","phone":"","category":"医疗保健服务;动物医疗场所;动物医疗场所","area":"","lng":118.734125,"lat":35.324875,"amap_id":"B0KKVU355Z","order":33,"prev_distance_km":12.44,"cumulative_distance_km":124.178,"amap_marker_url":"https://uri.amap.com/marker?position=118.734125,35.324875&name=%E5%AE%98%E5%BA%84%E5%8A%A8%E7%89%A9%E5%8D%AB%E7%94%9F%E5%AE%A4&src=vetmap&coordinate=gaode&callnative=1","route_id":"r1","route_name":"第1段"},{"name":"兴康兽药门诊","address":"225省道与同心路交叉口北160米","phone":"","category":"医疗保健服务;动物医疗场所;兽医站","area":"","lng":118.770275,"lat":35.337175,"amap_id":"B0LDTX4T5H","order":34,"prev_distance_km":3.553,"cumulative_distance_km":127.732,"amap_marker_url":"https://uri.amap.com/marker?position=118.770275,35.337175&name=%E5%85%B4%E5%BA%B7%E5%85%BD%E8%8D%AF%E9%97%A8%E8%AF%8A&src=vetmap&coordinate=gaode&callnative=1","route_id":"r1","route_name":"第1段"},{"name":"大店镇兽医站","address":"中心街与同心路交叉口南120米","phone":"","category":"医疗保健服务;动物医疗场所;兽医站","area":"","lng":118.770507,"lat":35.334714,"amap_id":"B0FFFZ62WN","order":35,"prev_distance_km":0.274,"cumulative_distance_km":128.006,"amap_marker_url":"https://uri.amap.com/marker?position=118.770507,35.334714&name=%E5%A4%A7%E5%BA%97%E9%95%87%E5%85%BD%E5%8C%BB%E7%AB%99&src=vetmap&coordinate=gaode&callnative=1","route_id":"r1","route_name":"第1段"},{"name":"春辉兽药服务部","address":"莒新路与文泗路交叉口西北60米","phone":"","category":"医疗保健服务;动物医疗场所;动物医疗场所","area":"","lng":118.780056,"lat":35.264411,"amap_id":"B0KRKS44YO","order":36,"prev_distance_km":7.865,"cumulative_distance_km":135.871,"amap_marker_url":"https://uri.amap.com/marker?position=118.780056,35.264411&name=%E6%98%A5%E8%BE%89%E5%85%BD%E8%8D%AF%E6%9C%8D%E5%8A%A1%E9%83%A8&src=vetmap&coordinate=gaode&callnative=1","route_id":"r1","route_name":"第1段"},{"name":"小鲁兽医门诊","address":"筵宾镇驻地","phone":"13953915660","category":"医疗保健服务;动物医疗场所;兽医站","area":"","lng":118.783729,"lat":35.255333,"amap_id":"B0FFFZ6PMX","order":37,"prev_distance_km":1.063,"cumulative_distance_km":136.934,"amap_marker_url":"https://uri.amap.com/marker?position=118.783729,35.255333&name=%E5%B0%8F%E9%B2%81%E5%85%BD%E5%8C%BB%E9%97%A8%E8%AF%8A&src=vetmap&coordinate=gaode&callnative=1","route_id":"r1","route_name":"第1段"},{"name":"店头社区动物卫生室","address":"涝坡镇西店头村","phone":"0539-7847129","category":"医疗保健服务;动物医疗场所;宠物诊所","area":"","lng":118.880527,"lat":35.282051,"amap_id":"B0FFKBQEZV","order":38,"prev_distance_km":9.276,"cumulative_distance_km":146.211,"amap_marker_url":"https://uri.amap.com/marker?position=118.880527,35.282051&name=%E5%BA%97%E5%A4%B4%E7%A4%BE%E5%8C%BA%E5%8A%A8%E7%89%A9%E5%8D%AB%E7%94%9F%E5%AE%A4&src=vetmap&coordinate=gaode&callnative=1","route_id":"r1","route_name":"第1段"},{"name":"牧强动物服务中心","address":"牧山书院东侧","phone":"","category":"医疗保健服务;动物医疗场所;宠物诊所","area":"","lng":118.935036,"lat":35.300246,"amap_id":"B0JB9L2SN5","order":39,"prev_distance_km":5.345,"cumulative_distance_km":151.556,"amap_marker_url":"https://uri.amap.com/marker?position=118.935036,35.300246&name=%E7%89%A7%E5%BC%BA%E5%8A%A8%E7%89%A9%E6%9C%8D%E5%8A%A1%E4%B8%AD%E5%BF%83&src=vetmap&coordinate=gaode&callnative=1","route_id":"r1","route_name":"第1段"},{"name":"小吴兽医门诊","address":"高家柳沟文化大院","phone":"15020373719","category":"医疗保健服务;动物医疗场所;兽医站","area":"","lng":118.989349,"lat":35.270066,"amap_id":"B0FFK5AFLS","order":40,"prev_distance_km":5.964,"cumulative_distance_km":157.519,"amap_marker_url":"https://uri.amap.com/marker?position=118.989349,35.270066&name=%E5%B0%8F%E5%90%B4%E5%85%BD%E5%8C%BB%E9%97%A8%E8%AF%8A&src=vetmap&coordinate=gaode&callnative=1","route_id":"r1","route_name":"第1段"},{"name":"文疃镇兽医站","address":"甲子山医院北侧90米","phone":"18854956967","category":"医疗保健服务;动物医疗场所;兽医站","area":"","lng":119.041452,"lat":35.337218,"amap_id":"B0K6M6DIRC","order":41,"prev_distance_km":8.838,"cumulative_distance_km":166.358,"amap_marker_url":"https://uri.amap.com/marker?position=119.041452,35.337218&name=%E6%96%87%E7%96%83%E9%95%87%E5%85%BD%E5%8C%BB%E7%AB%99&src=vetmap&coordinate=gaode&callnative=1","route_id":"r1","route_name":"第1段"}]}],"rows":[{"name":"临港区坪上兽医站","address":"振兴路3号","phone":"","category":"医疗保健服务;动物医疗场所;兽医站","area":"","lng":119.080844,"lat":35.176241,"amap_id":"B0FFGR0Q87","order":1,"prev_distance_km":0.0,"cumulative_distance_km":0.0,"amap_marker_url":"https://uri.amap.com/marker?position=119.080844,35.176241&name=%E4%B8%B4%E6%B8%AF%E5%8C%BA%E5%9D%AA%E4%B8%8A%E5%85%BD%E5%8C%BB%E7%AB%99&src=vetmap&coordinate=gaode&callnative=1","route_id":"r1","route_name":"第1段","global_order":1},{"name":"畜牧兽医门诊","address":"坊前派出所东侧170米","phone":"","category":"医疗保健服务;动物医疗场所;兽医站","area":"","lng":118.994081,"lat":35.158001,"amap_id":"B0GU51VP6J","order":2,"prev_distance_km":8.143,"cumulative_distance_km":8.143,"amap_marker_url":"https://uri.amap.com/marker?position=118.994081,35.158001&name=%E7%95%9C%E7%89%A7%E5%85%BD%E5%8C%BB%E9%97%A8%E8%AF%8A&src=vetmap&coordinate=gaode&callnative=1","route_id":"r1","route_name":"第1段","global_order":2},{"name":"壮岗兽医站","address":"板团路与金赣线交叉口北260米","phone":"13563951089","category":"医疗保健服务;动物医疗场所;兽医站","area":"","lng":119.047364,"lat":35.075935,"amap_id":"B0KAZMGY6H","order":3,"prev_distance_km":10.332,"cumulative_distance_km":18.476,"amap_marker_url":"https://uri.amap.com/marker?position=119.047364,35.075935&name=%E5%A3%AE%E5%B2%97%E5%85%BD%E5%8C%BB%E7%AB%99&src=vetmap&coordinate=gaode&callnative=1","route_id":"r1","route_name":"第1段","global_order":3},{"name":"三和兽药门诊","address":"金赣线与板团路交叉口西380米","phone":"","category":"医疗保健服务;动物医疗场所;兽医站","area":"","lng":119.042899,"lat":35.074219,"amap_id":"B0I23STK3M","order":4,"prev_distance_km":0.449,"cumulative_distance_km":18.925,"amap_marker_url":"https://uri.amap.com/marker?position=119.042899,35.074219&name=%E4%B8%89%E5%92%8C%E5%85%BD%E8%8D%AF%E9%97%A8%E8%AF%8A&src=vetmap&coordinate=gaode&callnative=1","route_id":"r1","route_name":"第1段","global_order":4},{"name":"洙边动物保健门诊","address":"莒南海鼎饲料有限公司东门北110米","phone":"15865249070","category":"医疗保健服务;动物医疗场所;兽医站","area":"","lng":118.867618,"lat":35.076507,"amap_id":"B0FFG4ERKS","order":5,"prev_distance_km":15.953,"cumulative_distance_km":34.878,"amap_marker_url":"https://uri.amap.com/marker?position=118.867618,35.076507&name=%E6%B4%99%E8%BE%B9%E5%8A%A8%E7%89%A9%E4%BF%9D%E5%81%A5%E9%97%A8%E8%AF%8A&src=vetmap&coordinate=gaode&callnative=1","route_id":"r1","route_name":"第1段","global_order":5},{"name":"洙边镇兽医站","address":"242省道西50米","phone":"13371278808;15588117567","category":"医疗保健服务;动物医疗场所;兽医站","area":"","lng":118.8671,"lat":35.078695,"amap_id":"B0FFHUBZK4","order":6,"prev_distance_km":0.248,"cumulative_distance_km":35.125,"amap_marker_url":"https://uri.amap.com/marker?position=118.867100,35.078695&name=%E6%B4%99%E8%BE%B9%E9%95%87%E5%85%BD%E5%8C%BB%E7%AB%99&src=vetmap&coordinate=gaode&callnative=1","route_id":"r1","route_name":"第1段","global_order":6},{"name":"康利兽药门诊","address":"242省道东50米","phone":"13864947098","category":"医疗保健服务;动物医疗场所;兽医站","area":"","lng":118.867288,"lat":35.079475,"amap_id":"B0FFFZOIOF","order":7,"prev_distance_km":0.088,"cumulative_distance_km":35.214,"amap_marker_url":"https://uri.amap.com/marker?position=118.867288,35.079475&name=%E5%BA%B7%E5%88%A9%E5%85%BD%E8%8D%AF%E9%97%A8%E8%AF%8A&src=vetmap&coordinate=gaode&callnative=1","route_id":"r1","route_name":"第1段","global_order":7},{"name":"莒南县惠泽动物医院有限公司","address":"242省道西侧","phone":"","category":"医疗保健服务;动物医疗场所;兽医站","area":"","lng":118.864858,"lat":35.087639,"amap_id":"B0GDJU4SGX","order":8,"prev_distance_km":0.934,"cumulative_distance_km":36.148,"amap_marker_url":"https://uri.amap.com/marker?position=118.864858,35.087639&name=%E8%8E%92%E5%8D%97%E5%8E%BF%E6%83%A0%E6%B3%BD%E5%8A%A8%E7%89%A9%E5%8C%BB%E9%99%A2%E6%9C%89%E9%99%90%E5%85%AC%E5%8F%B8&src=vetmap&coordinate=gaode&callnative=1","route_id":"r1","route_name":"第1段","global_order":8},{"name":"洙边兽医站","address":"242省道西50米","phone":"","category":"医疗保健服务;动物医疗场所;兽医站","area":"","lng":118.864846,"lat":35.087689,"amap_id":"B0FFHUR1RX","order":9,"prev_distance_km":0.006,"cumulative_distance_km":36.154,"amap_marker_url":"https://uri.amap.com/marker?position=118.864846,35.087689&name=%E6%B4%99%E8%BE%B9%E5%85%BD%E5%8C%BB%E7%AB%99&src=vetmap&coordinate=gaode&callnative=1","route_id":"r1","route_name":"第1段","global_order":9},{"name":"金邦农生物科技公司直营金邦农动保门诊","address":"宋沟浴池西北侧240米","phone":"15163978288","category":"医疗保健服务;动物医疗场所;兽医站","area":"","lng":118.758345,"lat":35.047777,"amap_id":"B0FFIDJXI6","order":10,"prev_distance_km":10.66,"cumulative_distance_km":46.814,"amap_marker_url":"https://uri.amap.com/marker?position=118.758345,35.047777&name=%E9%87%91%E9%82%A6%E5%86%9C%E7%94%9F%E7%89%A9%E7%A7%91%E6%8A%80%E5%85%AC%E5%8F%B8%E7%9B%B4%E8%90%A5%E9%87%91%E9%82%A6%E5%86%9C%E5%8A%A8%E4%BF%9D%E9%97%A8%E8%AF%8A&src=vetmap&coordinate=gaode&callnative=1","route_id":"r1","route_name":"第1段","global_order":10},{"name":"嘉瑞兽医门诊","address":"相沟镇逢集路口东20米路北","phone":"15215399533","category":"医疗保健服务;动物医疗场所;兽医站","area":"","lng":118.754737,"lat":35.076959,"amap_id":"B0HUL555XZ","order":11,"prev_distance_km":3.261,"cumulative_distance_km":50.076,"amap_marker_url":"https://uri.amap.com/marker?position=118.754737,35.076959&name=%E5%98%89%E7%91%9E%E5%85%BD%E5%8C%BB%E9%97%A8%E8%AF%8A&src=vetmap&coordinate=gaode&callnative=1","route_id":"r1","route_name":"第1段","global_order":11},{"name":"赵家兽医专为民服务","address":"225省道西50米","phone":"15054997886","category":"医疗保健服务;动物医疗场所;兽医站","area":"","lng":118.690772,"lat":35.113462,"amap_id":"B0HGVRQXZN","order":12,"prev_distance_km":7.095,"cumulative_distance_km":57.171,"amap_marker_url":"https://uri.amap.com/marker?position=118.690772,35.113462&name=%E8%B5%B5%E5%AE%B6%E5%85%BD%E5%8C%BB%E4%B8%93%E4%B8%BA%E6%B0%91%E6%9C%8D%E5%8A%A1&src=vetmap&coordinate=gaode&callnative=1","route_id":"r1","route_name":"第1段","global_order":12},{"name":"莒南县畜牧局板泉防疫检疫所","address":"运军路1号正东方向150米","phone":"","category":"医疗保健服务;动物医疗场所;兽医站","area":"","lng":118.697146,"lat":35.127059,"amap_id":"B0FFK4MSYM","order":13,"prev_distance_km":1.619,"cumulative_distance_km":58.79,"amap_marker_url":"https://uri.amap.com/marker?position=118.697146,35.127059&name=%E8%8E%92%E5%8D%97%E5%8E%BF%E7%95%9C%E7%89%A7%E5%B1%80%E6%9D%BF%E6%B3%89%E9%98%B2%E7%96%AB%E6%A3%80%E7%96%AB%E6%89%80&src=vetmap&coordinate=gaode&callnative=1","route_id":"r1","route_name":"第1段","global_order":13},{"name":"兽医门诊","address":"板泉镇周岭村","phone":"13053932080","category":"医疗保健服务;动物医疗场所;兽医站","area":"","lng":118.726909,"lat":35.151705,"amap_id":"B0IRHSSS32","order":14,"prev_distance_km":3.852,"cumulative_distance_km":62.642,"amap_marker_url":"https://uri.amap.com/marker?position=118.726909,35.151705&name=%E5%85%BD%E5%8C%BB%E9%97%A8%E8%AF%8A&src=vetmap&coordinate=gaode&callnative=1","route_id":"r1","route_name":"第1段","global_order":14},{"name":"临沂同进畜牧宠物诊所","address":"十字路镇宋家欢疃沟村","phone":"13734397988","category":"医疗保健服务;动物医疗场所;兽医站","area":"","lng":118.745494,"lat":35.167647,"amap_id":"B0JBDUU7LH","order":15,"prev_distance_km":2.449,"cumulative_distance_km":65.091,"amap_marker_url":"https://uri.amap.com/marker?position=118.745494,35.167647&name=%E4%B8%B4%E6%B2%82%E5%90%8C%E8%BF%9B%E7%95%9C%E7%89%A7%E5%AE%A0%E7%89%A9%E8%AF%8A%E6%89%80&src=vetmap&coordinate=gaode&callnative=1","route_id":"r1","route_name":"第1段","global_order":15},{"name":"康源兽药门诊","address":"乐百家超市西侧120米","phone":"","category":"医疗保健服务;动物医疗场所;兽医站","area":"","lng":118.776809,"lat":35.170255,"amap_id":"B0JR5MOYRI","order":16,"prev_distance_km":2.861,"cumulative_distance_km":67.952,"amap_marker_url":"https://uri.amap.com/marker?position=118.776809,35.170255&name=%E5%BA%B7%E6%BA%90%E5%85%BD%E8%8D%AF%E9%97%A8%E8%AF%8A&src=vetmap&coordinate=gaode&callnative=1","route_id":"r1","route_name":"第1段","global_order":16},{"name":"圣信宠物门诊","address":"三中西沿街楼","phone":"13792989501;13805499849","category":"医疗保健服务;动物医疗场所;宠物诊所","area":"","lng":118.822159,"lat":35.1733,"amap_id":"B0ID77QEAQ","order":17,"prev_distance_km":4.136,"cumulative_distance_km":72.088,"amap_marker_url":"https://uri.amap.com/marker?position=118.822159,35.173300&name=%E5%9C%A3%E4%BF%A1%E5%AE%A0%E7%89%A9%E9%97%A8%E8%AF%8A&src=vetmap&coordinate=gaode&callnative=1","route_id":"r1","route_name":"第1段","global_order":17},{"name":"金城国际动物医院","address":"天桥路与嵋山路交叉口南100米","phone":"","category":"医疗保健服务;动物医疗场所;宠物诊所","area":"","lng":118.844128,"lat":35.169382,"amap_id":"B0K67H1TIE","order":18,"prev_distance_km":2.044,"cumulative_distance_km":74.131,"amap_marker_url":"https://uri.amap.com/marker?position=118.844128,35.169382&name=%E9%87%91%E5%9F%8E%E5%9B%BD%E9%99%85%E5%8A%A8%E7%89%A9%E5%8C%BB%E9%99%A2&src=vetmap&coordinate=gaode&callnative=1","route_id":"r1","route_name":"第1段","global_order":18},{"name":"莒南县动物医院","address":"金城国际西2门北90米","phone":"0539-7281278","category":"医疗保健服务;动物医疗场所;宠物诊所","area":"","lng":118.844157,"lat":35.16945,"amap_id":"B0FFKDIOPV","order":19,"prev_distance_km":0.008,"cumulative_distance_km":74.139,"amap_marker_url":"https://uri.amap.com/marker?position=118.844157,35.169450&name=%E8%8E%92%E5%8D%97%E5%8E%BF%E5%8A%A8%E7%89%A9%E5%8C%BB%E9%99%A2&src=vetmap&coordinate=gaode&callnative=1","route_id":"r1","route_name":"第1段","global_order":19},{"name":"猪病门诊","address":"天桥路与嵋山路交叉口北60米","phone":"","category":"医疗保健服务;动物医疗场所;兽医站","area":"","lng":118.844318,"lat":35.17085,"amap_id":"B0L3CXK8QH","order":20,"prev_distance_km":0.156,"cumulative_distance_km":74.296,"amap_marker_url":"https://uri.amap.com/marker?position=118.844318,35.170850&name=%E7%8C%AA%E7%97%85%E9%97%A8%E8%AF%8A&src=vetmap&coordinate=gaode&callnative=1","route_id":"r1","route_name":"第1段","global_order":20},{"name":"宠贝康宠物医院","address":"十字路镇温泉路华泉苑南区西沿街","phone":"19905392688","category":"医疗保健服务;动物医疗场所;宠物诊所","area":"","lng":118.848985,"lat":35.173987,"amap_id":"B0L0DMMRD3","order":21,"prev_distance_km":0.549,"cumulative_distance_km":74.845,"amap_marker_url":"https://uri.amap.com/marker?position=118.848985,35.173987&name=%E5%AE%A0%E8%B4%9D%E5%BA%B7%E5%AE%A0%E7%89%A9%E5%8C%BB%E9%99%A2&src=vetmap&coordinate=gaode&callnative=1","route_id":"r1","route_name":"第1段","global_order":21},{"name":"爱宠动物医院(金都上城店)","address":"金都上城东南门西50米","phone":"","category":"医疗保健服务;动物医疗场所;宠物诊所","area":"","lng":118.856968,"lat":35.187954,"amap_id":"B0KUAZ049U","order":22,"prev_distance_km":1.714,"cumulative_distance_km":76.559,"amap_marker_url":"https://uri.amap.com/marker?position=118.856968,35.187954&name=%E7%88%B1%E5%AE%A0%E5%8A%A8%E7%89%A9%E5%8C%BB%E9%99%A2%28%E9%87%91%E9%83%BD%E4%B8%8A%E5%9F%8E%E5%BA%97%29&src=vetmap&coordinate=gaode&callnative=1","route_id":"r1","route_name":"第1段","global_order":22},{"name":"兽医站门诊部","address":"实验中学园丁苑南门西80米","phone":"","category":"医疗保健服务;动物医疗场所;兽医站","area":"","lng":118.848372,"lat":35.195507,"amap_id":"B0FFG1RODI","order":23,"prev_distance_km":1.147,"cumulative_distance_km":77.706,"amap_marker_url":"https://uri.amap.com/marker?position=118.848372,35.195507&name=%E5%85%BD%E5%8C%BB%E7%AB%99%E9%97%A8%E8%AF%8A%E9%83%A8&src=vetmap&coordinate=gaode&callnative=1","route_id":"r1","route_name":"第1段","global_order":23},{"name":"艾瑞宠物诊所","address":"天桥路景城花园东沿街5-106","phone":"18264968857","category":"医疗保健服务;动物医疗场所;宠物诊所","area":"","lng":118.841782,"lat":35.196185,"amap_id":"B0H3PU4SCA","order":24,"prev_distance_km":0.604,"cumulative_distance_km":78.31,"amap_marker_url":"https://uri.amap.com/marker?position=118.841782,35.196185&name=%E8%89%BE%E7%91%9E%E5%AE%A0%E7%89%A9%E8%AF%8A%E6%89%80&src=vetmap&coordinate=gaode&callnative=1","route_id":"r1","route_name":"第1段","global_order":24},{"name":"兽医门诊","address":"洪石路与天桥路交叉口西60米","phone":"13562922805","category":"医疗保健服务;动物医疗场所;兽医站","area":"","lng":118.841658,"lat":35.194883,"amap_id":"B0FFGPY1SE","order":25,"prev_distance_km":0.145,"cumulative_distance_km":78.455,"amap_marker_url":"https://uri.amap.com/marker?position=118.841658,35.194883&name=%E5%85%BD%E5%8C%BB%E9%97%A8%E8%AF%8A&src=vetmap&coordinate=gaode&callnative=1","route_id":"r1","route_name":"第1段","global_order":25},{"name":"乐乐宠物","address":"裕隆国际B区东门旁","phone":"","category":"医疗保健服务;动物医疗场所;动物医疗场所|购物服务;专卖店;宠物用品店","area":"","lng":118.829625,"lat":35.178525,"amap_id":"B0MBBUW8CN","order":26,"prev_distance_km":2.122,"cumulative_distance_km":80.577,"amap_marker_url":"https://uri.amap.com/marker?position=118.829625,35.178525&name=%E4%B9%90%E4%B9%90%E5%AE%A0%E7%89%A9&src=vetmap&coordinate=gaode&callnative=1","route_id":"r1","route_name":"第1段","global_order":26},{"name":"尹相良兽医门诊","address":"莒南经济开发区后良店村卫生室西侧60米","phone":"","category":"医疗保健服务;动物医疗场所;兽医站","area":"","lng":118.784258,"lat":35.209947,"amap_id":"B0JU6RQRCL","order":27,"prev_distance_km":5.404,"cumulative_distance_km":85.981,"amap_marker_url":"https://uri.amap.com/marker?position=118.784258,35.209947&name=%E5%B0%B9%E7%9B%B8%E8%89%AF%E5%85%BD%E5%8C%BB%E9%97%A8%E8%AF%8A&src=vetmap&coordinate=gaode&callnative=1","route_id":"r1","route_name":"第1段","global_order":27},{"name":"大信兽药","address":"中共西岭泉村支部委员会西侧150米","phone":"","category":"医疗保健服务;动物医疗场所;兽医站","area":"","lng":118.73759,"lat":35.224289,"amap_id":"B0ID77KINT","order":28,"prev_distance_km":4.53,"cumulative_distance_km":90.511,"amap_marker_url":"https://uri.amap.com/marker?position=118.737590,35.224289&name=%E5%A4%A7%E4%BF%A1%E5%85%BD%E8%8D%AF&src=vetmap&coordinate=gaode&callnative=1","route_id":"r1","route_name":"第1段","global_order":28},{"name":"莒南县兽医站(岭泉镇连锁店)","address":"岭泉镇政府","phone":"","category":"医疗保健服务;动物医疗场所;兽医站","area":"","lng":118.728387,"lat":35.226767,"amap_id":"B0GUB5MG0K","order":29,"prev_distance_km":0.88,"cumulative_distance_km":91.391,"amap_marker_url":"https://uri.amap.com/marker?position=118.728387,35.226767&name=%E8%8E%92%E5%8D%97%E5%8E%BF%E5%85%BD%E5%8C%BB%E7%AB%99%28%E5%B2%AD%E6%B3%89%E9%95%87%E8%BF%9E%E9%94%81%E5%BA%97%29&src=vetmap&coordinate=gaode&callnative=1","route_id":"r1","route_name":"第1段","global_order":29},{"name":"群邦兽医站","address":"纪业全羊汤东南侧50米","phone":"","category":"医疗保健服务;动物医疗场所;兽医站","area":"","lng":118.677986,"lat":35.269596,"amap_id":"B0J07LBJET","order":30,"prev_distance_km":6.605,"cumulative_distance_km":97.996,"amap_marker_url":"https://uri.amap.com/marker?position=118.677986,35.269596&name=%E7%BE%A4%E9%82%A6%E5%85%BD%E5%8C%BB%E7%AB%99&src=vetmap&coordinate=gaode&callnative=1","route_id":"r1","route_name":"第1段","global_order":30},{"name":"石莲子兽医门诊","address":"石莲子莲水湾社区逢集路口南50米","phone":"15265171400","category":"医疗保健服务;动物医疗场所;兽医站","area":"","lng":118.640554,"lat":35.311327,"amap_id":"B0FFLJFKDY","order":31,"prev_distance_km":5.751,"cumulative_distance_km":103.747,"amap_marker_url":"https://uri.amap.com/marker?position=118.640554,35.311327&name=%E7%9F%B3%E8%8E%B2%E5%AD%90%E5%85%BD%E5%8C%BB%E9%97%A8%E8%AF%8A&src=vetmap&coordinate=gaode&callnative=1","route_id":"r1","route_name":"第1段","global_order":31},{"name":"莒南县顺康兽医门诊有限公司","address":"良沂线","phone":"","category":"医疗保健服务;动物医疗场所;兽医站","area":"","lng":118.614795,"lat":35.380052,"amap_id":"B0HBO6HQ7L","order":32,"prev_distance_km":7.991,"cumulative_distance_km":111.738,"amap_marker_url":"https://uri.amap.com/marker?position=118.614795,35.380052&name=%E8%8E%92%E5%8D%97%E5%8E%BF%E9%A1%BA%E5%BA%B7%E5%85%BD%E5%8C%BB%E9%97%A8%E8%AF%8A%E6%9C%89%E9%99%90%E5%85%AC%E5%8F%B8&src=vetmap&coordinate=gaode&callnative=1","route_id":"r1","route_name":"第1段","global_order":32},{"name":"官庄动物卫生室","address":"大店镇北小官庄村","phone":"","category":"医疗保健服务;动物医疗场所;动物医疗场所","area":"","lng":118.734125,"lat":35.324875,"amap_id":"B0KKVU355Z","order":33,"prev_distance_km":12.44,"cumulative_distance_km":124.178,"amap_marker_url":"https://uri.amap.com/marker?position=118.734125,35.324875&name=%E5%AE%98%E5%BA%84%E5%8A%A8%E7%89%A9%E5%8D%AB%E7%94%9F%E5%AE%A4&src=vetmap&coordinate=gaode&callnative=1","route_id":"r1","route_name":"第1段","global_order":33},{"name":"兴康兽药门诊","address":"225省道与同心路交叉口北160米","phone":"","category":"医疗保健服务;动物医疗场所;兽医站","area":"","lng":118.770275,"lat":35.337175,"amap_id":"B0LDTX4T5H","order":34,"prev_distance_km":3.553,"cumulative_distance_km":127.732,"amap_marker_url":"https://uri.amap.com/marker?position=118.770275,35.337175&name=%E5%85%B4%E5%BA%B7%E5%85%BD%E8%8D%AF%E9%97%A8%E8%AF%8A&src=vetmap&coordinate=gaode&callnative=1","route_id":"r1","route_name":"第1段","global_order":34},{"name":"大店镇兽医站","address":"中心街与同心路交叉口南120米","phone":"","category":"医疗保健服务;动物医疗场所;兽医站","area":"","lng":118.770507,"lat":35.334714,"amap_id":"B0FFFZ62WN","order":35,"prev_distance_km":0.274,"cumulative_distance_km":128.006,"amap_marker_url":"https://uri.amap.com/marker?position=118.770507,35.334714&name=%E5%A4%A7%E5%BA%97%E9%95%87%E5%85%BD%E5%8C%BB%E7%AB%99&src=vetmap&coordinate=gaode&callnative=1","route_id":"r1","route_name":"第1段","global_order":35},{"name":"春辉兽药服务部","address":"莒新路与文泗路交叉口西北60米","phone":"","category":"医疗保健服务;动物医疗场所;动物医疗场所","area":"","lng":118.780056,"lat":35.264411,"amap_id":"B0KRKS44YO","order":36,"prev_distance_km":7.865,"cumulative_distance_km":135.871,"amap_marker_url":"https://uri.amap.com/marker?position=118.780056,35.264411&name=%E6%98%A5%E8%BE%89%E5%85%BD%E8%8D%AF%E6%9C%8D%E5%8A%A1%E9%83%A8&src=vetmap&coordinate=gaode&callnative=1","route_id":"r1","route_name":"第1段","global_order":36},{"name":"小鲁兽医门诊","address":"筵宾镇驻地","phone":"13953915660","category":"医疗保健服务;动物医疗场所;兽医站","area":"","lng":118.783729,"lat":35.255333,"amap_id":"B0FFFZ6PMX","order":37,"prev_distance_km":1.063,"cumulative_distance_km":136.934,"amap_marker_url":"https://uri.amap.com/marker?position=118.783729,35.255333&name=%E5%B0%8F%E9%B2%81%E5%85%BD%E5%8C%BB%E9%97%A8%E8%AF%8A&src=vetmap&coordinate=gaode&callnative=1","route_id":"r1","route_name":"第1段","global_order":37},{"name":"店头社区动物卫生室","address":"涝坡镇西店头村","phone":"0539-7847129","category":"医疗保健服务;动物医疗场所;宠物诊所","area":"","lng":118.880527,"lat":35.282051,"amap_id":"B0FFKBQEZV","order":38,"prev_distance_km":9.276,"cumulative_distance_km":146.211,"amap_marker_url":"https://uri.amap.com/marker?position=118.880527,35.282051&name=%E5%BA%97%E5%A4%B4%E7%A4%BE%E5%8C%BA%E5%8A%A8%E7%89%A9%E5%8D%AB%E7%94%9F%E5%AE%A4&src=vetmap&coordinate=gaode&callnative=1","route_id":"r1","route_name":"第1段","global_order":38},{"name":"牧强动物服务中心","address":"牧山书院东侧","phone":"","category":"医疗保健服务;动物医疗场所;宠物诊所","area":"","lng":118.935036,"lat":35.300246,"amap_id":"B0JB9L2SN5","order":39,"prev_distance_km":5.345,"cumulative_distance_km":151.556,"amap_marker_url":"https://uri.amap.com/marker?position=118.935036,35.300246&name=%E7%89%A7%E5%BC%BA%E5%8A%A8%E7%89%A9%E6%9C%8D%E5%8A%A1%E4%B8%AD%E5%BF%83&src=vetmap&coordinate=gaode&callnative=1","route_id":"r1","route_name":"第1段","global_order":39},{"name":"小吴兽医门诊","address":"高家柳沟文化大院","phone":"15020373719","category":"医疗保健服务;动物医疗场所;兽医站","area":"","lng":118.989349,"lat":35.270066,"amap_id":"B0FFK5AFLS","order":40,"prev_distance_km":5.964,"cumulative_distance_km":157.519,"amap_marker_url":"https://uri.amap.com/marker?position=118.989349,35.270066&name=%E5%B0%8F%E5%90%B4%E5%85%BD%E5%8C%BB%E9%97%A8%E8%AF%8A&src=vetmap&coordinate=gaode&callnative=1","route_id":"r1","route_name":"第1段","global_order":40},{"name":"文疃镇兽医站","address":"甲子山医院北侧90米","phone":"18854956967","category":"医疗保健服务;动物医疗场所;兽医站","area":"","lng":119.041452,"lat":35.337218,"amap_id":"B0K6M6DIRC","order":41,"prev_distance_km":8.838,"cumulative_distance_km":166.358,"amap_marker_url":"https://uri.amap.com/marker?position=119.041452,35.337218&name=%E6%96%87%E7%96%83%E9%95%87%E5%85%BD%E5%8C%BB%E7%AB%99&src=vetmap&coordinate=gaode&callnative=1","route_id":"r1","route_name":"第1段","global_order":41}]}