{"summary":{"id":"d00370","province":"山东省","city":"济宁市","district":"兖州区","count":11,"route_count":1,"max_route_clinics":11,"total_distance_km":11.375,"coordinate_system":"GCJ-02 / Amap","generated_at":"2026-05-08 19:42:13"},"routes":[{"id":"r1","name":"第1段","count":11,"total_distance_km":11.375,"rows":[{"name":"益心宠物医院","address":"冀州路88号华勤锦绣城西南门66号商铺","phone":"19157595666","category":"医疗保健服务;动物医疗场所;宠物诊所","area":"","lng":116.775408,"lat":35.551253,"amap_id":"B0K1XM40DG","order":1,"prev_distance_km":0.0,"cumulative_distance_km":0.0,"amap_marker_url":"https://uri.amap.com/marker?position=116.775408,35.551253&name=%E7%9B%8A%E5%BF%83%E5%AE%A0%E7%89%A9%E5%8C%BB%E9%99%A2&src=vetmap&coordinate=gaode&callnative=1","route_id":"r1","route_name":"第1段"},{"name":"宏博宠物门诊","address":"九州中路海情康城","phone":"13853785626","category":"医疗保健服务;动物医疗场所;宠物诊所","area":"","lng":116.790095,"lat":35.549144,"amap_id":"B0FFJT886T","order":2,"prev_distance_km":1.349,"cumulative_distance_km":1.349,"amap_marker_url":"https://uri.amap.com/marker?position=116.790095,35.549144&name=%E5%AE%8F%E5%8D%9A%E5%AE%A0%E7%89%A9%E9%97%A8%E8%AF%8A&src=vetmap&coordinate=gaode&callnative=1","route_id":"r1","route_name":"第1段"},{"name":"兖州宠康动物医院","address":"龙桥街道君临城市花园小区东门南51号商铺","phone":"13518677425;18453774466","category":"医疗保健服务;动物医疗场所;宠物诊所","area":"","lng":116.794192,"lat":35.554913,"amap_id":"B0LU1ZEG5C","order":3,"prev_distance_km":0.741,"cumulative_distance_km":2.09,"amap_marker_url":"https://uri.amap.com/marker?position=116.794192,35.554913&name=%E5%85%96%E5%B7%9E%E5%AE%A0%E5%BA%B7%E5%8A%A8%E7%89%A9%E5%8C%BB%E9%99%A2&src=vetmap&coordinate=gaode&callnative=1","route_id":"r1","route_name":"第1段"},{"name":"康美宠物诊所(327国道店)","address":"北外环城路金鑫玻璃厂红绿灯西200米路南(327国道)","phone":"13188801240","category":"医疗保健服务;动物医疗场所;宠物诊所","area":"","lng":116.804432,"lat":35.577172,"amap_id":"B02190BE98","order":4,"prev_distance_km":2.643,"cumulative_distance_km":4.733,"amap_marker_url":"https://uri.amap.com/marker?position=116.804432,35.577172&name=%E5%BA%B7%E7%BE%8E%E5%AE%A0%E7%89%A9%E8%AF%8A%E6%89%80%28327%E5%9B%BD%E9%81%93%E5%BA%97%29&src=vetmap&coordinate=gaode&callnative=1","route_id":"r1","route_name":"第1段"},{"name":"时光宠物诊所","address":"龙桥街道旧关社区9号街道","phone":"15020759845","category":"医疗保健服务;动物医疗场所;宠物诊所","area":"","lng":116.810979,"lat":35.557861,"amap_id":"B0GR4AIIQ2","order":5,"prev_distance_km":2.227,"cumulative_distance_km":6.96,"amap_marker_url":"https://uri.amap.com/marker?position=116.810979,35.557861&name=%E6%97%B6%E5%85%89%E5%AE%A0%E7%89%A9%E8%AF%8A%E6%89%80&src=vetmap&coordinate=gaode&callnative=1","route_id":"r1","route_name":"第1段"},{"name":"联宠动物医院(兖州分院)","address":"龙桥商贸路东龙桥北路","phone":"13705371190","category":"医疗保健服务;动物医疗场所;宠物诊所","area":"","lng":116.815557,"lat":35.551045,"amap_id":"B0LGCHTV6Y","order":6,"prev_distance_km":0.864,"cumulative_distance_km":7.824,"amap_marker_url":"https://uri.amap.com/marker?position=116.815557,35.551045&name=%E8%81%94%E5%AE%A0%E5%8A%A8%E7%89%A9%E5%8C%BB%E9%99%A2%28%E5%85%96%E5%B7%9E%E5%88%86%E9%99%A2%29&src=vetmap&coordinate=gaode&callnative=1","route_id":"r1","route_name":"第1段"},{"name":"宠爱","address":"中山东路与韦园北街交叉口西100米","phone":"","category":"医疗保健服务;动物医疗场所;动物医疗场所|购物服务;专卖店;宠物用品店","area":"鼓楼","lng":116.829075,"lat":35.550525,"amap_id":"B0L2BULNX4","order":7,"prev_distance_km":1.224,"cumulative_distance_km":9.048,"amap_marker_url":"https://uri.amap.com/marker?position=116.829075,35.550525&name=%E5%AE%A0%E7%88%B1&src=vetmap&coordinate=gaode&callnative=1","route_id":"r1","route_name":"第1段"},{"name":"宠物门诊","address":"东桥南路352号","phone":"13665473386","category":"医疗保健服务;动物医疗场所;宠物诊所","area":"鼓楼","lng":116.833581,"lat":35.54313,"amap_id":"B0FFGA3GG2","order":8,"prev_distance_km":0.918,"cumulative_distance_km":9.966,"amap_marker_url":"https://uri.amap.com/marker?position=116.833581,35.543130&name=%E5%AE%A0%E7%89%A9%E9%97%A8%E8%AF%8A&src=vetmap&coordinate=gaode&callnative=1","route_id":"r1","route_name":"第1段"},{"name":"达康宠物门诊(南白衣堂街)","address":"健康路与中御桥南路交叉口","phone":"13465789059","category":"医疗保健服务;动物医疗场所;宠物诊所","area":"鼓楼","lng":116.826664,"lat":35.543899,"amap_id":"B0FFFGTMWM","order":9,"prev_distance_km":0.632,"cumulative_distance_km":10.598,"amap_marker_url":"https://uri.amap.com/marker?position=116.826664,35.543899&name=%E8%BE%BE%E5%BA%B7%E5%AE%A0%E7%89%A9%E9%97%A8%E8%AF%8A%28%E5%8D%97%E7%99%BD%E8%A1%A3%E5%A0%82%E8%A1%97%29&src=vetmap&coordinate=gaode&callnative=1","route_id":"r1","route_name":"第1段"},{"name":"兖州博爱宠物医院","address":"南护城河路与西御桥南路交叉口西南100米","phone":"","category":"医疗保健服务;动物医疗场所;宠物诊所","area":"","lng":116.821789,"lat":35.538369,"amap_id":"B0KGCUSFHW","order":10,"prev_distance_km":0.757,"cumulative_distance_km":11.354,"amap_marker_url":"https://uri.amap.com/marker?position=116.821789,35.538369&name=%E5%85%96%E5%B7%9E%E5%8D%9A%E7%88%B1%E5%AE%A0%E7%89%A9%E5%8C%BB%E9%99%A2&src=vetmap&coordinate=gaode&callnative=1","route_id":"r1","route_name":"第1段"},{"name":"兖州博尚宠物门诊","address":"南护城河路","phone":"","category":"医疗保健服务;动物医疗场所;宠物诊所","area":"","lng":116.821684,"lat":35.538209,"amap_id":"B0I2RDQVPZ","order":11,"prev_distance_km":0.02,"cumulative_distance_km":11.375,"amap_marker_url":"https://uri.amap.com/marker?position=116.821684,35.538209&name=%E5%85%96%E5%B7%9E%E5%8D%9A%E5%B0%9A%E5%AE%A0%E7%89%A9%E9%97%A8%E8%AF%8A&src=vetmap&coordinate=gaode&callnative=1","route_id":"r1","route_name":"第1段"}]}],"rows":[{"name":"益心宠物医院","address":"冀州路88号华勤锦绣城西南门66号商铺","phone":"19157595666","category":"医疗保健服务;动物医疗场所;宠物诊所","area":"","lng":116.775408,"lat":35.551253,"amap_id":"B0K1XM40DG","order":1,"prev_distance_km":0.0,"cumulative_distance_km":0.0,"amap_marker_url":"https://uri.amap.com/marker?position=116.775408,35.551253&name=%E7%9B%8A%E5%BF%83%E5%AE%A0%E7%89%A9%E5%8C%BB%E9%99%A2&src=vetmap&coordinate=gaode&callnative=1","route_id":"r1","route_name":"第1段","global_order":1},{"name":"宏博宠物门诊","address":"九州中路海情康城","phone":"13853785626","category":"医疗保健服务;动物医疗场所;宠物诊所","area":"","lng":116.790095,"lat":35.549144,"amap_id":"B0FFJT886T","order":2,"prev_distance_km":1.349,"cumulative_distance_km":1.349,"amap_marker_url":"https://uri.amap.com/marker?position=116.790095,35.549144&name=%E5%AE%8F%E5%8D%9A%E5%AE%A0%E7%89%A9%E9%97%A8%E8%AF%8A&src=vetmap&coordinate=gaode&callnative=1","route_id":"r1","route_name":"第1段","global_order":2},{"name":"兖州宠康动物医院","address":"龙桥街道君临城市花园小区东门南51号商铺","phone":"13518677425;18453774466","category":"医疗保健服务;动物医疗场所;宠物诊所","area":"","lng":116.794192,"lat":35.554913,"amap_id":"B0LU1ZEG5C","order":3,"prev_distance_km":0.741,"cumulative_distance_km":2.09,"amap_marker_url":"https://uri.amap.com/marker?position=116.794192,35.554913&name=%E5%85%96%E5%B7%9E%E5%AE%A0%E5%BA%B7%E5%8A%A8%E7%89%A9%E5%8C%BB%E9%99%A2&src=vetmap&coordinate=gaode&callnative=1","route_id":"r1","route_name":"第1段","global_order":3},{"name":"康美宠物诊所(327国道店)","address":"北外环城路金鑫玻璃厂红绿灯西200米路南(327国道)","phone":"13188801240","category":"医疗保健服务;动物医疗场所;宠物诊所","area":"","lng":116.804432,"lat":35.577172,"amap_id":"B02190BE98","order":4,"prev_distance_km":2.643,"cumulative_distance_km":4.733,"amap_marker_url":"https://uri.amap.com/marker?position=116.804432,35.577172&name=%E5%BA%B7%E7%BE%8E%E5%AE%A0%E7%89%A9%E8%AF%8A%E6%89%80%28327%E5%9B%BD%E9%81%93%E5%BA%97%29&src=vetmap&coordinate=gaode&callnative=1","route_id":"r1","route_name":"第1段","global_order":4},{"name":"时光宠物诊所","address":"龙桥街道旧关社区9号街道","phone":"15020759845","category":"医疗保健服务;动物医疗场所;宠物诊所","area":"","lng":116.810979,"lat":35.557861,"amap_id":"B0GR4AIIQ2","order":5,"prev_distance_km":2.227,"cumulative_distance_km":6.96,"amap_marker_url":"https://uri.amap.com/marker?position=116.810979,35.557861&name=%E6%97%B6%E5%85%89%E5%AE%A0%E7%89%A9%E8%AF%8A%E6%89%80&src=vetmap&coordinate=gaode&callnative=1","route_id":"r1","route_name":"第1段","global_order":5},{"name":"联宠动物医院(兖州分院)","address":"龙桥商贸路东龙桥北路","phone":"13705371190","category":"医疗保健服务;动物医疗场所;宠物诊所","area":"","lng":116.815557,"lat":35.551045,"amap_id":"B0LGCHTV6Y","order":6,"prev_distance_km":0.864,"cumulative_distance_km":7.824,"amap_marker_url":"https://uri.amap.com/marker?position=116.815557,35.551045&name=%E8%81%94%E5%AE%A0%E5%8A%A8%E7%89%A9%E5%8C%BB%E9%99%A2%28%E5%85%96%E5%B7%9E%E5%88%86%E9%99%A2%29&src=vetmap&coordinate=gaode&callnative=1","route_id":"r1","route_name":"第1段","global_order":6},{"name":"宠爱","address":"中山东路与韦园北街交叉口西100米","phone":"","category":"医疗保健服务;动物医疗场所;动物医疗场所|购物服务;专卖店;宠物用品店","area":"鼓楼","lng":116.829075,"lat":35.550525,"amap_id":"B0L2BULNX4","order":7,"prev_distance_km":1.224,"cumulative_distance_km":9.048,"amap_marker_url":"https://uri.amap.com/marker?position=116.829075,35.550525&name=%E5%AE%A0%E7%88%B1&src=vetmap&coordinate=gaode&callnative=1","route_id":"r1","route_name":"第1段","global_order":7},{"name":"宠物门诊","address":"东桥南路352号","phone":"13665473386","category":"医疗保健服务;动物医疗场所;宠物诊所","area":"鼓楼","lng":116.833581,"lat":35.54313,"amap_id":"B0FFGA3GG2","order":8,"prev_distance_km":0.918,"cumulative_distance_km":9.966,"amap_marker_url":"https://uri.amap.com/marker?position=116.833581,35.543130&name=%E5%AE%A0%E7%89%A9%E9%97%A8%E8%AF%8A&src=vetmap&coordinate=gaode&callnative=1","route_id":"r1","route_name":"第1段","global_order":8},{"name":"达康宠物门诊(南白衣堂街)","address":"健康路与中御桥南路交叉口","phone":"13465789059","category":"医疗保健服务;动物医疗场所;宠物诊所","area":"鼓楼","lng":116.826664,"lat":35.543899,"amap_id":"B0FFFGTMWM","order":9,"prev_distance_km":0.632,"cumulative_distance_km":10.598,"amap_marker_url":"https://uri.amap.com/marker?position=116.826664,35.543899&name=%E8%BE%BE%E5%BA%B7%E5%AE%A0%E7%89%A9%E9%97%A8%E8%AF%8A%28%E5%8D%97%E7%99%BD%E8%A1%A3%E5%A0%82%E8%A1%97%29&src=vetmap&coordinate=gaode&callnative=1","route_id":"r1","route_name":"第1段","global_order":9},{"name":"兖州博爱宠物医院","address":"南护城河路与西御桥南路交叉口西南100米","phone":"","category":"医疗保健服务;动物医疗场所;宠物诊所","area":"","lng":116.821789,"lat":35.538369,"amap_id":"B0KGCUSFHW","order":10,"prev_distance_km":0.757,"cumulative_distance_km":11.354,"amap_marker_url":"https://uri.amap.com/marker?position=116.821789,35.538369&name=%E5%85%96%E5%B7%9E%E5%8D%9A%E7%88%B1%E5%AE%A0%E7%89%A9%E5%8C%BB%E9%99%A2&src=vetmap&coordinate=gaode&callnative=1","route_id":"r1","route_name":"第1段","global_order":10},{"name":"兖州博尚宠物门诊","address":"南护城河路","phone":"","category":"医疗保健服务;动物医疗场所;宠物诊所","area":"","lng":116.821684,"lat":35.538209,"amap_id":"B0I2RDQVPZ","order":11,"prev_distance_km":0.02,"cumulative_distance_km":11.375,"amap_marker_url":"https://uri.amap.com/marker?position=116.821684,35.538209&name=%E5%85%96%E5%B7%9E%E5%8D%9A%E5%B0%9A%E5%AE%A0%E7%89%A9%E9%97%A8%E8%AF%8A&src=vetmap&coordinate=gaode&callnative=1","route_id":"r1","route_name":"第1段","global_order":11}]}