{"summary":{"id":"d00364","province":"山东省","city":"济南市","district":"济阳区","count":14,"total_distance_km":70.781,"coordinate_system":"GCJ-02 / Amap","generated_at":"2026-05-07 19:56:18"},"rows":[{"name":"保真兽药","address":"诚信购物广场(王圈店)西侧70米","phone":"","category":"购物服务;购物相关场所;购物相关场所|医疗保健服务;动物医疗场所;动物医疗场所","area":"","lng":117.394125,"lat":37.105225,"amap_id":"B0M6XURC8O","order":1,"prev_distance_km":0.0,"cumulative_distance_km":0.0,"amap_marker_url":"https://uri.amap.com/marker?position=117.394125,37.105225&name=%E4%BF%9D%E7%9C%9F%E5%85%BD%E8%8D%AF&src=vetmap&coordinate=gaode&callnative=1"},{"name":"牧盛源兽医服务部","address":"西大街","phone":"13105312056","category":"医疗保健服务;动物医疗场所;兽医站","area":"","lng":117.381004,"lat":37.161984,"amap_id":"B0G0YBLB25","order":2,"prev_distance_km":6.418,"cumulative_distance_km":6.418,"amap_marker_url":"https://uri.amap.com/marker?position=117.381004,37.161984&name=%E7%89%A7%E7%9B%9B%E6%BA%90%E5%85%BD%E5%8C%BB%E6%9C%8D%E5%8A%A1%E9%83%A8&src=vetmap&coordinate=gaode&callnative=1"},{"name":"兽医门诊","address":"丰盛街与仁风街交叉口西200米","phone":"0531-84401621","category":"医疗保健服务;动物医疗场所;兽医站","area":"","lng":117.379133,"lat":37.162093,"amap_id":"B0FFHLVFCJ","order":3,"prev_distance_km":0.166,"cumulative_distance_km":6.584,"amap_marker_url":"https://uri.amap.com/marker?position=117.379133,37.162093&name=%E5%85%BD%E5%8C%BB%E9%97%A8%E8%AF%8A&src=vetmap&coordinate=gaode&callnative=1"},{"name":"仁风镇畜牧兽医工作站","address":"仁风镇239省道","phone":"","category":"医疗保健服务;动物医疗场所;兽医站","area":"","lng":117.364985,"lat":37.156349,"amap_id":"B021307LYO","order":4,"prev_distance_km":1.407,"cumulative_distance_km":7.991,"amap_marker_url":"https://uri.amap.com/marker?position=117.364985,37.156349&name=%E4%BB%81%E9%A3%8E%E9%95%87%E7%95%9C%E7%89%A7%E5%85%BD%E5%8C%BB%E5%B7%A5%E4%BD%9C%E7%AB%99&src=vetmap&coordinate=gaode&callnative=1"},{"name":"济阳县曲堤镇畜牧兽医工作站","address":"曲堤镇西街村民委员会西南侧260米","phone":"","category":"医疗保健服务;动物医疗场所;兽医站","area":"","lng":117.256053,"lat":37.100874,"amap_id":"B0GK27KLES","order":5,"prev_distance_km":11.459,"cumulative_distance_km":19.45,"amap_marker_url":"https://uri.amap.com/marker?position=117.256053,37.100874&name=%E6%B5%8E%E9%98%B3%E5%8E%BF%E6%9B%B2%E5%A0%A4%E9%95%87%E7%95%9C%E7%89%A7%E5%85%BD%E5%8C%BB%E5%B7%A5%E4%BD%9C%E7%AB%99&src=vetmap&coordinate=gaode&callnative=1"},{"name":"济牲源中兽医诊所","address":"稻香街63号","phone":"13675315967","category":"医疗保健服务;动物医疗场所;兽医站","area":"","lng":117.229736,"lat":37.041921,"amap_id":"B0IULRR78R","order":6,"prev_distance_km":6.959,"cumulative_distance_km":26.409,"amap_marker_url":"https://uri.amap.com/marker?position=117.229736,37.041921&name=%E6%B5%8E%E7%89%B2%E6%BA%90%E4%B8%AD%E5%85%BD%E5%8C%BB%E8%AF%8A%E6%89%80&src=vetmap&coordinate=gaode&callnative=1"},{"name":"济南市济阳区子敬动物诊所","address":"子敬动物诊所","phone":"18954537666","category":"医疗保健服务;动物医疗场所;兽医站","area":"","lng":117.211429,"lat":37.00287,"amap_id":"B0KR6MQO57","order":7,"prev_distance_km":4.636,"cumulative_distance_km":31.045,"amap_marker_url":"https://uri.amap.com/marker?position=117.211429,37.002870&name=%E6%B5%8E%E5%8D%97%E5%B8%82%E6%B5%8E%E9%98%B3%E5%8C%BA%E5%AD%90%E6%95%AC%E5%8A%A8%E7%89%A9%E8%AF%8A%E6%89%80&src=vetmap&coordinate=gaode&callnative=1"},{"name":"鲁康宠物医院(济阳店)","address":"新世纪小区西门西侧纬二路209号","phone":"13188875553;13969165297","category":"医疗保健服务;动物医疗场所;宠物诊所","area":"济北","lng":117.189058,"lat":36.976811,"amap_id":"B0FFFVHB37","order":8,"prev_distance_km":3.513,"cumulative_distance_km":34.559,"amap_marker_url":"https://uri.amap.com/marker?position=117.189058,36.976811&name=%E9%B2%81%E5%BA%B7%E5%AE%A0%E7%89%A9%E5%8C%BB%E9%99%A2%28%E6%B5%8E%E9%98%B3%E5%BA%97%29&src=vetmap&coordinate=gaode&callnative=1"},{"name":"小野宠爱健康生活馆","address":"城市之星3-商05","phone":"15628855329","category":"医疗保健服务;动物医疗场所;动物医疗场所","area":"济北","lng":117.180507,"lat":36.978334,"amap_id":"B0KKFZKEDK","order":9,"prev_distance_km":0.778,"cumulative_distance_km":35.337,"amap_marker_url":"https://uri.amap.com/marker?position=117.180507,36.978334&name=%E5%B0%8F%E9%87%8E%E5%AE%A0%E7%88%B1%E5%81%A5%E5%BA%B7%E7%94%9F%E6%B4%BB%E9%A6%86&src=vetmap&coordinate=gaode&callnative=1"},{"name":"济阳区爱宠宠物诊疗馆(禧福·凤凰城东区店)","address":"济北永安路西侧禧福凤凰城东区21-5号","phone":"15954910137","category":"医疗保健服务;动物医疗场所;宠物诊所","area":"济北","lng":117.171188,"lat":36.965507,"amap_id":"B0FFLFDQRW","order":10,"prev_distance_km":1.649,"cumulative_distance_km":36.986,"amap_marker_url":"https://uri.amap.com/marker?position=117.171188,36.965507&name=%E6%B5%8E%E9%98%B3%E5%8C%BA%E7%88%B1%E5%AE%A0%E5%AE%A0%E7%89%A9%E8%AF%8A%E7%96%97%E9%A6%86%28%E7%A6%A7%E7%A6%8F%C2%B7%E5%87%A4%E5%87%B0%E5%9F%8E%E4%B8%9C%E5%8C%BA%E5%BA%97%29&src=vetmap&coordinate=gaode&callnative=1"},{"name":"蓝精灵宠物医院","address":"济北街道盛世翡翠郡2号楼商业网点2","phone":"0531-81177900;15005318120;18763410120","category":"医疗保健服务;动物医疗场所;宠物诊所","area":"济北","lng":117.170635,"lat":36.96776,"amap_id":"B0GK3STFNX","order":11,"prev_distance_km":0.255,"cumulative_distance_km":37.241,"amap_marker_url":"https://uri.amap.com/marker?position=117.170635,36.967760&name=%E8%93%9D%E7%B2%BE%E7%81%B5%E5%AE%A0%E7%89%A9%E5%8C%BB%E9%99%A2&src=vetmap&coordinate=gaode&callnative=1"},{"name":"晴天宠物医院","address":"汇鑫路与银安街交叉口东240米","phone":"13153166119","category":"医疗保健服务;动物医疗场所;宠物诊所","area":"济北","lng":117.170705,"lat":36.971178,"amap_id":"B0J37MGVYW","order":12,"prev_distance_km":0.38,"cumulative_distance_km":37.622,"amap_marker_url":"https://uri.amap.com/marker?position=117.170705,36.971178&name=%E6%99%B4%E5%A4%A9%E5%AE%A0%E7%89%A9%E5%8C%BB%E9%99%A2&src=vetmap&coordinate=gaode&callnative=1"},{"name":"唐庙兽医站","address":"海洋加油站北侧80米","phone":"","category":"医疗保健服务;动物医疗场所;兽医站","area":"","lng":117.112025,"lat":37.093393,"amap_id":"B0FFKS1ZOG","order":13,"prev_distance_km":14.554,"cumulative_distance_km":52.175,"amap_marker_url":"https://uri.amap.com/marker?position=117.112025,37.093393&name=%E5%94%90%E5%BA%99%E5%85%BD%E5%8C%BB%E7%AB%99&src=vetmap&coordinate=gaode&callnative=1"},{"name":"太平街道办事处畜牧兽医站","address":"永盛街与秦圆路交叉口西北50米","phone":"13698638355","category":"医疗保健服务;动物医疗场所;兽医站","area":"","lng":116.956361,"lat":36.981331,"amap_id":"B0FFIS4RPG","order":14,"prev_distance_km":18.606,"cumulative_distance_km":70.781,"amap_marker_url":"https://uri.amap.com/marker?position=116.956361,36.981331&name=%E5%A4%AA%E5%B9%B3%E8%A1%97%E9%81%93%E5%8A%9E%E4%BA%8B%E5%A4%84%E7%95%9C%E7%89%A7%E5%85%BD%E5%8C%BB%E7%AB%99&src=vetmap&coordinate=gaode&callnative=1"}]}