{"summary":{"id":"d00360","province":"山东省","city":"济南市","district":"天桥区","count":25,"route_count":1,"max_route_clinics":25,"total_distance_km":25.162,"coordinate_system":"GCJ-02 / Amap","generated_at":"2026-05-08 19:42:10"},"routes":[{"id":"r1","name":"第1段","count":25,"total_distance_km":25.162,"rows":[{"name":"致宠宠物门诊","address":"东宇大街力高澜湖郡东门116商铺","phone":"18678298050","category":"医疗保健服务;动物医疗场所;宠物诊所","area":"","lng":116.947573,"lat":36.700595,"amap_id":"B0H0PHG2Z7","order":1,"prev_distance_km":0.0,"cumulative_distance_km":0.0,"amap_marker_url":"https://uri.amap.com/marker?position=116.947573,36.700595&name=%E8%87%B4%E5%AE%A0%E5%AE%A0%E7%89%A9%E9%97%A8%E8%AF%8A&src=vetmap&coordinate=gaode&callnative=1","route_id":"r1","route_name":"第1段"},{"name":"优伴宠物(香港国际店)","address":"香港国际9号楼1单元","phone":"15964525775;18866839899","category":"医疗保健服务;动物医疗场所;宠物诊所","area":"","lng":116.954968,"lat":36.68373,"amap_id":"B0FFKDCEIL","order":2,"prev_distance_km":1.988,"cumulative_distance_km":1.988,"amap_marker_url":"https://uri.amap.com/marker?position=116.954968,36.683730&name=%E4%BC%98%E4%BC%B4%E5%AE%A0%E7%89%A9%28%E9%A6%99%E6%B8%AF%E5%9B%BD%E9%99%85%E5%BA%97%29&src=vetmap&coordinate=gaode&callnative=1","route_id":"r1","route_name":"第1段"},{"name":"夏氏禽病诊所","address":"天桥涂敷管道厂西南门西北70米","phone":"","category":"医疗保健服务;动物医疗场所;兽医站","area":"无影山","lng":116.962125,"lat":36.682225,"amap_id":"B0M6G9Q0KM","order":3,"prev_distance_km":0.66,"cumulative_distance_km":2.648,"amap_marker_url":"https://uri.amap.com/marker?position=116.962125,36.682225&name=%E5%A4%8F%E6%B0%8F%E7%A6%BD%E7%97%85%E8%AF%8A%E6%89%80&src=vetmap&coordinate=gaode&callnative=1","route_id":"r1","route_name":"第1段"},{"name":"佳宁宠物门诊","address":"堤口路177-28号(八里桥地铁站B口步行390米)","phone":"0531-87977911;15863163019","category":"医疗保健服务;动物医疗场所;宠物诊所","area":"八里桥","lng":116.962881,"lat":36.672156,"amap_id":"B0FFMC7NWO","order":4,"prev_distance_km":1.122,"cumulative_distance_km":3.769,"amap_marker_url":"https://uri.amap.com/marker?position=116.962881,36.672156&name=%E4%BD%B3%E5%AE%81%E5%AE%A0%E7%89%A9%E9%97%A8%E8%AF%8A&src=vetmap&coordinate=gaode&callnative=1","route_id":"r1","route_name":"第1段"},{"name":"宠物美容","address":"万盛北街与堤口路辅路交叉口东南180米","phone":"","category":"医疗保健服务;动物医疗场所;宠物诊所","area":"宝华街","lng":116.973554,"lat":36.671807,"amap_id":"B0L2290F04","order":5,"prev_distance_km":0.953,"cumulative_distance_km":4.722,"amap_marker_url":"https://uri.amap.com/marker?position=116.973554,36.671807&name=%E5%AE%A0%E7%89%A9%E7%BE%8E%E5%AE%B9&src=vetmap&coordinate=gaode&callnative=1","route_id":"r1","route_name":"第1段"},{"name":"心仪动物医院·犬猫全科·绝育中心(天桥院)","address":"堤口路98号鲁铁花样年华1-3号楼公建1-109号","phone":"18363037015","category":"医疗保健服务;动物医疗场所;宠物诊所","area":"宝华街","lng":116.974452,"lat":36.673659,"amap_id":"B0J34Z2VAN","order":6,"prev_distance_km":0.221,"cumulative_distance_km":4.943,"amap_marker_url":"https://uri.amap.com/marker?position=116.974452,36.673659&name=%E5%BF%83%E4%BB%AA%E5%8A%A8%E7%89%A9%E5%8C%BB%E9%99%A2%C2%B7%E7%8A%AC%E7%8C%AB%E5%85%A8%E7%A7%91%C2%B7%E7%BB%9D%E8%82%B2%E4%B8%AD%E5%BF%83%28%E5%A4%A9%E6%A1%A5%E9%99%A2%29&src=vetmap&coordinate=gaode&callnative=1","route_id":"r1","route_name":"第1段"},{"name":"金美迪宠物医院","address":"堤口路137-15号","phone":"15588855788","category":"医疗保健服务;动物医疗场所;宠物诊所","area":"无影山","lng":116.97872,"lat":36.676317,"amap_id":"B0FFGYX1J4","order":7,"prev_distance_km":0.482,"cumulative_distance_km":5.425,"amap_marker_url":"https://uri.amap.com/marker?position=116.978720,36.676317&name=%E9%87%91%E7%BE%8E%E8%BF%AA%E5%AE%A0%E7%89%A9%E5%8C%BB%E9%99%A2&src=vetmap&coordinate=gaode&callnative=1","route_id":"r1","route_name":"第1段"},{"name":"瑞派·雷欧宠物医院(怡佳分院)","address":"宝华街名泉春晓东门南侧6号楼底商","phone":"0531-88629269","category":"医疗保健服务;动物医疗场所;宠物诊所","area":"宝华街","lng":116.986563,"lat":36.674683,"amap_id":"B0KDFX8DS3","order":8,"prev_distance_km":0.723,"cumulative_distance_km":6.147,"amap_marker_url":"https://uri.amap.com/marker?position=116.986563,36.674683&name=%E7%91%9E%E6%B4%BE%C2%B7%E9%9B%B7%E6%AC%A7%E5%AE%A0%E7%89%A9%E5%8C%BB%E9%99%A2%28%E6%80%A1%E4%BD%B3%E5%88%86%E9%99%A2%29&src=vetmap&coordinate=gaode&callnative=1","route_id":"r1","route_name":"第1段"},{"name":"瑞派雷欧宠物医院(无影山总院)","address":"无影山路100-2号(纬六路高架桥北口东北角)","phone":"0531-58587120","category":"医疗保健服务;动物医疗场所;宠物诊所","area":"无影山","lng":116.978136,"lat":36.681131,"amap_id":"B0G2TC69LS","order":9,"prev_distance_km":1.039,"cumulative_distance_km":7.186,"amap_marker_url":"https://uri.amap.com/marker?position=116.978136,36.681131&name=%E7%91%9E%E6%B4%BE%E9%9B%B7%E6%AC%A7%E5%AE%A0%E7%89%A9%E5%8C%BB%E9%99%A2%28%E6%97%A0%E5%BD%B1%E5%B1%B1%E6%80%BB%E9%99%A2%29&src=vetmap&coordinate=gaode&callnative=1","route_id":"r1","route_name":"第1段"},{"name":"宠乐康动物医院","address":"汽车厂东路与西工商河路交叉口西120米","phone":"15589908601;15966317407","category":"医疗保健服务;动物医疗场所;宠物诊所","area":"无影山","lng":116.98803,"lat":36.687968,"amap_id":"B0K13M2SNU","order":10,"prev_distance_km":1.165,"cumulative_distance_km":8.351,"amap_marker_url":"https://uri.amap.com/marker?position=116.988030,36.687968&name=%E5%AE%A0%E4%B9%90%E5%BA%B7%E5%8A%A8%E7%89%A9%E5%8C%BB%E9%99%A2&src=vetmap&coordinate=gaode&callnative=1","route_id":"r1","route_name":"第1段"},{"name":"卓尔宠物门诊(工人新村店)","address":"工人新村北村街道办事处西门旁","phone":"13953107022","category":"医疗保健服务;动物医疗场所;宠物诊所","area":"无影山","lng":116.99149,"lat":36.696369,"amap_id":"B021305RZJ","order":11,"prev_distance_km":0.984,"cumulative_distance_km":9.335,"amap_marker_url":"https://uri.amap.com/marker?position=116.991490,36.696369&name=%E5%8D%93%E5%B0%94%E5%AE%A0%E7%89%A9%E9%97%A8%E8%AF%8A%28%E5%B7%A5%E4%BA%BA%E6%96%B0%E6%9D%91%E5%BA%97%29&src=vetmap&coordinate=gaode&callnative=1","route_id":"r1","route_name":"第1段"},{"name":"赵大夫兽医门诊","address":"泺口街道济泺路9号泺口4路车终点站路西","phone":"13864078780","category":"医疗保健服务;动物医疗场所;兽医站","area":"泺口","lng":116.993759,"lat":36.719174,"amap_id":"B021307XF7","order":12,"prev_distance_km":2.544,"cumulative_distance_km":11.878,"amap_marker_url":"https://uri.amap.com/marker?position=116.993759,36.719174&name=%E8%B5%B5%E5%A4%A7%E5%A4%AB%E5%85%BD%E5%8C%BB%E9%97%A8%E8%AF%8A&src=vetmap&coordinate=gaode&callnative=1","route_id":"r1","route_name":"第1段"},{"name":"张萍专业宠物美容","address":"新城小区19号楼","phone":"","category":"医疗保健服务;动物医疗场所;宠物诊所","area":"清河北路","lng":117.013774,"lat":36.7083,"amap_id":"B0FFH19Z3Z","order":13,"prev_distance_km":2.155,"cumulative_distance_km":14.034,"amap_marker_url":"https://uri.amap.com/marker?position=117.013774,36.708300&name=%E5%BC%A0%E8%90%8D%E4%B8%93%E4%B8%9A%E5%AE%A0%E7%89%A9%E7%BE%8E%E5%AE%B9&src=vetmap&coordinate=gaode&callnative=1","route_id":"r1","route_name":"第1段"},{"name":"它屿宠物美容(云锦湖店)","address":"新黄路1224号","phone":"15552522651","category":"医疗保健服务;动物医疗场所;宠物诊所","area":"清河北路","lng":117.028558,"lat":36.706383,"amap_id":"B0M6KSCC5U","order":14,"prev_distance_km":1.335,"cumulative_distance_km":15.369,"amap_marker_url":"https://uri.amap.com/marker?position=117.028558,36.706383&name=%E5%AE%83%E5%B1%BF%E5%AE%A0%E7%89%A9%E7%BE%8E%E5%AE%B9%28%E4%BA%91%E9%94%A6%E6%B9%96%E5%BA%97%29&src=vetmap&coordinate=gaode&callnative=1","route_id":"r1","route_name":"第1段"},{"name":"东朔动物医院","address":"恒大滨河左岸4号公寓","phone":"13075340298","category":"医疗保健服务;动物医疗场所;宠物诊所","area":"清河北路","lng":117.028759,"lat":36.706486,"amap_id":"B0K0MUF33L","order":15,"prev_distance_km":0.021,"cumulative_distance_km":15.39,"amap_marker_url":"https://uri.amap.com/marker?position=117.028759,36.706486&name=%E4%B8%9C%E6%9C%94%E5%8A%A8%E7%89%A9%E5%8C%BB%E9%99%A2&src=vetmap&coordinate=gaode&callnative=1","route_id":"r1","route_name":"第1段"},{"name":"鸿博宠物诊所","address":"海尔云世界天玺东门南侧S2-103","phone":"15905418689","category":"医疗保健服务;动物医疗场所;宠物诊所","area":"北园","lng":117.033462,"lat":36.69952,"amap_id":"B0G1LK4MMU","order":16,"prev_distance_km":0.881,"cumulative_distance_km":16.271,"amap_marker_url":"https://uri.amap.com/marker?position=117.033462,36.699520&name=%E9%B8%BF%E5%8D%9A%E5%AE%A0%E7%89%A9%E8%AF%8A%E6%89%80&src=vetmap&coordinate=gaode&callnative=1","route_id":"r1","route_name":"第1段"},{"name":"萌济堂宠物医院","address":"海尔云世界天玺南区底商","phone":"18366138120","category":"医疗保健服务;动物医疗场所;宠物诊所","area":"北园","lng":117.031375,"lat":36.696825,"amap_id":"B0LAXUYZ6U","order":17,"prev_distance_km":0.353,"cumulative_distance_km":16.623,"amap_marker_url":"https://uri.amap.com/marker?position=117.031375,36.696825&name=%E8%90%8C%E6%B5%8E%E5%A0%82%E5%AE%A0%E7%89%A9%E5%8C%BB%E9%99%A2&src=vetmap&coordinate=gaode&callnative=1","route_id":"r1","route_name":"第1段"},{"name":"安欣宠物医院·24h急诊·犬猫全科","address":"水屯北路111号海尔云世界滟澜公馆二区西门南侧安欣宠物医院","phone":"17562779208","category":"医疗保健服务;动物医疗场所;宠物诊所","area":"北园","lng":117.022046,"lat":36.698138,"amap_id":"B0LA3RFYKJ","order":18,"prev_distance_km":0.844,"cumulative_distance_km":17.468,"amap_marker_url":"https://uri.amap.com/marker?position=117.022046,36.698138&name=%E5%AE%89%E6%AC%A3%E5%AE%A0%E7%89%A9%E5%8C%BB%E9%99%A2%C2%B724h%E6%80%A5%E8%AF%8A%C2%B7%E7%8A%AC%E7%8C%AB%E5%85%A8%E7%A7%91&src=vetmap&coordinate=gaode&callnative=1","route_id":"r1","route_name":"第1段"},{"name":"季康动物医院","address":"西泺河路35-21号","phone":"15562691683","category":"医疗保健服务;动物医疗场所;宠物诊所","area":"北园","lng":117.019978,"lat":36.692062,"amap_id":"B0KA49EF75","order":19,"prev_distance_km":0.7,"cumulative_distance_km":18.168,"amap_marker_url":"https://uri.amap.com/marker?position=117.019978,36.692062&name=%E5%AD%A3%E5%BA%B7%E5%8A%A8%E7%89%A9%E5%8C%BB%E9%99%A2&src=vetmap&coordinate=gaode&callnative=1","route_id":"r1","route_name":"第1段"},{"name":"瑞派雷欧宠物医院·猫科·心脏·外科(标山店)","address":"凤凰山路与标山路路口凤凰阁C区1-2-106","phone":"0531-58977790","category":"医疗保健服务;动物医疗场所;宠物诊所","area":"标山","lng":117.005647,"lat":36.693687,"amap_id":"B0JRN77W3K","order":20,"prev_distance_km":1.29,"cumulative_distance_km":19.459,"amap_marker_url":"https://uri.amap.com/marker?position=117.005647,36.693687&name=%E7%91%9E%E6%B4%BE%E9%9B%B7%E6%AC%A7%E5%AE%A0%E7%89%A9%E5%8C%BB%E9%99%A2%C2%B7%E7%8C%AB%E7%A7%91%C2%B7%E5%BF%83%E8%84%8F%C2%B7%E5%A4%96%E7%A7%91%28%E6%A0%87%E5%B1%B1%E5%BA%97%29&src=vetmap&coordinate=gaode&callnative=1","route_id":"r1","route_name":"第1段"},{"name":"东宠动物医院","address":"东工商河路12-6号","phone":"0531-85951681","category":"医疗保健服务;动物医疗场所;宠物诊所","area":"北园","lng":117.001238,"lat":36.690447,"amap_id":"B021307VEX","order":21,"prev_distance_km":0.533,"cumulative_distance_km":19.992,"amap_marker_url":"https://uri.amap.com/marker?position=117.001238,36.690447&name=%E4%B8%9C%E5%AE%A0%E5%8A%A8%E7%89%A9%E5%8C%BB%E9%99%A2&src=vetmap&coordinate=gaode&callnative=1","route_id":"r1","route_name":"第1段"},{"name":"济南怡犬宠物医院(新菜市街店)","address":"纬北路街道新菜市街78号","phone":"0531-88111234","category":"医疗保健服务;动物医疗场所;宠物诊所","area":"三孔桥","lng":117.005328,"lat":36.676693,"amap_id":"B021305EIW","order":22,"prev_distance_km":1.572,"cumulative_distance_km":21.564,"amap_marker_url":"https://uri.amap.com/marker?position=117.005328,36.676693&name=%E6%B5%8E%E5%8D%97%E6%80%A1%E7%8A%AC%E5%AE%A0%E7%89%A9%E5%8C%BB%E9%99%A2%28%E6%96%B0%E8%8F%9C%E5%B8%82%E8%A1%97%E5%BA%97%29&src=vetmap&coordinate=gaode&callnative=1","route_id":"r1","route_name":"第1段"},{"name":"美联众合动物医院(济安新区店)","address":"天桥区济安街济安新区3-2-105-1","phone":"0531-82909120","category":"医疗保健服务;动物医疗场所;宠物诊所","area":"","lng":117.009815,"lat":36.673075,"amap_id":"B0FFM18JNT","order":23,"prev_distance_km":0.567,"cumulative_distance_km":22.132,"amap_marker_url":"https://uri.amap.com/marker?position=117.009815,36.673075&name=%E7%BE%8E%E8%81%94%E4%BC%97%E5%90%88%E5%8A%A8%E7%89%A9%E5%8C%BB%E9%99%A2%28%E6%B5%8E%E5%AE%89%E6%96%B0%E5%8C%BA%E5%BA%97%29&src=vetmap&coordinate=gaode&callnative=1","route_id":"r1","route_name":"第1段"},{"name":"渤康宠物诊所","address":"济安新区顺河西街51号","phone":"0531-86915209;13589059056","category":"医疗保健服务;动物医疗场所;宠物诊所","area":"","lng":117.01018,"lat":36.673038,"amap_id":"B0FFIJYCQG","order":24,"prev_distance_km":0.033,"cumulative_distance_km":22.164,"amap_marker_url":"https://uri.amap.com/marker?position=117.010180,36.673038&name=%E6%B8%A4%E5%BA%B7%E5%AE%A0%E7%89%A9%E8%AF%8A%E6%89%80&src=vetmap&coordinate=gaode&callnative=1","route_id":"r1","route_name":"第1段"},{"name":"广济宠物诊所","address":"明湖东路霞侣市96号","phone":"13325123812","category":"医疗保健服务;动物医疗场所;宠物诊所","area":"东关","lng":117.04289,"lat":36.679246,"amap_id":"B0FFLNLA7X","order":25,"prev_distance_km":2.998,"cumulative_distance_km":25.162,"amap_marker_url":"https://uri.amap.com/marker?position=117.042890,36.679246&name=%E5%B9%BF%E6%B5%8E%E5%AE%A0%E7%89%A9%E8%AF%8A%E6%89%80&src=vetmap&coordinate=gaode&callnative=1","route_id":"r1","route_name":"第1段"}]}],"rows":[{"name":"致宠宠物门诊","address":"东宇大街力高澜湖郡东门116商铺","phone":"18678298050","category":"医疗保健服务;动物医疗场所;宠物诊所","area":"","lng":116.947573,"lat":36.700595,"amap_id":"B0H0PHG2Z7","order":1,"prev_distance_km":0.0,"cumulative_distance_km":0.0,"amap_marker_url":"https://uri.amap.com/marker?position=116.947573,36.700595&name=%E8%87%B4%E5%AE%A0%E5%AE%A0%E7%89%A9%E9%97%A8%E8%AF%8A&src=vetmap&coordinate=gaode&callnative=1","route_id":"r1","route_name":"第1段","global_order":1},{"name":"优伴宠物(香港国际店)","address":"香港国际9号楼1单元","phone":"15964525775;18866839899","category":"医疗保健服务;动物医疗场所;宠物诊所","area":"","lng":116.954968,"lat":36.68373,"amap_id":"B0FFKDCEIL","order":2,"prev_distance_km":1.988,"cumulative_distance_km":1.988,"amap_marker_url":"https://uri.amap.com/marker?position=116.954968,36.683730&name=%E4%BC%98%E4%BC%B4%E5%AE%A0%E7%89%A9%28%E9%A6%99%E6%B8%AF%E5%9B%BD%E9%99%85%E5%BA%97%29&src=vetmap&coordinate=gaode&callnative=1","route_id":"r1","route_name":"第1段","global_order":2},{"name":"夏氏禽病诊所","address":"天桥涂敷管道厂西南门西北70米","phone":"","category":"医疗保健服务;动物医疗场所;兽医站","area":"无影山","lng":116.962125,"lat":36.682225,"amap_id":"B0M6G9Q0KM","order":3,"prev_distance_km":0.66,"cumulative_distance_km":2.648,"amap_marker_url":"https://uri.amap.com/marker?position=116.962125,36.682225&name=%E5%A4%8F%E6%B0%8F%E7%A6%BD%E7%97%85%E8%AF%8A%E6%89%80&src=vetmap&coordinate=gaode&callnative=1","route_id":"r1","route_name":"第1段","global_order":3},{"name":"佳宁宠物门诊","address":"堤口路177-28号(八里桥地铁站B口步行390米)","phone":"0531-87977911;15863163019","category":"医疗保健服务;动物医疗场所;宠物诊所","area":"八里桥","lng":116.962881,"lat":36.672156,"amap_id":"B0FFMC7NWO","order":4,"prev_distance_km":1.122,"cumulative_distance_km":3.769,"amap_marker_url":"https://uri.amap.com/marker?position=116.962881,36.672156&name=%E4%BD%B3%E5%AE%81%E5%AE%A0%E7%89%A9%E9%97%A8%E8%AF%8A&src=vetmap&coordinate=gaode&callnative=1","route_id":"r1","route_name":"第1段","global_order":4},{"name":"宠物美容","address":"万盛北街与堤口路辅路交叉口东南180米","phone":"","category":"医疗保健服务;动物医疗场所;宠物诊所","area":"宝华街","lng":116.973554,"lat":36.671807,"amap_id":"B0L2290F04","order":5,"prev_distance_km":0.953,"cumulative_distance_km":4.722,"amap_marker_url":"https://uri.amap.com/marker?position=116.973554,36.671807&name=%E5%AE%A0%E7%89%A9%E7%BE%8E%E5%AE%B9&src=vetmap&coordinate=gaode&callnative=1","route_id":"r1","route_name":"第1段","global_order":5},{"name":"心仪动物医院·犬猫全科·绝育中心(天桥院)","address":"堤口路98号鲁铁花样年华1-3号楼公建1-109号","phone":"18363037015","category":"医疗保健服务;动物医疗场所;宠物诊所","area":"宝华街","lng":116.974452,"lat":36.673659,"amap_id":"B0J34Z2VAN","order":6,"prev_distance_km":0.221,"cumulative_distance_km":4.943,"amap_marker_url":"https://uri.amap.com/marker?position=116.974452,36.673659&name=%E5%BF%83%E4%BB%AA%E5%8A%A8%E7%89%A9%E5%8C%BB%E9%99%A2%C2%B7%E7%8A%AC%E7%8C%AB%E5%85%A8%E7%A7%91%C2%B7%E7%BB%9D%E8%82%B2%E4%B8%AD%E5%BF%83%28%E5%A4%A9%E6%A1%A5%E9%99%A2%29&src=vetmap&coordinate=gaode&callnative=1","route_id":"r1","route_name":"第1段","global_order":6},{"name":"金美迪宠物医院","address":"堤口路137-15号","phone":"15588855788","category":"医疗保健服务;动物医疗场所;宠物诊所","area":"无影山","lng":116.97872,"lat":36.676317,"amap_id":"B0FFGYX1J4","order":7,"prev_distance_km":0.482,"cumulative_distance_km":5.425,"amap_marker_url":"https://uri.amap.com/marker?position=116.978720,36.676317&name=%E9%87%91%E7%BE%8E%E8%BF%AA%E5%AE%A0%E7%89%A9%E5%8C%BB%E9%99%A2&src=vetmap&coordinate=gaode&callnative=1","route_id":"r1","route_name":"第1段","global_order":7},{"name":"瑞派·雷欧宠物医院(怡佳分院)","address":"宝华街名泉春晓东门南侧6号楼底商","phone":"0531-88629269","category":"医疗保健服务;动物医疗场所;宠物诊所","area":"宝华街","lng":116.986563,"lat":36.674683,"amap_id":"B0KDFX8DS3","order":8,"prev_distance_km":0.723,"cumulative_distance_km":6.147,"amap_marker_url":"https://uri.amap.com/marker?position=116.986563,36.674683&name=%E7%91%9E%E6%B4%BE%C2%B7%E9%9B%B7%E6%AC%A7%E5%AE%A0%E7%89%A9%E5%8C%BB%E9%99%A2%28%E6%80%A1%E4%BD%B3%E5%88%86%E9%99%A2%29&src=vetmap&coordinate=gaode&callnative=1","route_id":"r1","route_name":"第1段","global_order":8},{"name":"瑞派雷欧宠物医院(无影山总院)","address":"无影山路100-2号(纬六路高架桥北口东北角)","phone":"0531-58587120","category":"医疗保健服务;动物医疗场所;宠物诊所","area":"无影山","lng":116.978136,"lat":36.681131,"amap_id":"B0G2TC69LS","order":9,"prev_distance_km":1.039,"cumulative_distance_km":7.186,"amap_marker_url":"https://uri.amap.com/marker?position=116.978136,36.681131&name=%E7%91%9E%E6%B4%BE%E9%9B%B7%E6%AC%A7%E5%AE%A0%E7%89%A9%E5%8C%BB%E9%99%A2%28%E6%97%A0%E5%BD%B1%E5%B1%B1%E6%80%BB%E9%99%A2%29&src=vetmap&coordinate=gaode&callnative=1","route_id":"r1","route_name":"第1段","global_order":9},{"name":"宠乐康动物医院","address":"汽车厂东路与西工商河路交叉口西120米","phone":"15589908601;15966317407","category":"医疗保健服务;动物医疗场所;宠物诊所","area":"无影山","lng":116.98803,"lat":36.687968,"amap_id":"B0K13M2SNU","order":10,"prev_distance_km":1.165,"cumulative_distance_km":8.351,"amap_marker_url":"https://uri.amap.com/marker?position=116.988030,36.687968&name=%E5%AE%A0%E4%B9%90%E5%BA%B7%E5%8A%A8%E7%89%A9%E5%8C%BB%E9%99%A2&src=vetmap&coordinate=gaode&callnative=1","route_id":"r1","route_name":"第1段","global_order":10},{"name":"卓尔宠物门诊(工人新村店)","address":"工人新村北村街道办事处西门旁","phone":"13953107022","category":"医疗保健服务;动物医疗场所;宠物诊所","area":"无影山","lng":116.99149,"lat":36.696369,"amap_id":"B021305RZJ","order":11,"prev_distance_km":0.984,"cumulative_distance_km":9.335,"amap_marker_url":"https://uri.amap.com/marker?position=116.991490,36.696369&name=%E5%8D%93%E5%B0%94%E5%AE%A0%E7%89%A9%E9%97%A8%E8%AF%8A%28%E5%B7%A5%E4%BA%BA%E6%96%B0%E6%9D%91%E5%BA%97%29&src=vetmap&coordinate=gaode&callnative=1","route_id":"r1","route_name":"第1段","global_order":11},{"name":"赵大夫兽医门诊","address":"泺口街道济泺路9号泺口4路车终点站路西","phone":"13864078780","category":"医疗保健服务;动物医疗场所;兽医站","area":"泺口","lng":116.993759,"lat":36.719174,"amap_id":"B021307XF7","order":12,"prev_distance_km":2.544,"cumulative_distance_km":11.878,"amap_marker_url":"https://uri.amap.com/marker?position=116.993759,36.719174&name=%E8%B5%B5%E5%A4%A7%E5%A4%AB%E5%85%BD%E5%8C%BB%E9%97%A8%E8%AF%8A&src=vetmap&coordinate=gaode&callnative=1","route_id":"r1","route_name":"第1段","global_order":12},{"name":"张萍专业宠物美容","address":"新城小区19号楼","phone":"","category":"医疗保健服务;动物医疗场所;宠物诊所","area":"清河北路","lng":117.013774,"lat":36.7083,"amap_id":"B0FFH19Z3Z","order":13,"prev_distance_km":2.155,"cumulative_distance_km":14.034,"amap_marker_url":"https://uri.amap.com/marker?position=117.013774,36.708300&name=%E5%BC%A0%E8%90%8D%E4%B8%93%E4%B8%9A%E5%AE%A0%E7%89%A9%E7%BE%8E%E5%AE%B9&src=vetmap&coordinate=gaode&callnative=1","route_id":"r1","route_name":"第1段","global_order":13},{"name":"它屿宠物美容(云锦湖店)","address":"新黄路1224号","phone":"15552522651","category":"医疗保健服务;动物医疗场所;宠物诊所","area":"清河北路","lng":117.028558,"lat":36.706383,"amap_id":"B0M6KSCC5U","order":14,"prev_distance_km":1.335,"cumulative_distance_km":15.369,"amap_marker_url":"https://uri.amap.com/marker?position=117.028558,36.706383&name=%E5%AE%83%E5%B1%BF%E5%AE%A0%E7%89%A9%E7%BE%8E%E5%AE%B9%28%E4%BA%91%E9%94%A6%E6%B9%96%E5%BA%97%29&src=vetmap&coordinate=gaode&callnative=1","route_id":"r1","route_name":"第1段","global_order":14},{"name":"东朔动物医院","address":"恒大滨河左岸4号公寓","phone":"13075340298","category":"医疗保健服务;动物医疗场所;宠物诊所","area":"清河北路","lng":117.028759,"lat":36.706486,"amap_id":"B0K0MUF33L","order":15,"prev_distance_km":0.021,"cumulative_distance_km":15.39,"amap_marker_url":"https://uri.amap.com/marker?position=117.028759,36.706486&name=%E4%B8%9C%E6%9C%94%E5%8A%A8%E7%89%A9%E5%8C%BB%E9%99%A2&src=vetmap&coordinate=gaode&callnative=1","route_id":"r1","route_name":"第1段","global_order":15},{"name":"鸿博宠物诊所","address":"海尔云世界天玺东门南侧S2-103","phone":"15905418689","category":"医疗保健服务;动物医疗场所;宠物诊所","area":"北园","lng":117.033462,"lat":36.69952,"amap_id":"B0G1LK4MMU","order":16,"prev_distance_km":0.881,"cumulative_distance_km":16.271,"amap_marker_url":"https://uri.amap.com/marker?position=117.033462,36.699520&name=%E9%B8%BF%E5%8D%9A%E5%AE%A0%E7%89%A9%E8%AF%8A%E6%89%80&src=vetmap&coordinate=gaode&callnative=1","route_id":"r1","route_name":"第1段","global_order":16},{"name":"萌济堂宠物医院","address":"海尔云世界天玺南区底商","phone":"18366138120","category":"医疗保健服务;动物医疗场所;宠物诊所","area":"北园","lng":117.031375,"lat":36.696825,"amap_id":"B0LAXUYZ6U","order":17,"prev_distance_km":0.353,"cumulative_distance_km":16.623,"amap_marker_url":"https://uri.amap.com/marker?position=117.031375,36.696825&name=%E8%90%8C%E6%B5%8E%E5%A0%82%E5%AE%A0%E7%89%A9%E5%8C%BB%E9%99%A2&src=vetmap&coordinate=gaode&callnative=1","route_id":"r1","route_name":"第1段","global_order":17},{"name":"安欣宠物医院·24h急诊·犬猫全科","address":"水屯北路111号海尔云世界滟澜公馆二区西门南侧安欣宠物医院","phone":"17562779208","category":"医疗保健服务;动物医疗场所;宠物诊所","area":"北园","lng":117.022046,"lat":36.698138,"amap_id":"B0LA3RFYKJ","order":18,"prev_distance_km":0.844,"cumulative_distance_km":17.468,"amap_marker_url":"https://uri.amap.com/marker?position=117.022046,36.698138&name=%E5%AE%89%E6%AC%A3%E5%AE%A0%E7%89%A9%E5%8C%BB%E9%99%A2%C2%B724h%E6%80%A5%E8%AF%8A%C2%B7%E7%8A%AC%E7%8C%AB%E5%85%A8%E7%A7%91&src=vetmap&coordinate=gaode&callnative=1","route_id":"r1","route_name":"第1段","global_order":18},{"name":"季康动物医院","address":"西泺河路35-21号","phone":"15562691683","category":"医疗保健服务;动物医疗场所;宠物诊所","area":"北园","lng":117.019978,"lat":36.692062,"amap_id":"B0KA49EF75","order":19,"prev_distance_km":0.7,"cumulative_distance_km":18.168,"amap_marker_url":"https://uri.amap.com/marker?position=117.019978,36.692062&name=%E5%AD%A3%E5%BA%B7%E5%8A%A8%E7%89%A9%E5%8C%BB%E9%99%A2&src=vetmap&coordinate=gaode&callnative=1","route_id":"r1","route_name":"第1段","global_order":19},{"name":"瑞派雷欧宠物医院·猫科·心脏·外科(标山店)","address":"凤凰山路与标山路路口凤凰阁C区1-2-106","phone":"0531-58977790","category":"医疗保健服务;动物医疗场所;宠物诊所","area":"标山","lng":117.005647,"lat":36.693687,"amap_id":"B0JRN77W3K","order":20,"prev_distance_km":1.29,"cumulative_distance_km":19.459,"amap_marker_url":"https://uri.amap.com/marker?position=117.005647,36.693687&name=%E7%91%9E%E6%B4%BE%E9%9B%B7%E6%AC%A7%E5%AE%A0%E7%89%A9%E5%8C%BB%E9%99%A2%C2%B7%E7%8C%AB%E7%A7%91%C2%B7%E5%BF%83%E8%84%8F%C2%B7%E5%A4%96%E7%A7%91%28%E6%A0%87%E5%B1%B1%E5%BA%97%29&src=vetmap&coordinate=gaode&callnative=1","route_id":"r1","route_name":"第1段","global_order":20},{"name":"东宠动物医院","address":"东工商河路12-6号","phone":"0531-85951681","category":"医疗保健服务;动物医疗场所;宠物诊所","area":"北园","lng":117.001238,"lat":36.690447,"amap_id":"B021307VEX","order":21,"prev_distance_km":0.533,"cumulative_distance_km":19.992,"amap_marker_url":"https://uri.amap.com/marker?position=117.001238,36.690447&name=%E4%B8%9C%E5%AE%A0%E5%8A%A8%E7%89%A9%E5%8C%BB%E9%99%A2&src=vetmap&coordinate=gaode&callnative=1","route_id":"r1","route_name":"第1段","global_order":21},{"name":"济南怡犬宠物医院(新菜市街店)","address":"纬北路街道新菜市街78号","phone":"0531-88111234","category":"医疗保健服务;动物医疗场所;宠物诊所","area":"三孔桥","lng":117.005328,"lat":36.676693,"amap_id":"B021305EIW","order":22,"prev_distance_km":1.572,"cumulative_distance_km":21.564,"amap_marker_url":"https://uri.amap.com/marker?position=117.005328,36.676693&name=%E6%B5%8E%E5%8D%97%E6%80%A1%E7%8A%AC%E5%AE%A0%E7%89%A9%E5%8C%BB%E9%99%A2%28%E6%96%B0%E8%8F%9C%E5%B8%82%E8%A1%97%E5%BA%97%29&src=vetmap&coordinate=gaode&callnative=1","route_id":"r1","route_name":"第1段","global_order":22},{"name":"美联众合动物医院(济安新区店)","address":"天桥区济安街济安新区3-2-105-1","phone":"0531-82909120","category":"医疗保健服务;动物医疗场所;宠物诊所","area":"","lng":117.009815,"lat":36.673075,"amap_id":"B0FFM18JNT","order":23,"prev_distance_km":0.567,"cumulative_distance_km":22.132,"amap_marker_url":"https://uri.amap.com/marker?position=117.009815,36.673075&name=%E7%BE%8E%E8%81%94%E4%BC%97%E5%90%88%E5%8A%A8%E7%89%A9%E5%8C%BB%E9%99%A2%28%E6%B5%8E%E5%AE%89%E6%96%B0%E5%8C%BA%E5%BA%97%29&src=vetmap&coordinate=gaode&callnative=1","route_id":"r1","route_name":"第1段","global_order":23},{"name":"渤康宠物诊所","address":"济安新区顺河西街51号","phone":"0531-86915209;13589059056","category":"医疗保健服务;动物医疗场所;宠物诊所","area":"","lng":117.01018,"lat":36.673038,"amap_id":"B0FFIJYCQG","order":24,"prev_distance_km":0.033,"cumulative_distance_km":22.164,"amap_marker_url":"https://uri.amap.com/marker?position=117.010180,36.673038&name=%E6%B8%A4%E5%BA%B7%E5%AE%A0%E7%89%A9%E8%AF%8A%E6%89%80&src=vetmap&coordinate=gaode&callnative=1","route_id":"r1","route_name":"第1段","global_order":24},{"name":"广济宠物诊所","address":"明湖东路霞侣市96号","phone":"13325123812","category":"医疗保健服务;动物医疗场所;宠物诊所","area":"东关","lng":117.04289,"lat":36.679246,"amap_id":"B0FFLNLA7X","order":25,"prev_distance_km":2.998,"cumulative_distance_km":25.162,"amap_marker_url":"https://uri.amap.com/marker?position=117.042890,36.679246&name=%E5%B9%BF%E6%B5%8E%E5%AE%A0%E7%89%A9%E8%AF%8A%E6%89%80&src=vetmap&coordinate=gaode&callnative=1","route_id":"r1","route_name":"第1段","global_order":25}]}