{"summary":{"id":"d00373","province":"山东省","city":"济宁市","district":"曲阜市","count":9,"total_distance_km":8.26,"coordinate_system":"GCJ-02 / Amap","generated_at":"2026-05-07 19:56:19"},"rows":[{"name":"恩宠","address":"裕隆路与贵仁街交叉口南150米","phone":"15092745671","category":"医疗保健服务;动物医疗场所;宠物诊所","area":"","lng":116.948944,"lat":35.588026,"amap_id":"B0FFJLS0OU","order":1,"prev_distance_km":0.0,"cumulative_distance_km":0.0,"amap_marker_url":"https://uri.amap.com/marker?position=116.948944,35.588026&name=%E6%81%A9%E5%AE%A0&src=vetmap&coordinate=gaode&callnative=1"},{"name":"旺旺宠物医院(天华路店)","address":"天华路中段计生办北","phone":"13563723047","category":"医疗保健服务;动物医疗场所;宠物诊所","area":"","lng":116.975299,"lat":35.585375,"amap_id":"B0FFG6S6PY","order":2,"prev_distance_km":2.401,"cumulative_distance_km":2.401,"amap_marker_url":"https://uri.amap.com/marker?position=116.975299,35.585375&name=%E6%97%BA%E6%97%BA%E5%AE%A0%E7%89%A9%E5%8C%BB%E9%99%A2%28%E5%A4%A9%E5%8D%8E%E8%B7%AF%E5%BA%97%29&src=vetmap&coordinate=gaode&callnative=1"},{"name":"养和动物医院","address":"五福广场","phone":"0537-4489120;15553705556","category":"医疗保健服务;动物医疗场所;宠物诊所","area":"","lng":116.981761,"lat":35.587302,"amap_id":"B0G3JK2EXD","order":3,"prev_distance_km":0.622,"cumulative_distance_km":3.024,"amap_marker_url":"https://uri.amap.com/marker?position=116.981761,35.587302&name=%E5%85%BB%E5%92%8C%E5%8A%A8%E7%89%A9%E5%8C%BB%E9%99%A2&src=vetmap&coordinate=gaode&callnative=1"},{"name":"香香猫咪宠物美容中心","address":"金仓庚商业街12-3号","phone":"15589753357","category":"医疗保健服务;动物医疗场所;宠物诊所","area":"","lng":116.986376,"lat":35.588741,"amap_id":"B0KGUHG27F","order":4,"prev_distance_km":0.447,"cumulative_distance_km":3.471,"amap_marker_url":"https://uri.amap.com/marker?position=116.986376,35.588741&name=%E9%A6%99%E9%A6%99%E7%8C%AB%E5%92%AA%E5%AE%A0%E7%89%A9%E7%BE%8E%E5%AE%B9%E4%B8%AD%E5%BF%83&src=vetmap&coordinate=gaode&callnative=1"},{"name":"老邢宠物门诊","address":"三皇庙街与颜庙街交叉口西150米","phone":"","category":"医疗保健服务;动物医疗场所;宠物诊所","area":"鼓楼街","lng":116.996449,"lat":35.599056,"amap_id":"B0FFGR85FG","order":5,"prev_distance_km":1.465,"cumulative_distance_km":4.935,"amap_marker_url":"https://uri.amap.com/marker?position=116.996449,35.599056&name=%E8%80%81%E9%82%A2%E5%AE%A0%E7%89%A9%E9%97%A8%E8%AF%8A&src=vetmap&coordinate=gaode&callnative=1"},{"name":"天佑宠物医院(粮食局家属院店)","address":"有朋路45号","phone":"13053717120","category":"医疗保健服务;动物医疗场所;宠物诊所","area":"静轩东路","lng":117.002449,"lat":35.588097,"amap_id":"B0G3Y9VLV5","order":6,"prev_distance_km":1.334,"cumulative_distance_km":6.269,"amap_marker_url":"https://uri.amap.com/marker?position=117.002449,35.588097&name=%E5%A4%A9%E4%BD%91%E5%AE%A0%E7%89%A9%E5%8C%BB%E9%99%A2%28%E7%B2%AE%E9%A3%9F%E5%B1%80%E5%AE%B6%E5%B1%9E%E9%99%A2%E5%BA%97%29&src=vetmap&coordinate=gaode&callnative=1"},{"name":"怪兽宠物药房","address":"逵泉路360号沂和园2-125","phone":"","category":"医疗保健服务;动物医疗场所;动物医疗场所","area":"鲁城","lng":117.001033,"lat":35.582409,"amap_id":"B0L6KLQVAT","order":7,"prev_distance_km":0.645,"cumulative_distance_km":6.915,"amap_marker_url":"https://uri.amap.com/marker?position=117.001033,35.582409&name=%E6%80%AA%E5%85%BD%E5%AE%A0%E7%89%A9%E8%8D%AF%E6%88%BF&src=vetmap&coordinate=gaode&callnative=1"},{"name":"安诺可宠物医院","address":"鲁城街道曲成巷","phone":"15154715975","category":"医疗保健服务;动物医疗场所;宠物诊所","area":"","lng":116.999271,"lat":35.582646,"amap_id":"B0LRYSW5YD","order":8,"prev_distance_km":0.162,"cumulative_distance_km":7.076,"amap_marker_url":"https://uri.amap.com/marker?position=116.999271,35.582646&name=%E5%AE%89%E8%AF%BA%E5%8F%AF%E5%AE%A0%E7%89%A9%E5%8C%BB%E9%99%A2&src=vetmap&coordinate=gaode&callnative=1"},{"name":"曲阜市畜牧局门头曲阜市中兴动物医药有限公司","address":"大同路南首路东瑞士苑商业楼10号","phone":"0537-4497483","category":"医疗保健服务;动物医疗场所;宠物诊所","area":"","lng":116.991118,"lat":35.574313,"amap_id":"B0FFMH7OSZ","order":9,"prev_distance_km":1.184,"cumulative_distance_km":8.26,"amap_marker_url":"https://uri.amap.com/marker?position=116.991118,35.574313&name=%E6%9B%B2%E9%98%9C%E5%B8%82%E7%95%9C%E7%89%A7%E5%B1%80%E9%97%A8%E5%A4%B4%E6%9B%B2%E9%98%9C%E5%B8%82%E4%B8%AD%E5%85%B4%E5%8A%A8%E7%89%A9%E5%8C%BB%E8%8D%AF%E6%9C%89%E9%99%90%E5%85%AC%E5%8F%B8&src=vetmap&coordinate=gaode&callnative=1"}]}