{"summary":{"id":"d00353","province":"山东省","city":"泰安市","district":"岱岳区","count":23,"route_count":1,"max_route_clinics":23,"total_distance_km":88.147,"coordinate_system":"GCJ-02 / Amap","generated_at":"2026-05-08 19:42:06"},"routes":[{"id":"r1","name":"第1段","count":23,"total_distance_km":88.147,"rows":[{"name":"兽医门诊","address":"府西路与工业街交叉口南180米","phone":"","category":"医疗保健服务;动物医疗场所;兽医站","area":"","lng":117.247269,"lat":35.960259,"amap_id":"B0K6CZQ35Y","order":1,"prev_distance_km":0.0,"cumulative_distance_km":0.0,"amap_marker_url":"https://uri.amap.com/marker?position=117.247269,35.960259&name=%E5%85%BD%E5%8C%BB%E9%97%A8%E8%AF%8A&src=vetmap&coordinate=gaode&callnative=1","route_id":"r1","route_name":"第1段"},{"name":"川朋医物门诊","address":"利民街与南门街交叉口东北360米","phone":"","category":"医疗保健服务;动物医疗场所;动物医疗场所|医疗保健服务;诊所;诊所","area":"","lng":117.102025,"lat":35.953275,"amap_id":"B0L0ZKDM7A","order":2,"prev_distance_km":13.096,"cumulative_distance_km":13.096,"amap_marker_url":"https://uri.amap.com/marker?position=117.102025,35.953275&name=%E5%B7%9D%E6%9C%8B%E5%8C%BB%E7%89%A9%E9%97%A8%E8%AF%8A&src=vetmap&coordinate=gaode&callnative=1","route_id":"r1","route_name":"第1段"},{"name":"尤尤宠物宠物医院(五矿店)","address":"长城路五矿live生活广场A2-107号","phone":"13011773551","category":"医疗保健服务;动物医疗场所;宠物诊所","area":"","lng":117.102899,"lat":36.120792,"amap_id":"B0I25G8PDV","order":3,"prev_distance_km":18.627,"cumulative_distance_km":31.723,"amap_marker_url":"https://uri.amap.com/marker?position=117.102899,36.120792&name=%E5%B0%A4%E5%B0%A4%E5%AE%A0%E7%89%A9%E5%AE%A0%E7%89%A9%E5%8C%BB%E9%99%A2%28%E4%BA%94%E7%9F%BF%E5%BA%97%29&src=vetmap&coordinate=gaode&callnative=1","route_id":"r1","route_name":"第1段"},{"name":"甜豆宠物美容工作室","address":"北集坡街道五矿商业街E129","phone":"19526731108","category":"医疗保健服务;动物医疗场所;动物医疗场所","area":"","lng":117.103849,"lat":36.121797,"amap_id":"B0LB9RV5R3","order":4,"prev_distance_km":0.141,"cumulative_distance_km":31.864,"amap_marker_url":"https://uri.amap.com/marker?position=117.103849,36.121797&name=%E7%94%9C%E8%B1%86%E5%AE%A0%E7%89%A9%E7%BE%8E%E5%AE%B9%E5%B7%A5%E4%BD%9C%E5%AE%A4&src=vetmap&coordinate=gaode&callnative=1","route_id":"r1","route_name":"第1段"},{"name":"爱宠之家宠物医院(五矿分院)","address":"北集坡街道办事处华新新城4号楼162号","phone":"19853872111","category":"医疗保健服务;动物医疗场所;宠物诊所","area":"","lng":117.098504,"lat":36.123912,"amap_id":"B0K2TSQLLN","order":5,"prev_distance_km":0.535,"cumulative_distance_km":32.399,"amap_marker_url":"https://uri.amap.com/marker?position=117.098504,36.123912&name=%E7%88%B1%E5%AE%A0%E4%B9%8B%E5%AE%B6%E5%AE%A0%E7%89%A9%E5%8C%BB%E9%99%A2%28%E4%BA%94%E7%9F%BF%E5%88%86%E9%99%A2%29&src=vetmap&coordinate=gaode&callnative=1","route_id":"r1","route_name":"第1段"},{"name":"泰宠康宠物医院(泰安店)","address":"华新新城49号","phone":"18653895033","category":"医疗保健服务;动物医疗场所;宠物诊所","area":"","lng":117.09901,"lat":36.124542,"amap_id":"B0FFHMWS5D","order":6,"prev_distance_km":0.084,"cumulative_distance_km":32.482,"amap_marker_url":"https://uri.amap.com/marker?position=117.099010,36.124542&name=%E6%B3%B0%E5%AE%A0%E5%BA%B7%E5%AE%A0%E7%89%A9%E5%8C%BB%E9%99%A2%28%E6%B3%B0%E5%AE%89%E5%BA%97%29&src=vetmap&coordinate=gaode&callnative=1","route_id":"r1","route_name":"第1段"},{"name":"贝嘉美宠物(爱琴海店)","address":"粥店街道泰安老街开元大厦1-107","phone":"17753820702","category":"医疗保健服务;动物医疗场所;动物医疗场所","area":"","lng":117.067867,"lat":36.164838,"amap_id":"B0LDT55E8U","order":7,"prev_distance_km":5.282,"cumulative_distance_km":37.764,"amap_marker_url":"https://uri.amap.com/marker?position=117.067867,36.164838&name=%E8%B4%9D%E5%98%89%E7%BE%8E%E5%AE%A0%E7%89%A9%28%E7%88%B1%E7%90%B4%E6%B5%B7%E5%BA%97%29&src=vetmap&coordinate=gaode&callnative=1","route_id":"r1","route_name":"第1段"},{"name":"爱宠之家宠物医院(泰安转诊中心)","address":"粥店街道御驾新苑C区17号楼沿街商铺1-101室","phone":"18353898111","category":"医疗保健服务;动物医疗场所;宠物诊所","area":"","lng":117.074889,"lat":36.173372,"amap_id":"B0JKD93AW2","order":8,"prev_distance_km":1.139,"cumulative_distance_km":38.903,"amap_marker_url":"https://uri.amap.com/marker?position=117.074889,36.173372&name=%E7%88%B1%E5%AE%A0%E4%B9%8B%E5%AE%B6%E5%AE%A0%E7%89%A9%E5%8C%BB%E9%99%A2%28%E6%B3%B0%E5%AE%89%E8%BD%AC%E8%AF%8A%E4%B8%AD%E5%BF%83%29&src=vetmap&coordinate=gaode&callnative=1","route_id":"r1","route_name":"第1段"},{"name":"欣成宠物医院(云集店)","address":"泮河西路17号泮河小镇","phone":"18764878859","category":"医疗保健服务;动物医疗场所;宠物诊所","area":"","lng":117.05332,"lat":36.175457,"amap_id":"B0J2L70DID","order":9,"prev_distance_km":1.95,"cumulative_distance_km":40.853,"amap_marker_url":"https://uri.amap.com/marker?position=117.053320,36.175457&name=%E6%AC%A3%E6%88%90%E5%AE%A0%E7%89%A9%E5%8C%BB%E9%99%A2%28%E4%BA%91%E9%9B%86%E5%BA%97%29&src=vetmap&coordinate=gaode&callnative=1","route_id":"r1","route_name":"第1段"},{"name":"宠晴宠物","address":"粥店街道东岳鑫城7号楼1-2层104商铺东侧间","phone":"15065843792","category":"医疗保健服务;动物医疗场所;动物医疗场所","area":"","lng":117.041714,"lat":36.169665,"amap_id":"B0KKGSCN6Z","order":10,"prev_distance_km":1.225,"cumulative_distance_km":42.078,"amap_marker_url":"https://uri.amap.com/marker?position=117.041714,36.169665&name=%E5%AE%A0%E6%99%B4%E5%AE%A0%E7%89%A9&src=vetmap&coordinate=gaode&callnative=1","route_id":"r1","route_name":"第1段"},{"name":"心仪动物医院·山东农业大学教学(岱岳店)","address":"高铁南街高铁前路交叉口华新新干线1-102商铺","phone":"0538-8573599;15660466419","category":"医疗保健服务;动物医疗场所;宠物诊所","area":"","lng":117.041378,"lat":36.171004,"amap_id":"B0J27UA5RB","order":11,"prev_distance_km":0.152,"cumulative_distance_km":42.23,"amap_marker_url":"https://uri.amap.com/marker?position=117.041378,36.171004&name=%E5%BF%83%E4%BB%AA%E5%8A%A8%E7%89%A9%E5%8C%BB%E9%99%A2%C2%B7%E5%B1%B1%E4%B8%9C%E5%86%9C%E4%B8%9A%E5%A4%A7%E5%AD%A6%E6%95%99%E5%AD%A6%28%E5%B2%B1%E5%B2%B3%E5%BA%97%29&src=vetmap&coordinate=gaode&callnative=1","route_id":"r1","route_name":"第1段"},{"name":"欣成宠物医院","address":"财兴街96-12号","phone":"15949819222","category":"医疗保健服务;动物医疗场所;宠物诊所","area":"","lng":117.038576,"lat":36.181999,"amap_id":"B0IKAHOEBS","order":12,"prev_distance_km":1.248,"cumulative_distance_km":43.478,"amap_marker_url":"https://uri.amap.com/marker?position=117.038576,36.181999&name=%E6%AC%A3%E6%88%90%E5%AE%A0%E7%89%A9%E5%8C%BB%E9%99%A2&src=vetmap&coordinate=gaode&callnative=1","route_id":"r1","route_name":"第1段"},{"name":"凯信宠物医院","address":"开元路8-2号","phone":"0538-8577120;13044008833","category":"医疗保健服务;动物医疗场所;宠物诊所","area":"","lng":117.04218,"lat":36.181167,"amap_id":"B0FFJEQ8PA","order":13,"prev_distance_km":0.336,"cumulative_distance_km":43.814,"amap_marker_url":"https://uri.amap.com/marker?position=117.042180,36.181167&name=%E5%87%AF%E4%BF%A1%E5%AE%A0%E7%89%A9%E5%8C%BB%E9%99%A2&src=vetmap&coordinate=gaode&callnative=1","route_id":"r1","route_name":"第1段"},{"name":"泰晟宠物诊所","address":"华伟·清华苑北门旁","phone":"19853881882","category":"医疗保健服务;动物医疗场所;宠物诊所","area":"","lng":117.046866,"lat":36.179815,"amap_id":"B0KUKR552N","order":14,"prev_distance_km":0.447,"cumulative_distance_km":44.261,"amap_marker_url":"https://uri.amap.com/marker?position=117.046866,36.179815&name=%E6%B3%B0%E6%99%9F%E5%AE%A0%E7%89%A9%E8%AF%8A%E6%89%80&src=vetmap&coordinate=gaode&callnative=1","route_id":"r1","route_name":"第1段"},{"name":"初心宠物医院(鲁商中心店)","address":"粥店街道鲁商中心致远街S8-116","phone":"","category":"医疗保健服务;动物医疗场所;宠物诊所","area":"","lng":117.048601,"lat":36.179845,"amap_id":"B0K6A5IL7R","order":15,"prev_distance_km":0.156,"cumulative_distance_km":44.417,"amap_marker_url":"https://uri.amap.com/marker?position=117.048601,36.179845&name=%E5%88%9D%E5%BF%83%E5%AE%A0%E7%89%A9%E5%8C%BB%E9%99%A2%28%E9%B2%81%E5%95%86%E4%B8%AD%E5%BF%83%E5%BA%97%29&src=vetmap&coordinate=gaode&callnative=1","route_id":"r1","route_name":"第1段"},{"name":"酷奇宠物诊所","address":"乐园街130号月季花园小区北门西邻沿街商铺","phone":"0538-6266958","category":"医疗保健服务;动物医疗场所;宠物诊所","area":"长城路","lng":117.069894,"lat":36.191824,"amap_id":"B0FFL1OFEG","order":16,"prev_distance_km":2.329,"cumulative_distance_km":46.746,"amap_marker_url":"https://uri.amap.com/marker?position=117.069894,36.191824&name=%E9%85%B7%E5%A5%87%E5%AE%A0%E7%89%A9%E8%AF%8A%E6%89%80&src=vetmap&coordinate=gaode&callnative=1","route_id":"r1","route_name":"第1段"},{"name":"圣宠哆吉宠物诊所","address":"苹果园小区南门9-03","phone":"18764878000","category":"医疗保健服务;动物医疗场所;宠物诊所","area":"长城路","lng":117.068754,"lat":36.193536,"amap_id":"B0LBA7J8GH","order":17,"prev_distance_km":0.216,"cumulative_distance_km":46.962,"amap_marker_url":"https://uri.amap.com/marker?position=117.068754,36.193536&name=%E5%9C%A3%E5%AE%A0%E5%93%86%E5%90%89%E5%AE%A0%E7%89%A9%E8%AF%8A%E6%89%80&src=vetmap&coordinate=gaode&callnative=1","route_id":"r1","route_name":"第1段"},{"name":"它它宠物医院","address":"粥店货场路69-20","phone":"17260542313","category":"医疗保健服务;动物医疗场所;宠物诊所","area":"长城路","lng":117.067219,"lat":36.198397,"amap_id":"B0J3YSYUXT","order":18,"prev_distance_km":0.558,"cumulative_distance_km":47.52,"amap_marker_url":"https://uri.amap.com/marker?position=117.067219,36.198397&name=%E5%AE%83%E5%AE%83%E5%AE%A0%E7%89%A9%E5%8C%BB%E9%99%A2&src=vetmap&coordinate=gaode&callnative=1","route_id":"r1","route_name":"第1段"},{"name":"周阳宠物医院(国贸大厦店)","address":"长城西路6号货场路北头中国光大银行东18米","phone":"13954810120","category":"医疗保健服务;动物医疗场所;宠物诊所","area":"长城路","lng":117.0697,"lat":36.20013,"amap_id":"B0K3CCAZUX","order":19,"prev_distance_km":0.294,"cumulative_distance_km":47.814,"amap_marker_url":"https://uri.amap.com/marker?position=117.069700,36.200130&name=%E5%91%A8%E9%98%B3%E5%AE%A0%E7%89%A9%E5%8C%BB%E9%99%A2%28%E5%9B%BD%E8%B4%B8%E5%A4%A7%E5%8E%A6%E5%BA%97%29&src=vetmap&coordinate=gaode&callnative=1","route_id":"r1","route_name":"第1段"},{"name":"山口兽医站","address":"金山御都东门旁","phone":"","category":"医疗保健服务;动物医疗场所;兽医站","area":"","lng":117.272129,"lat":36.238332,"amap_id":"B0FFFZK4GS","order":20,"prev_distance_km":18.65,"cumulative_distance_km":66.464,"amap_marker_url":"https://uri.amap.com/marker?position=117.272129,36.238332&name=%E5%B1%B1%E5%8F%A3%E5%85%BD%E5%8C%BB%E7%AB%99&src=vetmap&coordinate=gaode&callnative=1","route_id":"r1","route_name":"第1段"},{"name":"牧康畜牧兽医服务站","address":"祝阳工商所西门旁","phone":"","category":"医疗保健服务;动物医疗场所;兽医站","area":"","lng":117.34266,"lat":36.246996,"amap_id":"B0JA9AINSN","order":21,"prev_distance_km":6.398,"cumulative_distance_km":72.862,"amap_marker_url":"https://uri.amap.com/marker?position=117.342660,36.246996&name=%E7%89%A7%E5%BA%B7%E7%95%9C%E7%89%A7%E5%85%BD%E5%8C%BB%E6%9C%8D%E5%8A%A1%E7%AB%99&src=vetmap&coordinate=gaode&callnative=1","route_id":"r1","route_name":"第1段"},{"name":"下里兽医站门诊","address":"上太河酒水批发东南侧","phone":"","category":"医疗保健服务;动物医疗场所;兽医站","area":"","lng":117.348898,"lat":36.3297,"amap_id":"B0G0XSXN8D","order":22,"prev_distance_km":9.213,"cumulative_distance_km":82.076,"amap_marker_url":"https://uri.amap.com/marker?position=117.348898,36.329700&name=%E4%B8%8B%E9%87%8C%E5%85%BD%E5%8C%BB%E7%AB%99%E9%97%A8%E8%AF%8A&src=vetmap&coordinate=gaode&callnative=1","route_id":"r1","route_name":"第1段"},{"name":"泰安市岱岳区下港乡畜牧兽医站","address":"下港乡","phone":"","category":"医疗保健服务;动物医疗场所;兽医站","area":"","lng":117.283441,"lat":36.343889,"amap_id":"B021A02DET","order":23,"prev_distance_km":6.072,"cumulative_distance_km":88.147,"amap_marker_url":"https://uri.amap.com/marker?position=117.283441,36.343889&name=%E6%B3%B0%E5%AE%89%E5%B8%82%E5%B2%B1%E5%B2%B3%E5%8C%BA%E4%B8%8B%E6%B8%AF%E4%B9%A1%E7%95%9C%E7%89%A7%E5%85%BD%E5%8C%BB%E7%AB%99&src=vetmap&coordinate=gaode&callnative=1","route_id":"r1","route_name":"第1段"}]}],"rows":[{"name":"兽医门诊","address":"府西路与工业街交叉口南180米","phone":"","category":"医疗保健服务;动物医疗场所;兽医站","area":"","lng":117.247269,"lat":35.960259,"amap_id":"B0K6CZQ35Y","order":1,"prev_distance_km":0.0,"cumulative_distance_km":0.0,"amap_marker_url":"https://uri.amap.com/marker?position=117.247269,35.960259&name=%E5%85%BD%E5%8C%BB%E9%97%A8%E8%AF%8A&src=vetmap&coordinate=gaode&callnative=1","route_id":"r1","route_name":"第1段","global_order":1},{"name":"川朋医物门诊","address":"利民街与南门街交叉口东北360米","phone":"","category":"医疗保健服务;动物医疗场所;动物医疗场所|医疗保健服务;诊所;诊所","area":"","lng":117.102025,"lat":35.953275,"amap_id":"B0L0ZKDM7A","order":2,"prev_distance_km":13.096,"cumulative_distance_km":13.096,"amap_marker_url":"https://uri.amap.com/marker?position=117.102025,35.953275&name=%E5%B7%9D%E6%9C%8B%E5%8C%BB%E7%89%A9%E9%97%A8%E8%AF%8A&src=vetmap&coordinate=gaode&callnative=1","route_id":"r1","route_name":"第1段","global_order":2},{"name":"尤尤宠物宠物医院(五矿店)","address":"长城路五矿live生活广场A2-107号","phone":"13011773551","category":"医疗保健服务;动物医疗场所;宠物诊所","area":"","lng":117.102899,"lat":36.120792,"amap_id":"B0I25G8PDV","order":3,"prev_distance_km":18.627,"cumulative_distance_km":31.723,"amap_marker_url":"https://uri.amap.com/marker?position=117.102899,36.120792&name=%E5%B0%A4%E5%B0%A4%E5%AE%A0%E7%89%A9%E5%AE%A0%E7%89%A9%E5%8C%BB%E9%99%A2%28%E4%BA%94%E7%9F%BF%E5%BA%97%29&src=vetmap&coordinate=gaode&callnative=1","route_id":"r1","route_name":"第1段","global_order":3},{"name":"甜豆宠物美容工作室","address":"北集坡街道五矿商业街E129","phone":"19526731108","category":"医疗保健服务;动物医疗场所;动物医疗场所","area":"","lng":117.103849,"lat":36.121797,"amap_id":"B0LB9RV5R3","order":4,"prev_distance_km":0.141,"cumulative_distance_km":31.864,"amap_marker_url":"https://uri.amap.com/marker?position=117.103849,36.121797&name=%E7%94%9C%E8%B1%86%E5%AE%A0%E7%89%A9%E7%BE%8E%E5%AE%B9%E5%B7%A5%E4%BD%9C%E5%AE%A4&src=vetmap&coordinate=gaode&callnative=1","route_id":"r1","route_name":"第1段","global_order":4},{"name":"爱宠之家宠物医院(五矿分院)","address":"北集坡街道办事处华新新城4号楼162号","phone":"19853872111","category":"医疗保健服务;动物医疗场所;宠物诊所","area":"","lng":117.098504,"lat":36.123912,"amap_id":"B0K2TSQLLN","order":5,"prev_distance_km":0.535,"cumulative_distance_km":32.399,"amap_marker_url":"https://uri.amap.com/marker?position=117.098504,36.123912&name=%E7%88%B1%E5%AE%A0%E4%B9%8B%E5%AE%B6%E5%AE%A0%E7%89%A9%E5%8C%BB%E9%99%A2%28%E4%BA%94%E7%9F%BF%E5%88%86%E9%99%A2%29&src=vetmap&coordinate=gaode&callnative=1","route_id":"r1","route_name":"第1段","global_order":5},{"name":"泰宠康宠物医院(泰安店)","address":"华新新城49号","phone":"18653895033","category":"医疗保健服务;动物医疗场所;宠物诊所","area":"","lng":117.09901,"lat":36.124542,"amap_id":"B0FFHMWS5D","order":6,"prev_distance_km":0.084,"cumulative_distance_km":32.482,"amap_marker_url":"https://uri.amap.com/marker?position=117.099010,36.124542&name=%E6%B3%B0%E5%AE%A0%E5%BA%B7%E5%AE%A0%E7%89%A9%E5%8C%BB%E9%99%A2%28%E6%B3%B0%E5%AE%89%E5%BA%97%29&src=vetmap&coordinate=gaode&callnative=1","route_id":"r1","route_name":"第1段","global_order":6},{"name":"贝嘉美宠物(爱琴海店)","address":"粥店街道泰安老街开元大厦1-107","phone":"17753820702","category":"医疗保健服务;动物医疗场所;动物医疗场所","area":"","lng":117.067867,"lat":36.164838,"amap_id":"B0LDT55E8U","order":7,"prev_distance_km":5.282,"cumulative_distance_km":37.764,"amap_marker_url":"https://uri.amap.com/marker?position=117.067867,36.164838&name=%E8%B4%9D%E5%98%89%E7%BE%8E%E5%AE%A0%E7%89%A9%28%E7%88%B1%E7%90%B4%E6%B5%B7%E5%BA%97%29&src=vetmap&coordinate=gaode&callnative=1","route_id":"r1","route_name":"第1段","global_order":7},{"name":"爱宠之家宠物医院(泰安转诊中心)","address":"粥店街道御驾新苑C区17号楼沿街商铺1-101室","phone":"18353898111","category":"医疗保健服务;动物医疗场所;宠物诊所","area":"","lng":117.074889,"lat":36.173372,"amap_id":"B0JKD93AW2","order":8,"prev_distance_km":1.139,"cumulative_distance_km":38.903,"amap_marker_url":"https://uri.amap.com/marker?position=117.074889,36.173372&name=%E7%88%B1%E5%AE%A0%E4%B9%8B%E5%AE%B6%E5%AE%A0%E7%89%A9%E5%8C%BB%E9%99%A2%28%E6%B3%B0%E5%AE%89%E8%BD%AC%E8%AF%8A%E4%B8%AD%E5%BF%83%29&src=vetmap&coordinate=gaode&callnative=1","route_id":"r1","route_name":"第1段","global_order":8},{"name":"欣成宠物医院(云集店)","address":"泮河西路17号泮河小镇","phone":"18764878859","category":"医疗保健服务;动物医疗场所;宠物诊所","area":"","lng":117.05332,"lat":36.175457,"amap_id":"B0J2L70DID","order":9,"prev_distance_km":1.95,"cumulative_distance_km":40.853,"amap_marker_url":"https://uri.amap.com/marker?position=117.053320,36.175457&name=%E6%AC%A3%E6%88%90%E5%AE%A0%E7%89%A9%E5%8C%BB%E9%99%A2%28%E4%BA%91%E9%9B%86%E5%BA%97%29&src=vetmap&coordinate=gaode&callnative=1","route_id":"r1","route_name":"第1段","global_order":9},{"name":"宠晴宠物","address":"粥店街道东岳鑫城7号楼1-2层104商铺东侧间","phone":"15065843792","category":"医疗保健服务;动物医疗场所;动物医疗场所","area":"","lng":117.041714,"lat":36.169665,"amap_id":"B0KKGSCN6Z","order":10,"prev_distance_km":1.225,"cumulative_distance_km":42.078,"amap_marker_url":"https://uri.amap.com/marker?position=117.041714,36.169665&name=%E5%AE%A0%E6%99%B4%E5%AE%A0%E7%89%A9&src=vetmap&coordinate=gaode&callnative=1","route_id":"r1","route_name":"第1段","global_order":10},{"name":"心仪动物医院·山东农业大学教学(岱岳店)","address":"高铁南街高铁前路交叉口华新新干线1-102商铺","phone":"0538-8573599;15660466419","category":"医疗保健服务;动物医疗场所;宠物诊所","area":"","lng":117.041378,"lat":36.171004,"amap_id":"B0J27UA5RB","order":11,"prev_distance_km":0.152,"cumulative_distance_km":42.23,"amap_marker_url":"https://uri.amap.com/marker?position=117.041378,36.171004&name=%E5%BF%83%E4%BB%AA%E5%8A%A8%E7%89%A9%E5%8C%BB%E9%99%A2%C2%B7%E5%B1%B1%E4%B8%9C%E5%86%9C%E4%B8%9A%E5%A4%A7%E5%AD%A6%E6%95%99%E5%AD%A6%28%E5%B2%B1%E5%B2%B3%E5%BA%97%29&src=vetmap&coordinate=gaode&callnative=1","route_id":"r1","route_name":"第1段","global_order":11},{"name":"欣成宠物医院","address":"财兴街96-12号","phone":"15949819222","category":"医疗保健服务;动物医疗场所;宠物诊所","area":"","lng":117.038576,"lat":36.181999,"amap_id":"B0IKAHOEBS","order":12,"prev_distance_km":1.248,"cumulative_distance_km":43.478,"amap_marker_url":"https://uri.amap.com/marker?position=117.038576,36.181999&name=%E6%AC%A3%E6%88%90%E5%AE%A0%E7%89%A9%E5%8C%BB%E9%99%A2&src=vetmap&coordinate=gaode&callnative=1","route_id":"r1","route_name":"第1段","global_order":12},{"name":"凯信宠物医院","address":"开元路8-2号","phone":"0538-8577120;13044008833","category":"医疗保健服务;动物医疗场所;宠物诊所","area":"","lng":117.04218,"lat":36.181167,"amap_id":"B0FFJEQ8PA","order":13,"prev_distance_km":0.336,"cumulative_distance_km":43.814,"amap_marker_url":"https://uri.amap.com/marker?position=117.042180,36.181167&name=%E5%87%AF%E4%BF%A1%E5%AE%A0%E7%89%A9%E5%8C%BB%E9%99%A2&src=vetmap&coordinate=gaode&callnative=1","route_id":"r1","route_name":"第1段","global_order":13},{"name":"泰晟宠物诊所","address":"华伟·清华苑北门旁","phone":"19853881882","category":"医疗保健服务;动物医疗场所;宠物诊所","area":"","lng":117.046866,"lat":36.179815,"amap_id":"B0KUKR552N","order":14,"prev_distance_km":0.447,"cumulative_distance_km":44.261,"amap_marker_url":"https://uri.amap.com/marker?position=117.046866,36.179815&name=%E6%B3%B0%E6%99%9F%E5%AE%A0%E7%89%A9%E8%AF%8A%E6%89%80&src=vetmap&coordinate=gaode&callnative=1","route_id":"r1","route_name":"第1段","global_order":14},{"name":"初心宠物医院(鲁商中心店)","address":"粥店街道鲁商中心致远街S8-116","phone":"","category":"医疗保健服务;动物医疗场所;宠物诊所","area":"","lng":117.048601,"lat":36.179845,"amap_id":"B0K6A5IL7R","order":15,"prev_distance_km":0.156,"cumulative_distance_km":44.417,"amap_marker_url":"https://uri.amap.com/marker?position=117.048601,36.179845&name=%E5%88%9D%E5%BF%83%E5%AE%A0%E7%89%A9%E5%8C%BB%E9%99%A2%28%E9%B2%81%E5%95%86%E4%B8%AD%E5%BF%83%E5%BA%97%29&src=vetmap&coordinate=gaode&callnative=1","route_id":"r1","route_name":"第1段","global_order":15},{"name":"酷奇宠物诊所","address":"乐园街130号月季花园小区北门西邻沿街商铺","phone":"0538-6266958","category":"医疗保健服务;动物医疗场所;宠物诊所","area":"长城路","lng":117.069894,"lat":36.191824,"amap_id":"B0FFL1OFEG","order":16,"prev_distance_km":2.329,"cumulative_distance_km":46.746,"amap_marker_url":"https://uri.amap.com/marker?position=117.069894,36.191824&name=%E9%85%B7%E5%A5%87%E5%AE%A0%E7%89%A9%E8%AF%8A%E6%89%80&src=vetmap&coordinate=gaode&callnative=1","route_id":"r1","route_name":"第1段","global_order":16},{"name":"圣宠哆吉宠物诊所","address":"苹果园小区南门9-03","phone":"18764878000","category":"医疗保健服务;动物医疗场所;宠物诊所","area":"长城路","lng":117.068754,"lat":36.193536,"amap_id":"B0LBA7J8GH","order":17,"prev_distance_km":0.216,"cumulative_distance_km":46.962,"amap_marker_url":"https://uri.amap.com/marker?position=117.068754,36.193536&name=%E5%9C%A3%E5%AE%A0%E5%93%86%E5%90%89%E5%AE%A0%E7%89%A9%E8%AF%8A%E6%89%80&src=vetmap&coordinate=gaode&callnative=1","route_id":"r1","route_name":"第1段","global_order":17},{"name":"它它宠物医院","address":"粥店货场路69-20","phone":"17260542313","category":"医疗保健服务;动物医疗场所;宠物诊所","area":"长城路","lng":117.067219,"lat":36.198397,"amap_id":"B0J3YSYUXT","order":18,"prev_distance_km":0.558,"cumulative_distance_km":47.52,"amap_marker_url":"https://uri.amap.com/marker?position=117.067219,36.198397&name=%E5%AE%83%E5%AE%83%E5%AE%A0%E7%89%A9%E5%8C%BB%E9%99%A2&src=vetmap&coordinate=gaode&callnative=1","route_id":"r1","route_name":"第1段","global_order":18},{"name":"周阳宠物医院(国贸大厦店)","address":"长城西路6号货场路北头中国光大银行东18米","phone":"13954810120","category":"医疗保健服务;动物医疗场所;宠物诊所","area":"长城路","lng":117.0697,"lat":36.20013,"amap_id":"B0K3CCAZUX","order":19,"prev_distance_km":0.294,"cumulative_distance_km":47.814,"amap_marker_url":"https://uri.amap.com/marker?position=117.069700,36.200130&name=%E5%91%A8%E9%98%B3%E5%AE%A0%E7%89%A9%E5%8C%BB%E9%99%A2%28%E5%9B%BD%E8%B4%B8%E5%A4%A7%E5%8E%A6%E5%BA%97%29&src=vetmap&coordinate=gaode&callnative=1","route_id":"r1","route_name":"第1段","global_order":19},{"name":"山口兽医站","address":"金山御都东门旁","phone":"","category":"医疗保健服务;动物医疗场所;兽医站","area":"","lng":117.272129,"lat":36.238332,"amap_id":"B0FFFZK4GS","order":20,"prev_distance_km":18.65,"cumulative_distance_km":66.464,"amap_marker_url":"https://uri.amap.com/marker?position=117.272129,36.238332&name=%E5%B1%B1%E5%8F%A3%E5%85%BD%E5%8C%BB%E7%AB%99&src=vetmap&coordinate=gaode&callnative=1","route_id":"r1","route_name":"第1段","global_order":20},{"name":"牧康畜牧兽医服务站","address":"祝阳工商所西门旁","phone":"","category":"医疗保健服务;动物医疗场所;兽医站","area":"","lng":117.34266,"lat":36.246996,"amap_id":"B0JA9AINSN","order":21,"prev_distance_km":6.398,"cumulative_distance_km":72.862,"amap_marker_url":"https://uri.amap.com/marker?position=117.342660,36.246996&name=%E7%89%A7%E5%BA%B7%E7%95%9C%E7%89%A7%E5%85%BD%E5%8C%BB%E6%9C%8D%E5%8A%A1%E7%AB%99&src=vetmap&coordinate=gaode&callnative=1","route_id":"r1","route_name":"第1段","global_order":21},{"name":"下里兽医站门诊","address":"上太河酒水批发东南侧","phone":"","category":"医疗保健服务;动物医疗场所;兽医站","area":"","lng":117.348898,"lat":36.3297,"amap_id":"B0G0XSXN8D","order":22,"prev_distance_km":9.213,"cumulative_distance_km":82.076,"amap_marker_url":"https://uri.amap.com/marker?position=117.348898,36.329700&name=%E4%B8%8B%E9%87%8C%E5%85%BD%E5%8C%BB%E7%AB%99%E9%97%A8%E8%AF%8A&src=vetmap&coordinate=gaode&callnative=1","route_id":"r1","route_name":"第1段","global_order":22},{"name":"泰安市岱岳区下港乡畜牧兽医站","address":"下港乡","phone":"","category":"医疗保健服务;动物医疗场所;兽医站","area":"","lng":117.283441,"lat":36.343889,"amap_id":"B021A02DET","order":23,"prev_distance_km":6.072,"cumulative_distance_km":88.147,"amap_marker_url":"https://uri.amap.com/marker?position=117.283441,36.343889&name=%E6%B3%B0%E5%AE%89%E5%B8%82%E5%B2%B1%E5%B2%B3%E5%8C%BA%E4%B8%8B%E6%B8%AF%E4%B9%A1%E7%95%9C%E7%89%A7%E5%85%BD%E5%8C%BB%E7%AB%99&src=vetmap&coordinate=gaode&callnative=1","route_id":"r1","route_name":"第1段","global_order":23}]}