{"summary":{"id":"d00339","province":"山东省","city":"德州市","district":"陵城区","count":13,"total_distance_km":60.608,"coordinate_system":"GCJ-02 / Amap","generated_at":"2026-05-07 20:21:46"},"rows":[{"name":"陵县畜牧局张习桥兽医站","address":"糜镇249省道","phone":"13082761688;13969216188","category":"医疗保健服务;动物医疗场所;兽医站","area":"","lng":116.844622,"lat":37.490256,"amap_id":"B0FFG0G1JQ","order":1,"prev_distance_km":0.0,"cumulative_distance_km":0.0,"amap_marker_url":"https://uri.amap.com/marker?position=116.844622,37.490256&name=%E9%99%B5%E5%8E%BF%E7%95%9C%E7%89%A7%E5%B1%80%E5%BC%A0%E4%B9%A0%E6%A1%A5%E5%85%BD%E5%8C%BB%E7%AB%99&src=vetmap&coordinate=gaode&callnative=1"},{"name":"会王兽医门诊","address":"013乡道附近","phone":"","category":"医疗保健服务;动物医疗场所;兽医站","area":"","lng":116.61446,"lat":37.476117,"amap_id":"B0FFG6X5H2","order":2,"prev_distance_km":20.37,"cumulative_distance_km":20.37,"amap_marker_url":"https://uri.amap.com/marker?position=116.614460,37.476117&name=%E4%BC%9A%E7%8E%8B%E5%85%BD%E5%8C%BB%E9%97%A8%E8%AF%8A&src=vetmap&coordinate=gaode&callnative=1"},{"name":"陵县边临镇兽医站","address":"边临镇边三村西首","phone":"0534-8702039;13869253051","category":"医疗保健服务;动物医疗场所;兽医站","area":"","lng":116.547738,"lat":37.435839,"amap_id":"B0G10HDMUT","order":3,"prev_distance_km":7.399,"cumulative_distance_km":27.769,"amap_marker_url":"https://uri.amap.com/marker?position=116.547738,37.435839&name=%E9%99%B5%E5%8E%BF%E8%BE%B9%E4%B8%B4%E9%95%87%E5%85%BD%E5%8C%BB%E7%AB%99&src=vetmap&coordinate=gaode&callnative=1"},{"name":"德州市陵城区动物疫病检测中心","address":"福星南大街25号","phone":"13583400789","category":"医疗保健服务;动物医疗场所;动物医疗场所","area":"","lng":116.557051,"lat":37.347564,"amap_id":"B0I3RMW5GT","order":4,"prev_distance_km":9.85,"cumulative_distance_km":37.619,"amap_marker_url":"https://uri.amap.com/marker?position=116.557051,37.347564&name=%E5%BE%B7%E5%B7%9E%E5%B8%82%E9%99%B5%E5%9F%8E%E5%8C%BA%E5%8A%A8%E7%89%A9%E7%96%AB%E7%97%85%E6%A3%80%E6%B5%8B%E4%B8%AD%E5%BF%83&src=vetmap&coordinate=gaode&callnative=1"},{"name":"爱宠宠物医院","address":"临齐街道福星街南段路东(汽车站往北150米)","phone":"13791313108","category":"医疗保健服务;动物医疗场所;宠物诊所","area":"","lng":116.557424,"lat":37.339901,"amap_id":"B0FFIMUHNL","order":5,"prev_distance_km":0.853,"cumulative_distance_km":38.471,"amap_marker_url":"https://uri.amap.com/marker?position=116.557424,37.339901&name=%E7%88%B1%E5%AE%A0%E5%AE%A0%E7%89%A9%E5%8C%BB%E9%99%A2&src=vetmap&coordinate=gaode&callnative=1"},{"name":"盛康宠物医院(24小时急重症转诊中心)","address":"临齐街道陵州路以北恒盛幸福园小区13号楼商业1-2层13号","phone":"15345451326","category":"医疗保健服务;动物医疗场所;宠物诊所","area":"","lng":116.564806,"lat":37.33351,"amap_id":"B0L3HS7TLE","order":6,"prev_distance_km":0.965,"cumulative_distance_km":39.436,"amap_marker_url":"https://uri.amap.com/marker?position=116.564806,37.333510&name=%E7%9B%9B%E5%BA%B7%E5%AE%A0%E7%89%A9%E5%8C%BB%E9%99%A2%2824%E5%B0%8F%E6%97%B6%E6%80%A5%E9%87%8D%E7%97%87%E8%BD%AC%E8%AF%8A%E4%B8%AD%E5%BF%83%29&src=vetmap&coordinate=gaode&callnative=1"},{"name":"汪汪宠物诊所","address":"世纪家园三期16-5","phone":"18653414995","category":"医疗保健服务;动物医疗场所;宠物诊所","area":"","lng":116.555486,"lat":37.331462,"amap_id":"B0K1GSS7RG","order":7,"prev_distance_km":0.855,"cumulative_distance_km":40.291,"amap_marker_url":"https://uri.amap.com/marker?position=116.555486,37.331462&name=%E6%B1%AA%E6%B1%AA%E5%AE%A0%E7%89%A9%E8%AF%8A%E6%89%80&src=vetmap&coordinate=gaode&callnative=1"},{"name":"城关兽医站","address":"陵城镇西李小学东北侧220米","phone":"13475176696","category":"医疗保健服务;动物医疗场所;兽医站","area":"","lng":116.529932,"lat":37.29407,"amap_id":"B0FFLNAWKA","order":8,"prev_distance_km":4.732,"cumulative_distance_km":45.023,"amap_marker_url":"https://uri.amap.com/marker?position=116.529932,37.294070&name=%E5%9F%8E%E5%85%B3%E5%85%BD%E5%8C%BB%E7%AB%99&src=vetmap&coordinate=gaode&callnative=1"},{"name":"天一宠物医院","address":"颜真卿公园南红绿灯路口路西","phone":"13953498778","category":"医疗保健服务;动物医疗场所;宠物诊所","area":"","lng":116.567602,"lat":37.323689,"amap_id":"B0FFKP0A14","order":9,"prev_distance_km":4.685,"cumulative_distance_km":49.708,"amap_marker_url":"https://uri.amap.com/marker?position=116.567602,37.323689&name=%E5%A4%A9%E4%B8%80%E5%AE%A0%E7%89%A9%E5%8C%BB%E9%99%A2&src=vetmap&coordinate=gaode&callnative=1"},{"name":"天爱动物诊所","address":"南环路123号附近","phone":"13869222156;13953498778","category":"医疗保健服务;动物医疗场所;宠物诊所","area":"","lng":116.567767,"lat":37.323705,"amap_id":"B0FFINP473","order":10,"prev_distance_km":0.015,"cumulative_distance_km":49.723,"amap_marker_url":"https://uri.amap.com/marker?position=116.567767,37.323705&name=%E5%A4%A9%E7%88%B1%E5%8A%A8%E7%89%A9%E8%AF%8A%E6%89%80&src=vetmap&coordinate=gaode&callnative=1"},{"name":"陵县畜牧局畜禽疾病防治中心","address":"宏祥家园东北门旁","phone":"","category":"医疗保健服务;动物医疗场所;兽医站","area":"","lng":116.588276,"lat":37.327715,"amap_id":"B0FFKM7H0J","order":11,"prev_distance_km":1.867,"cumulative_distance_km":51.59,"amap_marker_url":"https://uri.amap.com/marker?position=116.588276,37.327715&name=%E9%99%B5%E5%8E%BF%E7%95%9C%E7%89%A7%E5%B1%80%E7%95%9C%E7%A6%BD%E7%96%BE%E7%97%85%E9%98%B2%E6%B2%BB%E4%B8%AD%E5%BF%83&src=vetmap&coordinate=gaode&callnative=1"},{"name":"陵城区牧鑫动物诊所","address":"文化路与隔津街交叉口西100米","phone":"0534-8224373;13853421234","category":"医疗保健服务;动物医疗场所;兽医站","area":"","lng":116.592346,"lat":37.334219,"amap_id":"B0FFKGWXN8","order":12,"prev_distance_km":0.808,"cumulative_distance_km":52.398,"amap_marker_url":"https://uri.amap.com/marker?position=116.592346,37.334219&name=%E9%99%B5%E5%9F%8E%E5%8C%BA%E7%89%A7%E9%91%AB%E5%8A%A8%E7%89%A9%E8%AF%8A%E6%89%80&src=vetmap&coordinate=gaode&callnative=1"},{"name":"凤凰兽医站","address":"凤凰卫生院东侧","phone":"","category":"医疗保健服务;动物医疗场所;兽医站","area":"","lng":116.658786,"lat":37.282662,"amap_id":"B0KA5M3AN3","order":13,"prev_distance_km":8.209,"cumulative_distance_km":60.608,"amap_marker_url":"https://uri.amap.com/marker?position=116.658786,37.282662&name=%E5%87%A4%E5%87%B0%E5%85%BD%E5%8C%BB%E7%AB%99&src=vetmap&coordinate=gaode&callnative=1"}]}