{"summary":{"id":"d00310","province":"山东省","city":"东营市","district":"利津县","count":14,"route_count":1,"max_route_clinics":14,"total_distance_km":52.187,"coordinate_system":"GCJ-02 / Amap","generated_at":"2026-05-07 21:27:15"},"routes":[{"id":"r1","name":"第1段","count":14,"total_distance_km":52.187,"rows":[{"name":"永军兽药服务部","address":"凤凰大道1001号","phone":"13153555157","category":"医疗保健服务;动物医疗场所;动物医疗场所","area":"","lng":118.22168,"lat":37.471797,"amap_id":"B0L1XRSIAR","order":1,"prev_distance_km":0.0,"cumulative_distance_km":0.0,"amap_marker_url":"https://uri.amap.com/marker?position=118.221680,37.471797&name=%E6%B0%B8%E5%86%9B%E5%85%BD%E8%8D%AF%E6%9C%8D%E5%8A%A1%E9%83%A8&src=vetmap&coordinate=gaode&callnative=1","route_id":"r1","route_name":"第1段"},{"name":"滨西宠物诊所","address":"津一路162号","phone":"15054396203","category":"医疗保健服务;动物医疗场所;宠物诊所","area":"","lng":118.256075,"lat":37.495075,"amap_id":"B0LKRN5N5H","order":2,"prev_distance_km":3.989,"cumulative_distance_km":3.989,"amap_marker_url":"https://uri.amap.com/marker?position=118.256075,37.495075&name=%E6%BB%A8%E8%A5%BF%E5%AE%A0%E7%89%A9%E8%AF%8A%E6%89%80&src=vetmap&coordinate=gaode&callnative=1","route_id":"r1","route_name":"第1段"},{"name":"苏氏宠物医院","address":"滨港路150号","phone":"0546-5629266;13210389906","category":"医疗保健服务;动物医疗场所;宠物诊所","area":"","lng":118.25218,"lat":37.500008,"amap_id":"B0FFFVVYI7","order":3,"prev_distance_km":0.647,"cumulative_distance_km":4.636,"amap_marker_url":"https://uri.amap.com/marker?position=118.252180,37.500008&name=%E8%8B%8F%E6%B0%8F%E5%AE%A0%E7%89%A9%E5%8C%BB%E9%99%A2&src=vetmap&coordinate=gaode&callnative=1","route_id":"r1","route_name":"第1段"},{"name":"元亨动物门诊(元亨畜禽服务中心)","address":"栆园市场","phone":"13515468279","category":"医疗保健服务;动物医疗场所;兽医站","area":"","lng":118.250933,"lat":37.512545,"amap_id":"B0FFLB0595","order":4,"prev_distance_km":1.398,"cumulative_distance_km":6.034,"amap_marker_url":"https://uri.amap.com/marker?position=118.250933,37.512545&name=%E5%85%83%E4%BA%A8%E5%8A%A8%E7%89%A9%E9%97%A8%E8%AF%8A%28%E5%85%83%E4%BA%A8%E7%95%9C%E7%A6%BD%E6%9C%8D%E5%8A%A1%E4%B8%AD%E5%BF%83%29&src=vetmap&coordinate=gaode&callnative=1","route_id":"r1","route_name":"第1段"},{"name":"德康动物门诊部","address":"利七路与津二路交叉口东北180米","phone":"","category":"医疗保健服务;动物医疗场所;宠物诊所","area":"","lng":118.250966,"lat":37.512766,"amap_id":"B0JUMA4BC2","order":5,"prev_distance_km":0.025,"cumulative_distance_km":6.059,"amap_marker_url":"https://uri.amap.com/marker?position=118.250966,37.512766&name=%E5%BE%B7%E5%BA%B7%E5%8A%A8%E7%89%A9%E9%97%A8%E8%AF%8A%E9%83%A8&src=vetmap&coordinate=gaode&callnative=1","route_id":"r1","route_name":"第1段"},{"name":"宠物洗澡美容","address":"利七路与津二路交叉口东北160米","phone":"","category":"医疗保健服务;动物医疗场所;动物医疗场所","area":"","lng":118.250832,"lat":37.512689,"amap_id":"B0L6PU9GOR","order":6,"prev_distance_km":0.015,"cumulative_distance_km":6.074,"amap_marker_url":"https://uri.amap.com/marker?position=118.250832,37.512689&name=%E5%AE%A0%E7%89%A9%E6%B4%97%E6%BE%A1%E7%BE%8E%E5%AE%B9&src=vetmap&coordinate=gaode&callnative=1","route_id":"r1","route_name":"第1段"},{"name":"旺旺宠物医院(津二路店)","address":"利津街道枣园家具城西首","phone":"15154623066","category":"医疗保健服务;动物医疗场所;宠物诊所","area":"","lng":118.250356,"lat":37.512782,"amap_id":"B0FFH38INM","order":7,"prev_distance_km":0.043,"cumulative_distance_km":6.117,"amap_marker_url":"https://uri.amap.com/marker?position=118.250356,37.512782&name=%E6%97%BA%E6%97%BA%E5%AE%A0%E7%89%A9%E5%8C%BB%E9%99%A2%28%E6%B4%A5%E4%BA%8C%E8%B7%AF%E5%BA%97%29&src=vetmap&coordinate=gaode&callnative=1","route_id":"r1","route_name":"第1段"},{"name":"雨泽畜禽门诊","address":"振兴路114号","phone":"15275626536","category":"医疗保健服务;动物医疗场所;兽医站","area":"","lng":118.236233,"lat":37.587933,"amap_id":"B0FFL8RHG2","order":8,"prev_distance_km":8.449,"cumulative_distance_km":14.566,"amap_marker_url":"https://uri.amap.com/marker?position=118.236233,37.587933&name=%E9%9B%A8%E6%B3%BD%E7%95%9C%E7%A6%BD%E9%97%A8%E8%AF%8A&src=vetmap&coordinate=gaode&callnative=1","route_id":"r1","route_name":"第1段"},{"name":"利津鑫爱牧动物医院","address":"玉河饲料经营部东南侧250米","phone":"","category":"医疗保健服务;动物医疗场所;宠物诊所","area":"","lng":118.368732,"lat":37.663731,"amap_id":"B0LAGUKGDF","order":9,"prev_distance_km":14.394,"cumulative_distance_km":28.96,"amap_marker_url":"https://uri.amap.com/marker?position=118.368732,37.663731&name=%E5%88%A9%E6%B4%A5%E9%91%AB%E7%88%B1%E7%89%A7%E5%8A%A8%E7%89%A9%E5%8C%BB%E9%99%A2&src=vetmap&coordinate=gaode&callnative=1","route_id":"r1","route_name":"第1段"},{"name":"延河兽药","address":"兴凯制冷设备维修南侧220米","phone":"","category":"购物服务;购物相关场所;购物相关场所|医疗保健服务;动物医疗场所;动物医疗场所","area":"","lng":118.372225,"lat":37.654475,"amap_id":"B0M67AX4BB","order":10,"prev_distance_km":1.074,"cumulative_distance_km":30.034,"amap_marker_url":"https://uri.amap.com/marker?position=118.372225,37.654475&name=%E5%BB%B6%E6%B2%B3%E5%85%BD%E8%8D%AF&src=vetmap&coordinate=gaode&callnative=1","route_id":"r1","route_name":"第1段"},{"name":"康达动物医院","address":"盐窝镇商业街与滨港路交叉口向东200米路北","phone":"","category":"医疗保健服务;动物医疗场所;宠物诊所","area":"","lng":118.384669,"lat":37.646249,"amap_id":"B0L3LAPTUK","order":11,"prev_distance_km":1.427,"cumulative_distance_km":31.462,"amap_marker_url":"https://uri.amap.com/marker?position=118.384669,37.646249&name=%E5%BA%B7%E8%BE%BE%E5%8A%A8%E7%89%A9%E5%8C%BB%E9%99%A2&src=vetmap&coordinate=gaode&callnative=1","route_id":"r1","route_name":"第1段"},{"name":"动物医院","address":"利津县图书馆陈庄镇分馆西侧110米","phone":"13406089761;13668615208","category":"医疗保健服务;动物医疗场所;宠物诊所","area":"","lng":118.472554,"lat":37.682116,"amap_id":"B0FFIKQHXB","order":12,"prev_distance_km":8.703,"cumulative_distance_km":40.165,"amap_marker_url":"https://uri.amap.com/marker?position=118.472554,37.682116&name=%E5%8A%A8%E7%89%A9%E5%8C%BB%E9%99%A2&src=vetmap&coordinate=gaode&callnative=1","route_id":"r1","route_name":"第1段"},{"name":"开元动物门诊","address":"315省道与滨港路交叉口北320米","phone":"15154681317;15166247519","category":"医疗保健服务;动物医疗场所;宠物诊所|医疗保健服务;动物医疗场所;兽医站","area":"","lng":118.479573,"lat":37.687295,"amap_id":"B0FFFZS710","order":13,"prev_distance_km":0.844,"cumulative_distance_km":41.009,"amap_marker_url":"https://uri.amap.com/marker?position=118.479573,37.687295&name=%E5%BC%80%E5%85%83%E5%8A%A8%E7%89%A9%E9%97%A8%E8%AF%8A&src=vetmap&coordinate=gaode&callnative=1","route_id":"r1","route_name":"第1段"},{"name":"汀罗和刁口动物疫病预防控制所","address":"227省道","phone":"","category":"医疗保健服务;动物医疗场所;动物医疗场所","area":"","lng":118.537763,"lat":37.776664,"amap_id":"B0L0DCNTSQ","order":14,"prev_distance_km":11.178,"cumulative_distance_km":52.187,"amap_marker_url":"https://uri.amap.com/marker?position=118.537763,37.776664&name=%E6%B1%80%E7%BD%97%E5%92%8C%E5%88%81%E5%8F%A3%E5%8A%A8%E7%89%A9%E7%96%AB%E7%97%85%E9%A2%84%E9%98%B2%E6%8E%A7%E5%88%B6%E6%89%80&src=vetmap&coordinate=gaode&callnative=1","route_id":"r1","route_name":"第1段"}]}],"rows":[{"name":"永军兽药服务部","address":"凤凰大道1001号","phone":"13153555157","category":"医疗保健服务;动物医疗场所;动物医疗场所","area":"","lng":118.22168,"lat":37.471797,"amap_id":"B0L1XRSIAR","order":1,"prev_distance_km":0.0,"cumulative_distance_km":0.0,"amap_marker_url":"https://uri.amap.com/marker?position=118.221680,37.471797&name=%E6%B0%B8%E5%86%9B%E5%85%BD%E8%8D%AF%E6%9C%8D%E5%8A%A1%E9%83%A8&src=vetmap&coordinate=gaode&callnative=1","route_id":"r1","route_name":"第1段","global_order":1},{"name":"滨西宠物诊所","address":"津一路162号","phone":"15054396203","category":"医疗保健服务;动物医疗场所;宠物诊所","area":"","lng":118.256075,"lat":37.495075,"amap_id":"B0LKRN5N5H","order":2,"prev_distance_km":3.989,"cumulative_distance_km":3.989,"amap_marker_url":"https://uri.amap.com/marker?position=118.256075,37.495075&name=%E6%BB%A8%E8%A5%BF%E5%AE%A0%E7%89%A9%E8%AF%8A%E6%89%80&src=vetmap&coordinate=gaode&callnative=1","route_id":"r1","route_name":"第1段","global_order":2},{"name":"苏氏宠物医院","address":"滨港路150号","phone":"0546-5629266;13210389906","category":"医疗保健服务;动物医疗场所;宠物诊所","area":"","lng":118.25218,"lat":37.500008,"amap_id":"B0FFFVVYI7","order":3,"prev_distance_km":0.647,"cumulative_distance_km":4.636,"amap_marker_url":"https://uri.amap.com/marker?position=118.252180,37.500008&name=%E8%8B%8F%E6%B0%8F%E5%AE%A0%E7%89%A9%E5%8C%BB%E9%99%A2&src=vetmap&coordinate=gaode&callnative=1","route_id":"r1","route_name":"第1段","global_order":3},{"name":"元亨动物门诊(元亨畜禽服务中心)","address":"栆园市场","phone":"13515468279","category":"医疗保健服务;动物医疗场所;兽医站","area":"","lng":118.250933,"lat":37.512545,"amap_id":"B0FFLB0595","order":4,"prev_distance_km":1.398,"cumulative_distance_km":6.034,"amap_marker_url":"https://uri.amap.com/marker?position=118.250933,37.512545&name=%E5%85%83%E4%BA%A8%E5%8A%A8%E7%89%A9%E9%97%A8%E8%AF%8A%28%E5%85%83%E4%BA%A8%E7%95%9C%E7%A6%BD%E6%9C%8D%E5%8A%A1%E4%B8%AD%E5%BF%83%29&src=vetmap&coordinate=gaode&callnative=1","route_id":"r1","route_name":"第1段","global_order":4},{"name":"德康动物门诊部","address":"利七路与津二路交叉口东北180米","phone":"","category":"医疗保健服务;动物医疗场所;宠物诊所","area":"","lng":118.250966,"lat":37.512766,"amap_id":"B0JUMA4BC2","order":5,"prev_distance_km":0.025,"cumulative_distance_km":6.059,"amap_marker_url":"https://uri.amap.com/marker?position=118.250966,37.512766&name=%E5%BE%B7%E5%BA%B7%E5%8A%A8%E7%89%A9%E9%97%A8%E8%AF%8A%E9%83%A8&src=vetmap&coordinate=gaode&callnative=1","route_id":"r1","route_name":"第1段","global_order":5},{"name":"宠物洗澡美容","address":"利七路与津二路交叉口东北160米","phone":"","category":"医疗保健服务;动物医疗场所;动物医疗场所","area":"","lng":118.250832,"lat":37.512689,"amap_id":"B0L6PU9GOR","order":6,"prev_distance_km":0.015,"cumulative_distance_km":6.074,"amap_marker_url":"https://uri.amap.com/marker?position=118.250832,37.512689&name=%E5%AE%A0%E7%89%A9%E6%B4%97%E6%BE%A1%E7%BE%8E%E5%AE%B9&src=vetmap&coordinate=gaode&callnative=1","route_id":"r1","route_name":"第1段","global_order":6},{"name":"旺旺宠物医院(津二路店)","address":"利津街道枣园家具城西首","phone":"15154623066","category":"医疗保健服务;动物医疗场所;宠物诊所","area":"","lng":118.250356,"lat":37.512782,"amap_id":"B0FFH38INM","order":7,"prev_distance_km":0.043,"cumulative_distance_km":6.117,"amap_marker_url":"https://uri.amap.com/marker?position=118.250356,37.512782&name=%E6%97%BA%E6%97%BA%E5%AE%A0%E7%89%A9%E5%8C%BB%E9%99%A2%28%E6%B4%A5%E4%BA%8C%E8%B7%AF%E5%BA%97%29&src=vetmap&coordinate=gaode&callnative=1","route_id":"r1","route_name":"第1段","global_order":7},{"name":"雨泽畜禽门诊","address":"振兴路114号","phone":"15275626536","category":"医疗保健服务;动物医疗场所;兽医站","area":"","lng":118.236233,"lat":37.587933,"amap_id":"B0FFL8RHG2","order":8,"prev_distance_km":8.449,"cumulative_distance_km":14.566,"amap_marker_url":"https://uri.amap.com/marker?position=118.236233,37.587933&name=%E9%9B%A8%E6%B3%BD%E7%95%9C%E7%A6%BD%E9%97%A8%E8%AF%8A&src=vetmap&coordinate=gaode&callnative=1","route_id":"r1","route_name":"第1段","global_order":8},{"name":"利津鑫爱牧动物医院","address":"玉河饲料经营部东南侧250米","phone":"","category":"医疗保健服务;动物医疗场所;宠物诊所","area":"","lng":118.368732,"lat":37.663731,"amap_id":"B0LAGUKGDF","order":9,"prev_distance_km":14.394,"cumulative_distance_km":28.96,"amap_marker_url":"https://uri.amap.com/marker?position=118.368732,37.663731&name=%E5%88%A9%E6%B4%A5%E9%91%AB%E7%88%B1%E7%89%A7%E5%8A%A8%E7%89%A9%E5%8C%BB%E9%99%A2&src=vetmap&coordinate=gaode&callnative=1","route_id":"r1","route_name":"第1段","global_order":9},{"name":"延河兽药","address":"兴凯制冷设备维修南侧220米","phone":"","category":"购物服务;购物相关场所;购物相关场所|医疗保健服务;动物医疗场所;动物医疗场所","area":"","lng":118.372225,"lat":37.654475,"amap_id":"B0M67AX4BB","order":10,"prev_distance_km":1.074,"cumulative_distance_km":30.034,"amap_marker_url":"https://uri.amap.com/marker?position=118.372225,37.654475&name=%E5%BB%B6%E6%B2%B3%E5%85%BD%E8%8D%AF&src=vetmap&coordinate=gaode&callnative=1","route_id":"r1","route_name":"第1段","global_order":10},{"name":"康达动物医院","address":"盐窝镇商业街与滨港路交叉口向东200米路北","phone":"","category":"医疗保健服务;动物医疗场所;宠物诊所","area":"","lng":118.384669,"lat":37.646249,"amap_id":"B0L3LAPTUK","order":11,"prev_distance_km":1.427,"cumulative_distance_km":31.462,"amap_marker_url":"https://uri.amap.com/marker?position=118.384669,37.646249&name=%E5%BA%B7%E8%BE%BE%E5%8A%A8%E7%89%A9%E5%8C%BB%E9%99%A2&src=vetmap&coordinate=gaode&callnative=1","route_id":"r1","route_name":"第1段","global_order":11},{"name":"动物医院","address":"利津县图书馆陈庄镇分馆西侧110米","phone":"13406089761;13668615208","category":"医疗保健服务;动物医疗场所;宠物诊所","area":"","lng":118.472554,"lat":37.682116,"amap_id":"B0FFIKQHXB","order":12,"prev_distance_km":8.703,"cumulative_distance_km":40.165,"amap_marker_url":"https://uri.amap.com/marker?position=118.472554,37.682116&name=%E5%8A%A8%E7%89%A9%E5%8C%BB%E9%99%A2&src=vetmap&coordinate=gaode&callnative=1","route_id":"r1","route_name":"第1段","global_order":12},{"name":"开元动物门诊","address":"315省道与滨港路交叉口北320米","phone":"15154681317;15166247519","category":"医疗保健服务;动物医疗场所;宠物诊所|医疗保健服务;动物医疗场所;兽医站","area":"","lng":118.479573,"lat":37.687295,"amap_id":"B0FFFZS710","order":13,"prev_distance_km":0.844,"cumulative_distance_km":41.009,"amap_marker_url":"https://uri.amap.com/marker?position=118.479573,37.687295&name=%E5%BC%80%E5%85%83%E5%8A%A8%E7%89%A9%E9%97%A8%E8%AF%8A&src=vetmap&coordinate=gaode&callnative=1","route_id":"r1","route_name":"第1段","global_order":13},{"name":"汀罗和刁口动物疫病预防控制所","address":"227省道","phone":"","category":"医疗保健服务;动物医疗场所;动物医疗场所","area":"","lng":118.537763,"lat":37.776664,"amap_id":"B0L0DCNTSQ","order":14,"prev_distance_km":11.178,"cumulative_distance_km":52.187,"amap_marker_url":"https://uri.amap.com/marker?position=118.537763,37.776664&name=%E6%B1%80%E7%BD%97%E5%92%8C%E5%88%81%E5%8F%A3%E5%8A%A8%E7%89%A9%E7%96%AB%E7%97%85%E9%A2%84%E9%98%B2%E6%8E%A7%E5%88%B6%E6%89%80&src=vetmap&coordinate=gaode&callnative=1","route_id":"r1","route_name":"第1段","global_order":14}]}