{"summary":{"id":"d00321","province":"山东省","city":"临沂市","district":"罗庄区","count":24,"route_count":1,"max_route_clinics":24,"total_distance_km":66.528,"coordinate_system":"GCJ-02 / Amap","generated_at":"2026-05-08 19:41:58"},"routes":[{"id":"r1","name":"第1段","count":24,"total_distance_km":66.528,"rows":[{"name":"褚墩镇畜牧兽医站","address":"S230罗庄农村商业银行(褚墩镇和谐分理处)南侧","phone":"","category":"医疗保健服务;动物医疗场所;兽医站","area":"","lng":118.250128,"lat":34.822129,"amap_id":"B0FFFVCHQK","order":1,"prev_distance_km":0.0,"cumulative_distance_km":0.0,"amap_marker_url":"https://uri.amap.com/marker?position=118.250128,34.822129&name=%E8%A4%9A%E5%A2%A9%E9%95%87%E7%95%9C%E7%89%A7%E5%85%BD%E5%8C%BB%E7%AB%99&src=vetmap&coordinate=gaode&callnative=1","route_id":"r1","route_name":"第1段"},{"name":"临沂华特动物医院","address":"罗庄去册山办事处新桥村","phone":"","category":"医疗保健服务;动物医疗场所;宠物诊所","area":"","lng":118.331475,"lat":34.878141,"amap_id":"B0KRMDUCVS","order":2,"prev_distance_km":9.69,"cumulative_distance_km":9.69,"amap_marker_url":"https://uri.amap.com/marker?position=118.331475,34.878141&name=%E4%B8%B4%E6%B2%82%E5%8D%8E%E7%89%B9%E5%8A%A8%E7%89%A9%E5%8C%BB%E9%99%A2&src=vetmap&coordinate=gaode&callnative=1","route_id":"r1","route_name":"第1段"},{"name":"兽医门诊部","address":"学府花苑南门东130米","phone":"13605498164","category":"医疗保健服务;动物医疗场所;兽医站","area":"","lng":118.339492,"lat":34.914797,"amap_id":"B0FFFV5B5K","order":3,"prev_distance_km":4.141,"cumulative_distance_km":13.831,"amap_marker_url":"https://uri.amap.com/marker?position=118.339492,34.914797&name=%E5%85%BD%E5%8C%BB%E9%97%A8%E8%AF%8A%E9%83%A8&src=vetmap&coordinate=gaode&callnative=1","route_id":"r1","route_name":"第1段"},{"name":"临沂市罗庄区傅庄街道汪星人宠物门诊店","address":"傅庄街道东南村通达南路与镇中路交汇处向南50米路西街农村商业银行南邻","phone":"15564274456","category":"医疗保健服务;动物医疗场所;宠物诊所","area":"","lng":118.268189,"lat":34.93023,"amap_id":"B0J11C10QV","order":4,"prev_distance_km":6.724,"cumulative_distance_km":20.554,"amap_marker_url":"https://uri.amap.com/marker?position=118.268189,34.930230&name=%E4%B8%B4%E6%B2%82%E5%B8%82%E7%BD%97%E5%BA%84%E5%8C%BA%E5%82%85%E5%BA%84%E8%A1%97%E9%81%93%E6%B1%AA%E6%98%9F%E4%BA%BA%E5%AE%A0%E7%89%A9%E9%97%A8%E8%AF%8A%E5%BA%97&src=vetmap&coordinate=gaode&callnative=1","route_id":"r1","route_name":"第1段"},{"name":"奥丁华辰宠物诊所","address":"文化路168号","phone":"13869988636","category":"医疗保健服务;动物医疗场所;宠物诊所","area":"龙潭公园","lng":118.275721,"lat":34.969551,"amap_id":"B0FFJ82CFD","order":5,"prev_distance_km":4.426,"cumulative_distance_km":24.98,"amap_marker_url":"https://uri.amap.com/marker?position=118.275721,34.969551&name=%E5%A5%A5%E4%B8%81%E5%8D%8E%E8%BE%B0%E5%AE%A0%E7%89%A9%E8%AF%8A%E6%89%80&src=vetmap&coordinate=gaode&callnative=1","route_id":"r1","route_name":"第1段"},{"name":"罗庄兽医门诊","address":"罗六路附近","phone":"15266662817","category":"医疗保健服务;动物医疗场所;兽医站","area":"龙潭公园","lng":118.278416,"lat":34.971763,"amap_id":"B021B06F92","order":6,"prev_distance_km":0.348,"cumulative_distance_km":25.328,"amap_marker_url":"https://uri.amap.com/marker?position=118.278416,34.971763&name=%E7%BD%97%E5%BA%84%E5%85%BD%E5%8C%BB%E9%97%A8%E8%AF%8A&src=vetmap&coordinate=gaode&callnative=1","route_id":"r1","route_name":"第1段"},{"name":"罗庄区汪星人宠物门诊","address":"罗六路与龙潭路交叉口东南150米","phone":"15335495120","category":"医疗保健服务;动物医疗场所;宠物诊所","area":"龙潭公园","lng":118.279529,"lat":34.976153,"amap_id":"B0FFK9NZMO","order":7,"prev_distance_km":0.499,"cumulative_distance_km":25.826,"amap_marker_url":"https://uri.amap.com/marker?position=118.279529,34.976153&name=%E7%BD%97%E5%BA%84%E5%8C%BA%E6%B1%AA%E6%98%9F%E4%BA%BA%E5%AE%A0%E7%89%A9%E9%97%A8%E8%AF%8A&src=vetmap&coordinate=gaode&callnative=1","route_id":"r1","route_name":"第1段"},{"name":"罗庄喜乐宠物医院(开元路店)","address":"罗庄街道工业路与开元路交汇南200米路西永怡园小区门口","phone":"18369589526","category":"医疗保健服务;动物医疗场所;宠物诊所","area":"龙潭公园","lng":118.285006,"lat":34.980219,"amap_id":"B0FFICGZL4","order":8,"prev_distance_km":0.673,"cumulative_distance_km":26.5,"amap_marker_url":"https://uri.amap.com/marker?position=118.285006,34.980219&name=%E7%BD%97%E5%BA%84%E5%96%9C%E4%B9%90%E5%AE%A0%E7%89%A9%E5%8C%BB%E9%99%A2%28%E5%BC%80%E5%85%83%E8%B7%AF%E5%BA%97%29&src=vetmap&coordinate=gaode&callnative=1","route_id":"r1","route_name":"第1段"},{"name":"爱康动物医院","address":"锦绣华庭南门旁","phone":"15376023610","category":"医疗保健服务;动物医疗场所;宠物诊所","area":"龙潭公园","lng":118.29076,"lat":34.978131,"amap_id":"B0KKDUU3NG","order":9,"prev_distance_km":0.573,"cumulative_distance_km":27.073,"amap_marker_url":"https://uri.amap.com/marker?position=118.290760,34.978131&name=%E7%88%B1%E5%BA%B7%E5%8A%A8%E7%89%A9%E5%8C%BB%E9%99%A2&src=vetmap&coordinate=gaode&callnative=1","route_id":"r1","route_name":"第1段"},{"name":"梅奥宠物洗美","address":"湖北路花木博览城A6-112","phone":"18353955031","category":"医疗保健服务;动物医疗场所;宠物诊所","area":"","lng":118.370249,"lat":34.997142,"amap_id":"B0LR55B99B","order":10,"prev_distance_km":7.544,"cumulative_distance_km":34.617,"amap_marker_url":"https://uri.amap.com/marker?position=118.370249,34.997142&name=%E6%A2%85%E5%A5%A5%E5%AE%A0%E7%89%A9%E6%B4%97%E7%BE%8E&src=vetmap&coordinate=gaode&callnative=1","route_id":"r1","route_name":"第1段"},{"name":"君栎(yue)宠物医院 犬猫 · 异宠 · 兔科","address":"盛庄街道君悦华府东1门沿街S1-103","phone":"15275396955","category":"医疗保健服务;动物医疗场所;宠物诊所","area":"","lng":118.370534,"lat":35.009606,"amap_id":"B0L12UUOWQ","order":11,"prev_distance_km":1.386,"cumulative_distance_km":36.003,"amap_marker_url":"https://uri.amap.com/marker?position=118.370534,35.009606&name=%E5%90%9B%E6%A0%8E%28yue%29%E5%AE%A0%E7%89%A9%E5%8C%BB%E9%99%A2%20%E7%8A%AC%E7%8C%AB%20%C2%B7%20%E5%BC%82%E5%AE%A0%20%C2%B7%20%E5%85%94%E7%A7%91&src=vetmap&coordinate=gaode&callnative=1","route_id":"r1","route_name":"第1段"},{"name":"合宜宠物医院","address":"清河南街美澳花园西门向北200米路东","phone":"0539-8211120","category":"医疗保健服务;动物医疗场所;宠物诊所","area":"","lng":118.369406,"lat":35.022913,"amap_id":"B0FFJ97PC1","order":12,"prev_distance_km":1.483,"cumulative_distance_km":37.486,"amap_marker_url":"https://uri.amap.com/marker?position=118.369406,35.022913&name=%E5%90%88%E5%AE%9C%E5%AE%A0%E7%89%A9%E5%8C%BB%E9%99%A2&src=vetmap&coordinate=gaode&callnative=1","route_id":"r1","route_name":"第1段"},{"name":"旺尚宠物门诊","address":"十里坊前大街F1-09","phone":"15305391801","category":"医疗保健服务;动物医疗场所;宠物诊所","area":"","lng":118.360533,"lat":35.017633,"amap_id":"B0FFKERCVX","order":13,"prev_distance_km":0.999,"cumulative_distance_km":38.485,"amap_marker_url":"https://uri.amap.com/marker?position=118.360533,35.017633&name=%E6%97%BA%E5%B0%9A%E5%AE%A0%E7%89%A9%E9%97%A8%E8%AF%8A&src=vetmap&coordinate=gaode&callnative=1","route_id":"r1","route_name":"第1段"},{"name":"兽医专科","address":"通达路与苗花路交叉口北200米","phone":"13905496231;18263973008","category":"医疗保健服务;动物医疗场所;兽医站","area":"","lng":118.317796,"lat":35.019931,"amap_id":"B0FFK2ZTFP","order":14,"prev_distance_km":3.9,"cumulative_distance_km":42.385,"amap_marker_url":"https://uri.amap.com/marker?position=118.317796,35.019931&name=%E5%85%BD%E5%8C%BB%E4%B8%93%E7%A7%91&src=vetmap&coordinate=gaode&callnative=1","route_id":"r1","route_name":"第1段"},{"name":"亓瑞东动物诊疗站","address":"通达南路与苗花路交叉口北140米","phone":"13013504816","category":"医疗保健服务;动物医疗场所;兽医站","area":"","lng":118.317656,"lat":35.019315,"amap_id":"B0GRDSEWVG","order":15,"prev_distance_km":0.07,"cumulative_distance_km":42.455,"amap_marker_url":"https://uri.amap.com/marker?position=118.317656,35.019315&name=%E4%BA%93%E7%91%9E%E4%B8%9C%E5%8A%A8%E7%89%A9%E8%AF%8A%E7%96%97%E7%AB%99&src=vetmap&coordinate=gaode&callnative=1","route_id":"r1","route_name":"第1段"},{"name":"罗庄区小小宠物诊所","address":"盛庄街道金九路与苗花路交汇处北100米路东","phone":"15244384444","category":"医疗保健服务;动物医疗场所;宠物诊所","area":"","lng":118.317791,"lat":35.018707,"amap_id":"B0FFHGVOS6","order":16,"prev_distance_km":0.069,"cumulative_distance_km":42.524,"amap_marker_url":"https://uri.amap.com/marker?position=118.317791,35.018707&name=%E7%BD%97%E5%BA%84%E5%8C%BA%E5%B0%8F%E5%B0%8F%E5%AE%A0%E7%89%A9%E8%AF%8A%E6%89%80&src=vetmap&coordinate=gaode&callnative=1","route_id":"r1","route_name":"第1段"},{"name":"久牧宠物医院","address":"通达南路辅路与双月园南路交叉口西80米","phone":"19353932111","category":"医疗保健服务;动物医疗场所;宠物诊所","area":"","lng":118.307421,"lat":35.006852,"amap_id":"B0IU2MINA4","order":17,"prev_distance_km":1.622,"cumulative_distance_km":44.145,"amap_marker_url":"https://uri.amap.com/marker?position=118.307421,35.006852&name=%E4%B9%85%E7%89%A7%E5%AE%A0%E7%89%A9%E5%8C%BB%E9%99%A2&src=vetmap&coordinate=gaode&callnative=1","route_id":"r1","route_name":"第1段"},{"name":"福宝宠物门诊","address":"临沂饭店西800米路北","phone":"18369561333","category":"医疗保健服务;动物医疗场所;宠物诊所","area":"","lng":118.291506,"lat":34.985278,"amap_id":"B0K3MPSY5N","order":18,"prev_distance_km":2.803,"cumulative_distance_km":46.948,"amap_marker_url":"https://uri.amap.com/marker?position=118.291506,34.985278&name=%E7%A6%8F%E5%AE%9D%E5%AE%A0%E7%89%A9%E9%97%A8%E8%AF%8A&src=vetmap&coordinate=gaode&callnative=1","route_id":"r1","route_name":"第1段"},{"name":"花小喵宠物诊所","address":"湖西路150号(金地家园小区沿街)","phone":"13285393208","category":"医疗保健服务;动物医疗场所;宠物诊所","area":"","lng":118.27187,"lat":34.98495,"amap_id":"B0IGR7YFRB","order":19,"prev_distance_km":1.789,"cumulative_distance_km":48.737,"amap_marker_url":"https://uri.amap.com/marker?position=118.271870,34.984950&name=%E8%8A%B1%E5%B0%8F%E5%96%B5%E5%AE%A0%E7%89%A9%E8%AF%8A%E6%89%80&src=vetmap&coordinate=gaode&callnative=1","route_id":"r1","route_name":"第1段"},{"name":"荣强畜牧兽医技术服务站","address":"科北路与高新大道交叉口东北120米","phone":"13053922798","category":"医疗保健服务;动物医疗场所;兽医站","area":"双月湖","lng":118.273004,"lat":34.996353,"amap_id":"B0KUA11VZS","order":20,"prev_distance_km":1.272,"cumulative_distance_km":50.01,"amap_marker_url":"https://uri.amap.com/marker?position=118.273004,34.996353&name=%E8%8D%A3%E5%BC%BA%E7%95%9C%E7%89%A7%E5%85%BD%E5%8C%BB%E6%8A%80%E6%9C%AF%E6%9C%8D%E5%8A%A1%E7%AB%99&src=vetmap&coordinate=gaode&callnative=1","route_id":"r1","route_name":"第1段"},{"name":"高新宠物诊所","address":"高新技术产业开发区罗西街道办事处罗七路与湖北路交汇处西南角沿街","phone":"15550966216","category":"医疗保健服务;动物医疗场所;宠物诊所","area":"双月湖","lng":118.271447,"lat":34.997831,"amap_id":"B0I3SSXPXD","order":21,"prev_distance_km":0.217,"cumulative_distance_km":50.227,"amap_marker_url":"https://uri.amap.com/marker?position=118.271447,34.997831&name=%E9%AB%98%E6%96%B0%E5%AE%A0%E7%89%A9%E8%AF%8A%E6%89%80&src=vetmap&coordinate=gaode&callnative=1","route_id":"r1","route_name":"第1段"},{"name":"罗西兽医站","address":"俄黄路与化武路交叉口南400米","phone":"13905399815","category":"医疗保健服务;动物医疗场所;兽医站","area":"","lng":118.231052,"lat":35.014342,"amap_id":"B0MBNCT729","order":22,"prev_distance_km":4.112,"cumulative_distance_km":54.338,"amap_marker_url":"https://uri.amap.com/marker?position=118.231052,35.014342&name=%E7%BD%97%E8%A5%BF%E5%85%BD%E5%8C%BB%E7%AB%99&src=vetmap&coordinate=gaode&callnative=1","route_id":"r1","route_name":"第1段"},{"name":"沂堂兽医院","address":"沂堂镇中心大街","phone":"15554939916","category":"医疗保健服务;动物医疗场所;兽医站","area":"","lng":118.164057,"lat":34.956701,"amap_id":"B0GKOY6C7Y","order":23,"prev_distance_km":8.851,"cumulative_distance_km":63.189,"amap_marker_url":"https://uri.amap.com/marker?position=118.164057,34.956701&name=%E6%B2%82%E5%A0%82%E5%85%BD%E5%8C%BB%E9%99%A2&src=vetmap&coordinate=gaode&callnative=1","route_id":"r1","route_name":"第1段"},{"name":"动物医院","address":"伍福家园西侧140米","phone":"","category":"医疗保健服务;动物医疗场所;宠物诊所","area":"","lng":118.13401,"lat":34.939518,"amap_id":"B0HUX7KU7G","order":24,"prev_distance_km":3.339,"cumulative_distance_km":66.528,"amap_marker_url":"https://uri.amap.com/marker?position=118.134010,34.939518&name=%E5%8A%A8%E7%89%A9%E5%8C%BB%E9%99%A2&src=vetmap&coordinate=gaode&callnative=1","route_id":"r1","route_name":"第1段"}]}],"rows":[{"name":"褚墩镇畜牧兽医站","address":"S230罗庄农村商业银行(褚墩镇和谐分理处)南侧","phone":"","category":"医疗保健服务;动物医疗场所;兽医站","area":"","lng":118.250128,"lat":34.822129,"amap_id":"B0FFFVCHQK","order":1,"prev_distance_km":0.0,"cumulative_distance_km":0.0,"amap_marker_url":"https://uri.amap.com/marker?position=118.250128,34.822129&name=%E8%A4%9A%E5%A2%A9%E9%95%87%E7%95%9C%E7%89%A7%E5%85%BD%E5%8C%BB%E7%AB%99&src=vetmap&coordinate=gaode&callnative=1","route_id":"r1","route_name":"第1段","global_order":1},{"name":"临沂华特动物医院","address":"罗庄去册山办事处新桥村","phone":"","category":"医疗保健服务;动物医疗场所;宠物诊所","area":"","lng":118.331475,"lat":34.878141,"amap_id":"B0KRMDUCVS","order":2,"prev_distance_km":9.69,"cumulative_distance_km":9.69,"amap_marker_url":"https://uri.amap.com/marker?position=118.331475,34.878141&name=%E4%B8%B4%E6%B2%82%E5%8D%8E%E7%89%B9%E5%8A%A8%E7%89%A9%E5%8C%BB%E9%99%A2&src=vetmap&coordinate=gaode&callnative=1","route_id":"r1","route_name":"第1段","global_order":2},{"name":"兽医门诊部","address":"学府花苑南门东130米","phone":"13605498164","category":"医疗保健服务;动物医疗场所;兽医站","area":"","lng":118.339492,"lat":34.914797,"amap_id":"B0FFFV5B5K","order":3,"prev_distance_km":4.141,"cumulative_distance_km":13.831,"amap_marker_url":"https://uri.amap.com/marker?position=118.339492,34.914797&name=%E5%85%BD%E5%8C%BB%E9%97%A8%E8%AF%8A%E9%83%A8&src=vetmap&coordinate=gaode&callnative=1","route_id":"r1","route_name":"第1段","global_order":3},{"name":"临沂市罗庄区傅庄街道汪星人宠物门诊店","address":"傅庄街道东南村通达南路与镇中路交汇处向南50米路西街农村商业银行南邻","phone":"15564274456","category":"医疗保健服务;动物医疗场所;宠物诊所","area":"","lng":118.268189,"lat":34.93023,"amap_id":"B0J11C10QV","order":4,"prev_distance_km":6.724,"cumulative_distance_km":20.554,"amap_marker_url":"https://uri.amap.com/marker?position=118.268189,34.930230&name=%E4%B8%B4%E6%B2%82%E5%B8%82%E7%BD%97%E5%BA%84%E5%8C%BA%E5%82%85%E5%BA%84%E8%A1%97%E9%81%93%E6%B1%AA%E6%98%9F%E4%BA%BA%E5%AE%A0%E7%89%A9%E9%97%A8%E8%AF%8A%E5%BA%97&src=vetmap&coordinate=gaode&callnative=1","route_id":"r1","route_name":"第1段","global_order":4},{"name":"奥丁华辰宠物诊所","address":"文化路168号","phone":"13869988636","category":"医疗保健服务;动物医疗场所;宠物诊所","area":"龙潭公园","lng":118.275721,"lat":34.969551,"amap_id":"B0FFJ82CFD","order":5,"prev_distance_km":4.426,"cumulative_distance_km":24.98,"amap_marker_url":"https://uri.amap.com/marker?position=118.275721,34.969551&name=%E5%A5%A5%E4%B8%81%E5%8D%8E%E8%BE%B0%E5%AE%A0%E7%89%A9%E8%AF%8A%E6%89%80&src=vetmap&coordinate=gaode&callnative=1","route_id":"r1","route_name":"第1段","global_order":5},{"name":"罗庄兽医门诊","address":"罗六路附近","phone":"15266662817","category":"医疗保健服务;动物医疗场所;兽医站","area":"龙潭公园","lng":118.278416,"lat":34.971763,"amap_id":"B021B06F92","order":6,"prev_distance_km":0.348,"cumulative_distance_km":25.328,"amap_marker_url":"https://uri.amap.com/marker?position=118.278416,34.971763&name=%E7%BD%97%E5%BA%84%E5%85%BD%E5%8C%BB%E9%97%A8%E8%AF%8A&src=vetmap&coordinate=gaode&callnative=1","route_id":"r1","route_name":"第1段","global_order":6},{"name":"罗庄区汪星人宠物门诊","address":"罗六路与龙潭路交叉口东南150米","phone":"15335495120","category":"医疗保健服务;动物医疗场所;宠物诊所","area":"龙潭公园","lng":118.279529,"lat":34.976153,"amap_id":"B0FFK9NZMO","order":7,"prev_distance_km":0.499,"cumulative_distance_km":25.826,"amap_marker_url":"https://uri.amap.com/marker?position=118.279529,34.976153&name=%E7%BD%97%E5%BA%84%E5%8C%BA%E6%B1%AA%E6%98%9F%E4%BA%BA%E5%AE%A0%E7%89%A9%E9%97%A8%E8%AF%8A&src=vetmap&coordinate=gaode&callnative=1","route_id":"r1","route_name":"第1段","global_order":7},{"name":"罗庄喜乐宠物医院(开元路店)","address":"罗庄街道工业路与开元路交汇南200米路西永怡园小区门口","phone":"18369589526","category":"医疗保健服务;动物医疗场所;宠物诊所","area":"龙潭公园","lng":118.285006,"lat":34.980219,"amap_id":"B0FFICGZL4","order":8,"prev_distance_km":0.673,"cumulative_distance_km":26.5,"amap_marker_url":"https://uri.amap.com/marker?position=118.285006,34.980219&name=%E7%BD%97%E5%BA%84%E5%96%9C%E4%B9%90%E5%AE%A0%E7%89%A9%E5%8C%BB%E9%99%A2%28%E5%BC%80%E5%85%83%E8%B7%AF%E5%BA%97%29&src=vetmap&coordinate=gaode&callnative=1","route_id":"r1","route_name":"第1段","global_order":8},{"name":"爱康动物医院","address":"锦绣华庭南门旁","phone":"15376023610","category":"医疗保健服务;动物医疗场所;宠物诊所","area":"龙潭公园","lng":118.29076,"lat":34.978131,"amap_id":"B0KKDUU3NG","order":9,"prev_distance_km":0.573,"cumulative_distance_km":27.073,"amap_marker_url":"https://uri.amap.com/marker?position=118.290760,34.978131&name=%E7%88%B1%E5%BA%B7%E5%8A%A8%E7%89%A9%E5%8C%BB%E9%99%A2&src=vetmap&coordinate=gaode&callnative=1","route_id":"r1","route_name":"第1段","global_order":9},{"name":"梅奥宠物洗美","address":"湖北路花木博览城A6-112","phone":"18353955031","category":"医疗保健服务;动物医疗场所;宠物诊所","area":"","lng":118.370249,"lat":34.997142,"amap_id":"B0LR55B99B","order":10,"prev_distance_km":7.544,"cumulative_distance_km":34.617,"amap_marker_url":"https://uri.amap.com/marker?position=118.370249,34.997142&name=%E6%A2%85%E5%A5%A5%E5%AE%A0%E7%89%A9%E6%B4%97%E7%BE%8E&src=vetmap&coordinate=gaode&callnative=1","route_id":"r1","route_name":"第1段","global_order":10},{"name":"君栎(yue)宠物医院 犬猫 · 异宠 · 兔科","address":"盛庄街道君悦华府东1门沿街S1-103","phone":"15275396955","category":"医疗保健服务;动物医疗场所;宠物诊所","area":"","lng":118.370534,"lat":35.009606,"amap_id":"B0L12UUOWQ","order":11,"prev_distance_km":1.386,"cumulative_distance_km":36.003,"amap_marker_url":"https://uri.amap.com/marker?position=118.370534,35.009606&name=%E5%90%9B%E6%A0%8E%28yue%29%E5%AE%A0%E7%89%A9%E5%8C%BB%E9%99%A2%20%E7%8A%AC%E7%8C%AB%20%C2%B7%20%E5%BC%82%E5%AE%A0%20%C2%B7%20%E5%85%94%E7%A7%91&src=vetmap&coordinate=gaode&callnative=1","route_id":"r1","route_name":"第1段","global_order":11},{"name":"合宜宠物医院","address":"清河南街美澳花园西门向北200米路东","phone":"0539-8211120","category":"医疗保健服务;动物医疗场所;宠物诊所","area":"","lng":118.369406,"lat":35.022913,"amap_id":"B0FFJ97PC1","order":12,"prev_distance_km":1.483,"cumulative_distance_km":37.486,"amap_marker_url":"https://uri.amap.com/marker?position=118.369406,35.022913&name=%E5%90%88%E5%AE%9C%E5%AE%A0%E7%89%A9%E5%8C%BB%E9%99%A2&src=vetmap&coordinate=gaode&callnative=1","route_id":"r1","route_name":"第1段","global_order":12},{"name":"旺尚宠物门诊","address":"十里坊前大街F1-09","phone":"15305391801","category":"医疗保健服务;动物医疗场所;宠物诊所","area":"","lng":118.360533,"lat":35.017633,"amap_id":"B0FFKERCVX","order":13,"prev_distance_km":0.999,"cumulative_distance_km":38.485,"amap_marker_url":"https://uri.amap.com/marker?position=118.360533,35.017633&name=%E6%97%BA%E5%B0%9A%E5%AE%A0%E7%89%A9%E9%97%A8%E8%AF%8A&src=vetmap&coordinate=gaode&callnative=1","route_id":"r1","route_name":"第1段","global_order":13},{"name":"兽医专科","address":"通达路与苗花路交叉口北200米","phone":"13905496231;18263973008","category":"医疗保健服务;动物医疗场所;兽医站","area":"","lng":118.317796,"lat":35.019931,"amap_id":"B0FFK2ZTFP","order":14,"prev_distance_km":3.9,"cumulative_distance_km":42.385,"amap_marker_url":"https://uri.amap.com/marker?position=118.317796,35.019931&name=%E5%85%BD%E5%8C%BB%E4%B8%93%E7%A7%91&src=vetmap&coordinate=gaode&callnative=1","route_id":"r1","route_name":"第1段","global_order":14},{"name":"亓瑞东动物诊疗站","address":"通达南路与苗花路交叉口北140米","phone":"13013504816","category":"医疗保健服务;动物医疗场所;兽医站","area":"","lng":118.317656,"lat":35.019315,"amap_id":"B0GRDSEWVG","order":15,"prev_distance_km":0.07,"cumulative_distance_km":42.455,"amap_marker_url":"https://uri.amap.com/marker?position=118.317656,35.019315&name=%E4%BA%93%E7%91%9E%E4%B8%9C%E5%8A%A8%E7%89%A9%E8%AF%8A%E7%96%97%E7%AB%99&src=vetmap&coordinate=gaode&callnative=1","route_id":"r1","route_name":"第1段","global_order":15},{"name":"罗庄区小小宠物诊所","address":"盛庄街道金九路与苗花路交汇处北100米路东","phone":"15244384444","category":"医疗保健服务;动物医疗场所;宠物诊所","area":"","lng":118.317791,"lat":35.018707,"amap_id":"B0FFHGVOS6","order":16,"prev_distance_km":0.069,"cumulative_distance_km":42.524,"amap_marker_url":"https://uri.amap.com/marker?position=118.317791,35.018707&name=%E7%BD%97%E5%BA%84%E5%8C%BA%E5%B0%8F%E5%B0%8F%E5%AE%A0%E7%89%A9%E8%AF%8A%E6%89%80&src=vetmap&coordinate=gaode&callnative=1","route_id":"r1","route_name":"第1段","global_order":16},{"name":"久牧宠物医院","address":"通达南路辅路与双月园南路交叉口西80米","phone":"19353932111","category":"医疗保健服务;动物医疗场所;宠物诊所","area":"","lng":118.307421,"lat":35.006852,"amap_id":"B0IU2MINA4","order":17,"prev_distance_km":1.622,"cumulative_distance_km":44.145,"amap_marker_url":"https://uri.amap.com/marker?position=118.307421,35.006852&name=%E4%B9%85%E7%89%A7%E5%AE%A0%E7%89%A9%E5%8C%BB%E9%99%A2&src=vetmap&coordinate=gaode&callnative=1","route_id":"r1","route_name":"第1段","global_order":17},{"name":"福宝宠物门诊","address":"临沂饭店西800米路北","phone":"18369561333","category":"医疗保健服务;动物医疗场所;宠物诊所","area":"","lng":118.291506,"lat":34.985278,"amap_id":"B0K3MPSY5N","order":18,"prev_distance_km":2.803,"cumulative_distance_km":46.948,"amap_marker_url":"https://uri.amap.com/marker?position=118.291506,34.985278&name=%E7%A6%8F%E5%AE%9D%E5%AE%A0%E7%89%A9%E9%97%A8%E8%AF%8A&src=vetmap&coordinate=gaode&callnative=1","route_id":"r1","route_name":"第1段","global_order":18},{"name":"花小喵宠物诊所","address":"湖西路150号(金地家园小区沿街)","phone":"13285393208","category":"医疗保健服务;动物医疗场所;宠物诊所","area":"","lng":118.27187,"lat":34.98495,"amap_id":"B0IGR7YFRB","order":19,"prev_distance_km":1.789,"cumulative_distance_km":48.737,"amap_marker_url":"https://uri.amap.com/marker?position=118.271870,34.984950&name=%E8%8A%B1%E5%B0%8F%E5%96%B5%E5%AE%A0%E7%89%A9%E8%AF%8A%E6%89%80&src=vetmap&coordinate=gaode&callnative=1","route_id":"r1","route_name":"第1段","global_order":19},{"name":"荣强畜牧兽医技术服务站","address":"科北路与高新大道交叉口东北120米","phone":"13053922798","category":"医疗保健服务;动物医疗场所;兽医站","area":"双月湖","lng":118.273004,"lat":34.996353,"amap_id":"B0KUA11VZS","order":20,"prev_distance_km":1.272,"cumulative_distance_km":50.01,"amap_marker_url":"https://uri.amap.com/marker?position=118.273004,34.996353&name=%E8%8D%A3%E5%BC%BA%E7%95%9C%E7%89%A7%E5%85%BD%E5%8C%BB%E6%8A%80%E6%9C%AF%E6%9C%8D%E5%8A%A1%E7%AB%99&src=vetmap&coordinate=gaode&callnative=1","route_id":"r1","route_name":"第1段","global_order":20},{"name":"高新宠物诊所","address":"高新技术产业开发区罗西街道办事处罗七路与湖北路交汇处西南角沿街","phone":"15550966216","category":"医疗保健服务;动物医疗场所;宠物诊所","area":"双月湖","lng":118.271447,"lat":34.997831,"amap_id":"B0I3SSXPXD","order":21,"prev_distance_km":0.217,"cumulative_distance_km":50.227,"amap_marker_url":"https://uri.amap.com/marker?position=118.271447,34.997831&name=%E9%AB%98%E6%96%B0%E5%AE%A0%E7%89%A9%E8%AF%8A%E6%89%80&src=vetmap&coordinate=gaode&callnative=1","route_id":"r1","route_name":"第1段","global_order":21},{"name":"罗西兽医站","address":"俄黄路与化武路交叉口南400米","phone":"13905399815","category":"医疗保健服务;动物医疗场所;兽医站","area":"","lng":118.231052,"lat":35.014342,"amap_id":"B0MBNCT729","order":22,"prev_distance_km":4.112,"cumulative_distance_km":54.338,"amap_marker_url":"https://uri.amap.com/marker?position=118.231052,35.014342&name=%E7%BD%97%E8%A5%BF%E5%85%BD%E5%8C%BB%E7%AB%99&src=vetmap&coordinate=gaode&callnative=1","route_id":"r1","route_name":"第1段","global_order":22},{"name":"沂堂兽医院","address":"沂堂镇中心大街","phone":"15554939916","category":"医疗保健服务;动物医疗场所;兽医站","area":"","lng":118.164057,"lat":34.956701,"amap_id":"B0GKOY6C7Y","order":23,"prev_distance_km":8.851,"cumulative_distance_km":63.189,"amap_marker_url":"https://uri.amap.com/marker?position=118.164057,34.956701&name=%E6%B2%82%E5%A0%82%E5%85%BD%E5%8C%BB%E9%99%A2&src=vetmap&coordinate=gaode&callnative=1","route_id":"r1","route_name":"第1段","global_order":23},{"name":"动物医院","address":"伍福家园西侧140米","phone":"","category":"医疗保健服务;动物医疗场所;宠物诊所","area":"","lng":118.13401,"lat":34.939518,"amap_id":"B0HUX7KU7G","order":24,"prev_distance_km":3.339,"cumulative_distance_km":66.528,"amap_marker_url":"https://uri.amap.com/marker?position=118.134010,34.939518&name=%E5%8A%A8%E7%89%A9%E5%8C%BB%E9%99%A2&src=vetmap&coordinate=gaode&callnative=1","route_id":"r1","route_name":"第1段","global_order":24}]}