{"summary":{"id":"d00386","province":"山东省","city":"淄博市","district":"淄川区","count":10,"total_distance_km":16.822,"coordinate_system":"GCJ-02 / Amap","generated_at":"2026-05-07 20:21:50"},"rows":[{"name":"贝安鑫宠物诊所","address":"松龄西路南","phone":"15953326803","category":"医疗保健服务;动物医疗场所;宠物诊所","area":"","lng":117.944469,"lat":36.651122,"amap_id":"B0G1LS5VPJ","order":1,"prev_distance_km":0.0,"cumulative_distance_km":0.0,"amap_marker_url":"https://uri.amap.com/marker?position=117.944469,36.651122&name=%E8%B4%9D%E5%AE%89%E9%91%AB%E5%AE%A0%E7%89%A9%E8%AF%8A%E6%89%80&src=vetmap&coordinate=gaode&callnative=1"},{"name":"宠悦动物医院","address":"般阳路街道城里社区上湖御园5号商住楼","phone":"19577715566","category":"医疗保健服务;动物医疗场所;宠物诊所","area":"般阳路","lng":117.960957,"lat":36.642921,"amap_id":"B0LRRZKL8Q","order":2,"prev_distance_km":1.731,"cumulative_distance_km":1.731,"amap_marker_url":"https://uri.amap.com/marker?position=117.960957,36.642921&name=%E5%AE%A0%E6%82%A6%E5%8A%A8%E7%89%A9%E5%8C%BB%E9%99%A2&src=vetmap&coordinate=gaode&callnative=1"},{"name":"爱心宝贝宠物医院(吉祥广场店)","address":"淄城东路g2-29号附近","phone":"","category":"医疗保健服务;动物医疗场所;宠物诊所","area":"","lng":117.975038,"lat":36.654782,"amap_id":"B0FFIQ0BXI","order":3,"prev_distance_km":1.821,"cumulative_distance_km":3.552,"amap_marker_url":"https://uri.amap.com/marker?position=117.975038,36.654782&name=%E7%88%B1%E5%BF%83%E5%AE%9D%E8%B4%9D%E5%AE%A0%E7%89%A9%E5%8C%BB%E9%99%A2%28%E5%90%89%E7%A5%A5%E5%B9%BF%E5%9C%BA%E5%BA%97%29&src=vetmap&coordinate=gaode&callnative=1"},{"name":"大成宠物医院(龙井街店)","address":"般阳路街道城里大街509号","phone":"0533-5279991;15166087505","category":"医疗保健服务;动物医疗场所;宠物诊所","area":"般阳路","lng":117.978429,"lat":36.642451,"amap_id":"B0215048XL","order":4,"prev_distance_km":1.404,"cumulative_distance_km":4.956,"amap_marker_url":"https://uri.amap.com/marker?position=117.978429,36.642451&name=%E5%A4%A7%E6%88%90%E5%AE%A0%E7%89%A9%E5%8C%BB%E9%99%A2%28%E9%BE%99%E4%BA%95%E8%A1%97%E5%BA%97%29&src=vetmap&coordinate=gaode&callnative=1"},{"name":"御爱宠物诊所","address":"城里大街与龙井街交叉口东140米","phone":"","category":"医疗保健服务;动物医疗场所;宠物诊所","area":"般阳路","lng":117.979922,"lat":36.642024,"amap_id":"B0J03SWAME","order":5,"prev_distance_km":0.141,"cumulative_distance_km":5.098,"amap_marker_url":"https://uri.amap.com/marker?position=117.979922,36.642024&name=%E5%BE%A1%E7%88%B1%E5%AE%A0%E7%89%A9%E8%AF%8A%E6%89%80&src=vetmap&coordinate=gaode&callnative=1"},{"name":"博爱宠物诊所","address":"城里大街与龙井街交叉口东140米","phone":"","category":"医疗保健服务;动物医疗场所;宠物诊所","area":"般阳路","lng":117.979953,"lat":36.641961,"amap_id":"B0K3TXQ383","order":6,"prev_distance_km":0.008,"cumulative_distance_km":5.105,"amap_marker_url":"https://uri.amap.com/marker?position=117.979953,36.641961&name=%E5%8D%9A%E7%88%B1%E5%AE%A0%E7%89%A9%E8%AF%8A%E6%89%80&src=vetmap&coordinate=gaode&callnative=1"},{"name":"晟欣宠物诊所","address":"紫薇花苑东南门旁","phone":"15206616818","category":"医疗保健服务;动物医疗场所;宠物诊所","area":"","lng":117.991025,"lat":36.62618,"amap_id":"B0FFH2MSR6","order":7,"prev_distance_km":2.014,"cumulative_distance_km":7.119,"amap_marker_url":"https://uri.amap.com/marker?position=117.991025,36.626180&name=%E6%99%9F%E6%AC%A3%E5%AE%A0%E7%89%A9%E8%AF%8A%E6%89%80&src=vetmap&coordinate=gaode&callnative=1"},{"name":"淄博泰坤宠物医院","address":"将军东路209号甲21号","phone":"15564448584;18560322790","category":"医疗保健服务;动物医疗场所;宠物诊所","area":"","lng":117.968792,"lat":36.631624,"amap_id":"B0FFLID6G3","order":8,"prev_distance_km":2.074,"cumulative_distance_km":9.193,"amap_marker_url":"https://uri.amap.com/marker?position=117.968792,36.631624&name=%E6%B7%84%E5%8D%9A%E6%B3%B0%E5%9D%A4%E5%AE%A0%E7%89%A9%E5%8C%BB%E9%99%A2&src=vetmap&coordinate=gaode&callnative=1"},{"name":"国旺宠物","address":"晟地路与淄城路交叉口东南200米","phone":"","category":"医疗保健服务;动物医疗场所;动物医疗场所","area":"","lng":117.916208,"lat":36.582387,"amap_id":"B0J30C7EPN","order":9,"prev_distance_km":7.211,"cumulative_distance_km":16.405,"amap_marker_url":"https://uri.amap.com/marker?position=117.916208,36.582387&name=%E5%9B%BD%E6%97%BA%E5%AE%A0%E7%89%A9&src=vetmap&coordinate=gaode&callnative=1"},{"name":"航爱动物服务中心","address":"昆仑镇昆仑路179号","phone":"15689307287","category":"医疗保健服务;动物医疗场所;宠物诊所","area":"","lng":117.911535,"lat":36.582263,"amap_id":"B0L2Y7WMCD","order":10,"prev_distance_km":0.417,"cumulative_distance_km":16.822,"amap_marker_url":"https://uri.amap.com/marker?position=117.911535,36.582263&name=%E8%88%AA%E7%88%B1%E5%8A%A8%E7%89%A9%E6%9C%8D%E5%8A%A1%E4%B8%AD%E5%BF%83&src=vetmap&coordinate=gaode&callnative=1"}]}