{"summary":{"id":"d00349","province":"山东省","city":"枣庄市","district":"滕州市","count":34,"total_distance_km":100.885,"coordinate_system":"GCJ-02 / Amap","generated_at":"2026-05-07 19:56:16"},"rows":[{"name":"东古兽医门诊","address":"滨湖镇104省道","phone":"13062085629","category":"医疗保健服务;动物医疗场所;兽医站","area":"","lng":116.860769,"lat":35.145934,"amap_id":"B0GU7BDQXP","order":1,"prev_distance_km":0.0,"cumulative_distance_km":0.0,"amap_marker_url":"https://uri.amap.com/marker?position=116.860769,35.145934&name=%E4%B8%9C%E5%8F%A4%E5%85%BD%E5%8C%BB%E9%97%A8%E8%AF%8A&src=vetmap&coordinate=gaode&callnative=1"},{"name":"滕州市动物检疫申报点","address":"","phone":"","category":"医疗保健服务;动物医疗场所;动物医疗场所","area":"","lng":116.930967,"lat":35.082856,"amap_id":"B0FFG4JHD4","order":2,"prev_distance_km":9.485,"cumulative_distance_km":9.485,"amap_marker_url":"https://uri.amap.com/marker?position=116.930967,35.082856&name=%E6%BB%95%E5%B7%9E%E5%B8%82%E5%8A%A8%E7%89%A9%E6%A3%80%E7%96%AB%E7%94%B3%E6%8A%A5%E7%82%B9&src=vetmap&coordinate=gaode&callnative=1"},{"name":"滕州市级索镇畜牧兽医服务站","address":"临港街与泰源路交叉口西南40米","phone":"","category":"医疗保健服务;动物医疗场所;兽医站","area":"","lng":117.010142,"lat":35.026428,"amap_id":"B02780QTZK","order":3,"prev_distance_km":9.556,"cumulative_distance_km":19.041,"amap_marker_url":"https://uri.amap.com/marker?position=117.010142,35.026428&name=%E6%BB%95%E5%B7%9E%E5%B8%82%E7%BA%A7%E7%B4%A2%E9%95%87%E7%95%9C%E7%89%A7%E5%85%BD%E5%8C%BB%E6%9C%8D%E5%8A%A1%E7%AB%99&src=vetmap&coordinate=gaode&callnative=1"},{"name":"滕州市动物检疫申报点","address":"枣济公路北50米","phone":"","category":"医疗保健服务;动物医疗场所;动物医疗场所","area":"","lng":117.070768,"lat":35.094246,"amap_id":"B0FFG7JF33","order":4,"prev_distance_km":9.344,"cumulative_distance_km":28.385,"amap_marker_url":"https://uri.amap.com/marker?position=117.070768,35.094246&name=%E6%BB%95%E5%B7%9E%E5%B8%82%E5%8A%A8%E7%89%A9%E6%A3%80%E7%96%AB%E7%94%B3%E6%8A%A5%E7%82%B9&src=vetmap&coordinate=gaode&callnative=1"},{"name":"宠物美容生活馆","address":"兴盟大道与鲁班大道交叉口西380米","phone":"","category":"医疗保健服务;动物医疗场所;动物医疗场所|购物服务;专卖店;宠物用品店","area":"","lng":117.119525,"lat":35.078125,"amap_id":"B0MBN6RV72","order":5,"prev_distance_km":4.785,"cumulative_distance_km":33.17,"amap_marker_url":"https://uri.amap.com/marker?position=117.119525,35.078125&name=%E5%AE%A0%E7%89%A9%E7%BE%8E%E5%AE%B9%E7%94%9F%E6%B4%BB%E9%A6%86&src=vetmap&coordinate=gaode&callnative=1"},{"name":"虹桥兽药批发","address":"解放西路美明嘉苑二期西侧10号营业房","phone":"13371127009","category":"医疗保健服务;动物医疗场所;宠物诊所","area":"","lng":117.144536,"lat":35.090135,"amap_id":"B0FFIT9AVP","order":6,"prev_distance_km":2.639,"cumulative_distance_km":35.808,"amap_marker_url":"https://uri.amap.com/marker?position=117.144536,35.090135&name=%E8%99%B9%E6%A1%A5%E5%85%BD%E8%8D%AF%E6%89%B9%E5%8F%91&src=vetmap&coordinate=gaode&callnative=1"},{"name":"众爱宠物医院(至爱宠物诊所)","address":"新兴中路东丽都水岸7号(主街)","phone":"15266160139","category":"医疗保健服务;动物医疗场所;宠物诊所","area":"学院路","lng":117.15688,"lat":35.098092,"amap_id":"B0GU5HUJ49","order":7,"prev_distance_km":1.43,"cumulative_distance_km":37.238,"amap_marker_url":"https://uri.amap.com/marker?position=117.156880,35.098092&name=%E4%BC%97%E7%88%B1%E5%AE%A0%E7%89%A9%E5%8C%BB%E9%99%A2%28%E8%87%B3%E7%88%B1%E5%AE%A0%E7%89%A9%E8%AF%8A%E6%89%80%29&src=vetmap&coordinate=gaode&callnative=1"},{"name":"爱牧宠物医疗","address":"学院中路与塔寺北路交叉口西南100米","phone":"15866217590","category":"医疗保健服务;动物医疗场所;宠物诊所","area":"学院路","lng":117.170174,"lat":35.099872,"amap_id":"B0FFKBIFVH","order":8,"prev_distance_km":1.226,"cumulative_distance_km":38.464,"amap_marker_url":"https://uri.amap.com/marker?position=117.170174,35.099872&name=%E7%88%B1%E7%89%A7%E5%AE%A0%E7%89%A9%E5%8C%BB%E7%96%97&src=vetmap&coordinate=gaode&callnative=1"},{"name":"心仪动物医院·绝育中心(塔寺路分院)","address":"龙泉街道塔寺路北大洋楼明德园4号楼4-114-12","phone":"18560218019","category":"医疗保健服务;动物医疗场所;宠物诊所","area":"学院路","lng":117.171232,"lat":35.102577,"amap_id":"B0JDFDX235","order":9,"prev_distance_km":0.316,"cumulative_distance_km":38.779,"amap_marker_url":"https://uri.amap.com/marker?position=117.171232,35.102577&name=%E5%BF%83%E4%BB%AA%E5%8A%A8%E7%89%A9%E5%8C%BB%E9%99%A2%C2%B7%E7%BB%9D%E8%82%B2%E4%B8%AD%E5%BF%83%28%E5%A1%94%E5%AF%BA%E8%B7%AF%E5%88%86%E9%99%A2%29&src=vetmap&coordinate=gaode&callnative=1"},{"name":"佰川动物医院","address":"龙泉街道科圣路和家园小区北门","phone":"18613655526;19062888004","category":"医疗保健服务;动物医疗场所;宠物诊所","area":"学院路","lng":117.177686,"lat":35.105683,"amap_id":"B0L35ZEF5T","order":10,"prev_distance_km":0.681,"cumulative_distance_km":39.461,"amap_marker_url":"https://uri.amap.com/marker?position=117.177686,35.105683&name=%E4%BD%B0%E5%B7%9D%E5%8A%A8%E7%89%A9%E5%8C%BB%E9%99%A2&src=vetmap&coordinate=gaode&callnative=1"},{"name":"康乐宠物医院疗","address":"北辛路通盛花园小区东门D区108商铺","phone":"13863253457","category":"医疗保健服务;动物医疗场所;宠物诊所","area":"","lng":117.176118,"lat":35.113986,"amap_id":"B0FFM1TWN8","order":11,"prev_distance_km":0.934,"cumulative_distance_km":40.395,"amap_marker_url":"https://uri.amap.com/marker?position=117.176118,35.113986&name=%E5%BA%B7%E4%B9%90%E5%AE%A0%E7%89%A9%E5%8C%BB%E9%99%A2%E7%96%97&src=vetmap&coordinate=gaode&callnative=1"},{"name":"米佑宠物","address":"保利海德佳园和园S042号营业房","phone":"","category":"医疗保健服务;动物医疗场所;动物医疗场所","area":"","lng":117.194408,"lat":35.108449,"amap_id":"B0M61ZGFPT","order":12,"prev_distance_km":1.774,"cumulative_distance_km":42.169,"amap_marker_url":"https://uri.amap.com/marker?position=117.194408,35.108449&name=%E7%B1%B3%E4%BD%91%E5%AE%A0%E7%89%A9&src=vetmap&coordinate=gaode&callnative=1"},{"name":"宠安宠物诊疗","address":"北辛东路70号","phone":"15163260253","category":"医疗保健服务;动物医疗场所;宠物诊所","area":"","lng":117.1966,"lat":35.108462,"amap_id":"B0LAVZ5SOI","order":13,"prev_distance_km":0.199,"cumulative_distance_km":42.368,"amap_marker_url":"https://uri.amap.com/marker?position=117.196600,35.108462&name=%E5%AE%A0%E5%AE%89%E5%AE%A0%E7%89%A9%E8%AF%8A%E7%96%97&src=vetmap&coordinate=gaode&callnative=1"},{"name":"滕州市时光宠物服务中心","address":"北辛街道S313省道于岗居6号","phone":"15621835721","category":"医疗保健服务;动物医疗场所;宠物诊所","area":"","lng":117.205208,"lat":35.121982,"amap_id":"B0L2CSHIOZ","order":14,"prev_distance_km":1.695,"cumulative_distance_km":44.063,"amap_marker_url":"https://uri.amap.com/marker?position=117.205208,35.121982&name=%E6%BB%95%E5%B7%9E%E5%B8%82%E6%97%B6%E5%85%89%E5%AE%A0%E7%89%A9%E6%9C%8D%E5%8A%A1%E4%B8%AD%E5%BF%83&src=vetmap&coordinate=gaode&callnative=1"},{"name":"滕州市动物检疫申报点","address":"振兴路与洪河路交叉口北80米","phone":"13863235446;15263247878","category":"医疗保健服务;动物医疗场所;动物医疗场所","area":"","lng":117.232643,"lat":35.095513,"amap_id":"B0FFG7EW79","order":15,"prev_distance_km":3.859,"cumulative_distance_km":47.922,"amap_marker_url":"https://uri.amap.com/marker?position=117.232643,35.095513&name=%E6%BB%95%E5%B7%9E%E5%B8%82%E5%8A%A8%E7%89%A9%E6%A3%80%E7%96%AB%E7%94%B3%E6%8A%A5%E7%82%B9&src=vetmap&coordinate=gaode&callnative=1"},{"name":"好伙伴宠物医院","address":"荆河东路656-11百合花园小区门口东50米营业房","phone":"18963260528","category":"医疗保健服务;动物医疗场所;宠物诊所","area":"府前路","lng":117.184311,"lat":35.082491,"amap_id":"B0GKDMQ462","order":16,"prev_distance_km":4.63,"cumulative_distance_km":52.552,"amap_marker_url":"https://uri.amap.com/marker?position=117.184311,35.082491&name=%E5%A5%BD%E4%BC%99%E4%BC%B4%E5%AE%A0%E7%89%A9%E5%8C%BB%E9%99%A2&src=vetmap&coordinate=gaode&callnative=1"},{"name":"旺旺宠物医院(塔寺中路)","address":"龙泉苑东门旁","phone":"0632-5621939","category":"医疗保健服务;动物医疗场所;宠物诊所","area":"府前路","lng":117.172154,"lat":35.08583,"amap_id":"B02780QL6Y","order":17,"prev_distance_km":1.167,"cumulative_distance_km":53.719,"amap_marker_url":"https://uri.amap.com/marker?position=117.172154,35.085830&name=%E6%97%BA%E6%97%BA%E5%AE%A0%E7%89%A9%E5%8C%BB%E9%99%A2%28%E5%A1%94%E5%AF%BA%E4%B8%AD%E8%B7%AF%29&src=vetmap&coordinate=gaode&callnative=1"},{"name":"百灵鸟动物医院","address":"人和天地西北3门旁","phone":"16511565666","category":"医疗保健服务;动物医疗场所;宠物诊所","area":"","lng":117.175697,"lat":35.091727,"amap_id":"B0FFL3L315","order":18,"prev_distance_km":0.731,"cumulative_distance_km":54.449,"amap_marker_url":"https://uri.amap.com/marker?position=117.175697,35.091727&name=%E7%99%BE%E7%81%B5%E9%B8%9F%E5%8A%A8%E7%89%A9%E5%8C%BB%E9%99%A2&src=vetmap&coordinate=gaode&callnative=1"},{"name":"派多格宠物医院(滕州旗舰店)","address":"解放中路中央城B区13号","phone":"0632-5566357;13863243657","category":"医疗保健服务;动物医疗场所;宠物诊所","area":"","lng":117.169753,"lat":35.090525,"amap_id":"B0FFFDUAJS","order":19,"prev_distance_km":0.557,"cumulative_distance_km":55.006,"amap_marker_url":"https://uri.amap.com/marker?position=117.169753,35.090525&name=%E6%B4%BE%E5%A4%9A%E6%A0%BC%E5%AE%A0%E7%89%A9%E5%8C%BB%E9%99%A2%28%E6%BB%95%E5%B7%9E%E6%97%97%E8%88%B0%E5%BA%97%29&src=vetmap&coordinate=gaode&callnative=1"},{"name":"心仪动物医院·犬猫全科·内窥镜(滕州中心院)","address":"善国中路与解放中路交叉口西南40米","phone":"18560218079","category":"医疗保健服务;动物医疗场所;宠物诊所","area":"","lng":117.164698,"lat":35.089929,"amap_id":"B0HDSD7B3S","order":20,"prev_distance_km":0.465,"cumulative_distance_km":55.471,"amap_marker_url":"https://uri.amap.com/marker?position=117.164698,35.089929&name=%E5%BF%83%E4%BB%AA%E5%8A%A8%E7%89%A9%E5%8C%BB%E9%99%A2%C2%B7%E7%8A%AC%E7%8C%AB%E5%85%A8%E7%A7%91%C2%B7%E5%86%85%E7%AA%A5%E9%95%9C%28%E6%BB%95%E5%B7%9E%E4%B8%AD%E5%BF%83%E9%99%A2%29&src=vetmap&coordinate=gaode&callnative=1"},{"name":"广慈宠物医院","address":"解放中路","phone":"0632-5252686;13863249405","category":"医疗保健服务;动物医疗场所;宠物诊所","area":"","lng":117.161364,"lat":35.089671,"amap_id":"B0FFGVI8K4","order":21,"prev_distance_km":0.305,"cumulative_distance_km":55.776,"amap_marker_url":"https://uri.amap.com/marker?position=117.161364,35.089671&name=%E5%B9%BF%E6%85%88%E5%AE%A0%E7%89%A9%E5%8C%BB%E9%99%A2&src=vetmap&coordinate=gaode&callnative=1"},{"name":"六福宠物医院","address":"府前路24号附近","phone":"13506320676;13561109109","category":"医疗保健服务;动物医疗场所;宠物诊所","area":"府前路","lng":117.165031,"lat":35.083738,"amap_id":"B0FFGVJML6","order":22,"prev_distance_km":0.739,"cumulative_distance_km":56.515,"amap_marker_url":"https://uri.amap.com/marker?position=117.165031,35.083738&name=%E5%85%AD%E7%A6%8F%E5%AE%A0%E7%89%A9%E5%8C%BB%E9%99%A2&src=vetmap&coordinate=gaode&callnative=1"},{"name":"栖息里宠物大药房(滕州大同路店)","address":"大同中路转盘往南100米路西","phone":"13165218846;19062888686","category":"医疗保健服务;动物医疗场所;宠物诊所","area":"荆河","lng":117.15459,"lat":35.085321,"amap_id":"B0LDDZ7R3G","order":23,"prev_distance_km":0.966,"cumulative_distance_km":57.481,"amap_marker_url":"https://uri.amap.com/marker?position=117.154590,35.085321&name=%E6%A0%96%E6%81%AF%E9%87%8C%E5%AE%A0%E7%89%A9%E5%A4%A7%E8%8D%AF%E6%88%BF%28%E6%BB%95%E5%B7%9E%E5%A4%A7%E5%90%8C%E8%B7%AF%E5%BA%97%29&src=vetmap&coordinate=gaode&callnative=1"},{"name":"宝贝屋宠物医院(平行中路)","address":"平行路","phone":"13969430330","category":"医疗保健服务;动物医疗场所;宠物诊所","area":"荆河","lng":117.150008,"lat":35.083841,"amap_id":"B027800ADB","order":24,"prev_distance_km":0.448,"cumulative_distance_km":57.93,"amap_marker_url":"https://uri.amap.com/marker?position=117.150008,35.083841&name=%E5%AE%9D%E8%B4%9D%E5%B1%8B%E5%AE%A0%E7%89%A9%E5%8C%BB%E9%99%A2%28%E5%B9%B3%E8%A1%8C%E4%B8%AD%E8%B7%AF%29&src=vetmap&coordinate=gaode&callnative=1"},{"name":"康晨宠物医院(平行路店)","address":"平行路9号","phone":"15263211811","category":"医疗保健服务;动物医疗场所;宠物诊所","area":"荆河","lng":117.149809,"lat":35.081308,"amap_id":"B0FFHC4Q3G","order":25,"prev_distance_km":0.282,"cumulative_distance_km":58.212,"amap_marker_url":"https://uri.amap.com/marker?position=117.149809,35.081308&name=%E5%BA%B7%E6%99%A8%E5%AE%A0%E7%89%A9%E5%8C%BB%E9%99%A2%28%E5%B9%B3%E8%A1%8C%E8%B7%AF%E5%BA%97%29&src=vetmap&coordinate=gaode&callnative=1"},{"name":"雅淼硕宠物诊疗","address":"府前路与新兴中路交叉口东60米","phone":"18266250688","category":"医疗保健服务;动物医疗场所;宠物诊所","area":"新兴中路","lng":117.158124,"lat":35.083299,"amap_id":"B0IR35KHZ8","order":26,"prev_distance_km":0.788,"cumulative_distance_km":59.0,"amap_marker_url":"https://uri.amap.com/marker?position=117.158124,35.083299&name=%E9%9B%85%E6%B7%BC%E7%A1%95%E5%AE%A0%E7%89%A9%E8%AF%8A%E7%96%97&src=vetmap&coordinate=gaode&callnative=1"},{"name":"梅奥动物医院","address":"新兴路步行街149号","phone":"","category":"医疗保健服务;动物医疗场所;宠物诊所","area":"荆河","lng":117.15801,"lat":35.082198,"amap_id":"B0LBKU2D6K","order":27,"prev_distance_km":0.123,"cumulative_distance_km":59.123,"amap_marker_url":"https://uri.amap.com/marker?position=117.158010,35.082198&name=%E6%A2%85%E5%A5%A5%E5%8A%A8%E7%89%A9%E5%8C%BB%E9%99%A2&src=vetmap&coordinate=gaode&callnative=1"},{"name":"康牧宠物诊所(问天店)","address":"天客来东区东北门东南90米","phone":"15263223383","category":"医疗保健服务;动物医疗场所;宠物诊所","area":"荆河","lng":117.158826,"lat":35.075107,"amap_id":"B0GK0Y8ELY","order":28,"prev_distance_km":0.792,"cumulative_distance_km":59.915,"amap_marker_url":"https://uri.amap.com/marker?position=117.158826,35.075107&name=%E5%BA%B7%E7%89%A7%E5%AE%A0%E7%89%A9%E8%AF%8A%E6%89%80%28%E9%97%AE%E5%A4%A9%E5%BA%97%29&src=vetmap&coordinate=gaode&callnative=1"},{"name":"萨哈拉宠物门诊","address":"善国南路60号附近","phone":"18363269885","category":"医疗保健服务;动物医疗场所;宠物诊所","area":"","lng":117.168737,"lat":35.071191,"amap_id":"B0FFG7PWID","order":29,"prev_distance_km":1.002,"cumulative_distance_km":60.917,"amap_marker_url":"https://uri.amap.com/marker?position=117.168737,35.071191&name=%E8%90%A8%E5%93%88%E6%8B%89%E5%AE%A0%E7%89%A9%E9%97%A8%E8%AF%8A&src=vetmap&coordinate=gaode&callnative=1"},{"name":"鲍沟镇畜牧兽医服务站","address":"百信药店南80米附近(天宝店)","phone":"","category":"医疗保健服务;动物医疗场所;兽医站","area":"","lng":117.143461,"lat":34.978246,"amap_id":"B0FFG6WXD0","order":30,"prev_distance_km":10.588,"cumulative_distance_km":71.505,"amap_marker_url":"https://uri.amap.com/marker?position=117.143461,34.978246&name=%E9%B2%8D%E6%B2%9F%E9%95%87%E7%95%9C%E7%89%A7%E5%85%BD%E5%8C%BB%E6%9C%8D%E5%8A%A1%E7%AB%99&src=vetmap&coordinate=gaode&callnative=1"},{"name":"官桥镇兽医门诊服务部","address":"344省道家家乐超市旁","phone":"0632-2239522;13181266878","category":"医疗保健服务;动物医疗场所;兽医站","area":"","lng":117.21057,"lat":34.92421,"amap_id":"B0FFKYWDKF","order":31,"prev_distance_km":8.574,"cumulative_distance_km":80.079,"amap_marker_url":"https://uri.amap.com/marker?position=117.210570,34.924210&name=%E5%AE%98%E6%A1%A5%E9%95%87%E5%85%BD%E5%8C%BB%E9%97%A8%E8%AF%8A%E6%9C%8D%E5%8A%A1%E9%83%A8&src=vetmap&coordinate=gaode&callnative=1"},{"name":"羊庄镇兽医站门诊","address":"006县道","phone":"","category":"医疗保健服务;动物医疗场所;兽医站","area":"","lng":117.320418,"lat":34.958431,"amap_id":"B0FFJHT7PY","order":32,"prev_distance_km":10.711,"cumulative_distance_km":90.79,"amap_marker_url":"https://uri.amap.com/marker?position=117.320418,34.958431&name=%E7%BE%8A%E5%BA%84%E9%95%87%E5%85%BD%E5%8C%BB%E7%AB%99%E9%97%A8%E8%AF%8A&src=vetmap&coordinate=gaode&callnative=1"},{"name":"羊庄镇薛河兽医站","address":"羊庄镇903省道","phone":"","category":"医疗保健服务;动物医疗场所;兽医站","area":"","lng":117.374099,"lat":34.957999,"amap_id":"B0FFHD4Z3A","order":33,"prev_distance_km":4.892,"cumulative_distance_km":95.682,"amap_marker_url":"https://uri.amap.com/marker?position=117.374099,34.957999&name=%E7%BE%8A%E5%BA%84%E9%95%87%E8%96%9B%E6%B2%B3%E5%85%BD%E5%8C%BB%E7%AB%99&src=vetmap&coordinate=gaode&callnative=1"},{"name":"滕州市羊庄镇庄里兽医站","address":"006县道与091乡道交叉口北80米","phone":"","category":"医疗保健服务;动物医疗场所;兽医站","area":"","lng":117.389955,"lat":35.002949,"amap_id":"B0JKOSITLJ","order":34,"prev_distance_km":5.203,"cumulative_distance_km":100.885,"amap_marker_url":"https://uri.amap.com/marker?position=117.389955,35.002949&name=%E6%BB%95%E5%B7%9E%E5%B8%82%E7%BE%8A%E5%BA%84%E9%95%87%E5%BA%84%E9%87%8C%E5%85%BD%E5%8C%BB%E7%AB%99&src=vetmap&coordinate=gaode&callnative=1"}]}