{"summary":{"id":"d00363","province":"山东省","city":"济南市","district":"槐荫区","count":33,"total_distance_km":36.162,"coordinate_system":"GCJ-02 / Amap","generated_at":"2026-05-07 20:21:50"},"rows":[{"name":"董依生宠物诊所","address":"腊山街道绿地国际花都三区2号楼2-106","phone":"13188886265","category":"医疗保健服务;动物医疗场所;宠物诊所","area":"","lng":116.898263,"lat":36.623245,"amap_id":"B0H395RKCR","order":1,"prev_distance_km":0.0,"cumulative_distance_km":0.0,"amap_marker_url":"https://uri.amap.com/marker?position=116.898263,36.623245&name=%E8%91%A3%E4%BE%9D%E7%94%9F%E5%AE%A0%E7%89%A9%E8%AF%8A%E6%89%80&src=vetmap&coordinate=gaode&callnative=1"},{"name":"福瑞精灵宠物医院","address":"绿地国际花都四区2-1-104","phone":"18866125693","category":"医疗保健服务;动物医疗场所;宠物诊所","area":"","lng":116.895048,"lat":36.622987,"amap_id":"B0LRC5G49M","order":2,"prev_distance_km":0.288,"cumulative_distance_km":0.288,"amap_marker_url":"https://uri.amap.com/marker?position=116.895048,36.622987&name=%E7%A6%8F%E7%91%9E%E7%B2%BE%E7%81%B5%E5%AE%A0%E7%89%A9%E5%8C%BB%E9%99%A2&src=vetmap&coordinate=gaode&callnative=1"},{"name":"宋氏宠物医院","address":"党杨路","phone":"13361021786","category":"医疗保健服务;动物医疗场所;宠物诊所","area":"","lng":116.892448,"lat":36.632512,"amap_id":"B021307FYC","order":3,"prev_distance_km":1.084,"cumulative_distance_km":1.373,"amap_marker_url":"https://uri.amap.com/marker?position=116.892448,36.632512&name=%E5%AE%8B%E6%B0%8F%E5%AE%A0%E7%89%A9%E5%8C%BB%E9%99%A2&src=vetmap&coordinate=gaode&callnative=1"},{"name":"豪飞宠物","address":"齐州路大杨新区东门南1号商铺外海中学西门对面","phone":"15589980512","category":"医疗保健服务;动物医疗场所;动物医疗场所","area":"","lng":116.898286,"lat":36.646152,"amap_id":"B0J0C59XW7","order":4,"prev_distance_km":1.604,"cumulative_distance_km":2.976,"amap_marker_url":"https://uri.amap.com/marker?position=116.898286,36.646152&name=%E8%B1%AA%E9%A3%9E%E5%AE%A0%E7%89%A9&src=vetmap&coordinate=gaode&callnative=1"},{"name":"则灵宠物医院","address":"经十路馨苑小区3号楼3号商铺","phone":"0531-88288883;15552552087","category":"医疗保健服务;动物医疗场所;宠物诊所","area":"段店","lng":116.938946,"lat":36.651979,"amap_id":"B0FFIYKMQQ","order":5,"prev_distance_km":3.685,"cumulative_distance_km":6.661,"amap_marker_url":"https://uri.amap.com/marker?position=116.938946,36.651979&name=%E5%88%99%E7%81%B5%E5%AE%A0%E7%89%A9%E5%8C%BB%E9%99%A2&src=vetmap&coordinate=gaode&callnative=1"},{"name":"象博士动物医院·复杂内科(槐荫分院)","address":"瑞锦台花园8号楼一单元101室","phone":"19511593317","category":"医疗保健服务;动物医疗场所;宠物诊所","area":"","lng":116.951282,"lat":36.650408,"amap_id":"B0J6N5P4OC","order":6,"prev_distance_km":1.114,"cumulative_distance_km":7.775,"amap_marker_url":"https://uri.amap.com/marker?position=116.951282,36.650408&name=%E8%B1%A1%E5%8D%9A%E5%A3%AB%E5%8A%A8%E7%89%A9%E5%8C%BB%E9%99%A2%C2%B7%E5%A4%8D%E6%9D%82%E5%86%85%E7%A7%91%28%E6%A7%90%E8%8D%AB%E5%88%86%E9%99%A2%29&src=vetmap&coordinate=gaode&callnative=1"},{"name":"爱尚动物医院","address":"经十路25156号瑞欣花园1号口108商铺","phone":"0531-88816361","category":"医疗保健服务;动物医疗场所;宠物诊所","area":"","lng":116.951645,"lat":36.649589,"amap_id":"B0FFINMJ9O","order":7,"prev_distance_km":0.097,"cumulative_distance_km":7.872,"amap_marker_url":"https://uri.amap.com/marker?position=116.951645,36.649589&name=%E7%88%B1%E5%B0%9A%E5%8A%A8%E7%89%A9%E5%8C%BB%E9%99%A2&src=vetmap&coordinate=gaode&callnative=1"},{"name":"瑞康宠物医院","address":"南辛庄西路156号","phone":"13953116700","category":"医疗保健服务;动物医疗场所;宠物诊所","area":"南辛庄","lng":116.960934,"lat":36.637925,"amap_id":"B0FFKDJFP9","order":8,"prev_distance_km":1.539,"cumulative_distance_km":9.411,"amap_marker_url":"https://uri.amap.com/marker?position=116.960934,36.637925&name=%E7%91%9E%E5%BA%B7%E5%AE%A0%E7%89%A9%E5%8C%BB%E9%99%A2&src=vetmap&coordinate=gaode&callnative=1"},{"name":"心仪动物医院·犬猫全科·异宠专科(和协分院)","address":"卧龙路203号阳光100凤凰街2区242","phone":"13001734606","category":"医疗保健服务;动物医疗场所;宠物诊所","area":"阳光100/阳光新路","lng":116.973961,"lat":36.633012,"amap_id":"B0FFJSOBTJ","order":9,"prev_distance_km":1.284,"cumulative_distance_km":10.695,"amap_marker_url":"https://uri.amap.com/marker?position=116.973961,36.633012&name=%E5%BF%83%E4%BB%AA%E5%8A%A8%E7%89%A9%E5%8C%BB%E9%99%A2%C2%B7%E7%8A%AC%E7%8C%AB%E5%85%A8%E7%A7%91%C2%B7%E5%BC%82%E5%AE%A0%E4%B8%93%E7%A7%91%28%E5%92%8C%E5%8D%8F%E5%88%86%E9%99%A2%29&src=vetmap&coordinate=gaode&callnative=1"},{"name":"ITOK瑞派人爱宠物医院","address":"建宁路与中光明街交叉口西40米","phone":"","category":"医疗保健服务;动物医疗场所;宠物诊所","area":"阳光100/阳光新路","lng":116.986075,"lat":36.643525,"amap_id":"B0LA2CN03Y","order":10,"prev_distance_km":1.592,"cumulative_distance_km":12.288,"amap_marker_url":"https://uri.amap.com/marker?position=116.986075,36.643525&name=ITOK%E7%91%9E%E6%B4%BE%E4%BA%BA%E7%88%B1%E5%AE%A0%E7%89%A9%E5%8C%BB%E9%99%A2&src=vetmap&coordinate=gaode&callnative=1"},{"name":"瑞派人爱动物医院(阳光新路店)","address":"水泥厂路24号怡心苑8号楼B段102-24号","phone":"13153183050","category":"医疗保健服务;动物医疗场所;宠物诊所","area":"阳光100/阳光新路","lng":116.982163,"lat":36.643907,"amap_id":"B0FFL5FQVH","order":11,"prev_distance_km":0.352,"cumulative_distance_km":12.639,"amap_marker_url":"https://uri.amap.com/marker?position=116.982163,36.643907&name=%E7%91%9E%E6%B4%BE%E4%BA%BA%E7%88%B1%E5%8A%A8%E7%89%A9%E5%8C%BB%E9%99%A2%28%E9%98%B3%E5%85%89%E6%96%B0%E8%B7%AF%E5%BA%97%29&src=vetmap&coordinate=gaode&callnative=1"},{"name":"阳光宠物管家","address":"振兴街街道经七路857号阳光大姐大厦8层","phone":"13864196018","category":"医疗保健服务;动物医疗场所;动物医疗场所","area":"振兴街","lng":116.970324,"lat":36.649947,"amap_id":"B0KKVH5L3C","order":12,"prev_distance_km":1.252,"cumulative_distance_km":13.891,"amap_marker_url":"https://uri.amap.com/marker?position=116.970324,36.649947&name=%E9%98%B3%E5%85%89%E5%AE%A0%E7%89%A9%E7%AE%A1%E5%AE%B6&src=vetmap&coordinate=gaode&callnative=1"},{"name":"维娅动物医院&异宠&骨科&内窥镜中心(24小时营业)","address":"绿地新城4号楼115室","phone":"15550008373","category":"医疗保健服务;动物医疗场所;宠物诊所","area":"纬十二路","lng":116.974369,"lat":36.655843,"amap_id":"B0GR17XN0J","order":13,"prev_distance_km":0.748,"cumulative_distance_km":14.639,"amap_marker_url":"https://uri.amap.com/marker?position=116.974369,36.655843&name=%E7%BB%B4%E5%A8%85%E5%8A%A8%E7%89%A9%E5%8C%BB%E9%99%A2%26%E5%BC%82%E5%AE%A0%26%E9%AA%A8%E7%A7%91%26%E5%86%85%E7%AA%A5%E9%95%9C%E4%B8%AD%E5%BF%83%2824%E5%B0%8F%E6%97%B6%E8%90%A5%E4%B8%9A%29&src=vetmap&coordinate=gaode&callnative=1"},{"name":"我爱我宠宠物诊所(怡乐园店)","address":"纬七路38号","phone":"18366169120","category":"医疗保健服务;动物医疗场所;宠物诊所","area":"经三路","lng":116.982347,"lat":36.661311,"amap_id":"B0FFKH69G6","order":14,"prev_distance_km":0.936,"cumulative_distance_km":15.575,"amap_marker_url":"https://uri.amap.com/marker?position=116.982347,36.661311&name=%E6%88%91%E7%88%B1%E6%88%91%E5%AE%A0%E5%AE%A0%E7%89%A9%E8%AF%8A%E6%89%80%28%E6%80%A1%E4%B9%90%E5%9B%AD%E5%BA%97%29&src=vetmap&coordinate=gaode&callnative=1"},{"name":"望康宠物医院(群盛华城店)","address":"经一路287-3号","phone":"15288872528","category":"医疗保健服务;动物医疗场所;宠物诊所","area":"纬六路","lng":116.980224,"lat":36.66454,"amap_id":"B0FFHCU3EU","order":15,"prev_distance_km":0.406,"cumulative_distance_km":15.981,"amap_marker_url":"https://uri.amap.com/marker?position=116.980224,36.664540&name=%E6%9C%9B%E5%BA%B7%E5%AE%A0%E7%89%A9%E5%8C%BB%E9%99%A2%28%E7%BE%A4%E7%9B%9B%E5%8D%8E%E5%9F%8E%E5%BA%97%29&src=vetmap&coordinate=gaode&callnative=1"},{"name":"瑞派伴侣宠物医院","address":"槐村街与经四路交叉口东120米","phone":"","category":"医疗保健服务;动物医疗场所;宠物诊所","area":"中大槐树","lng":116.966375,"lat":36.657425,"amap_id":"B0L3ASTKXS","order":16,"prev_distance_km":1.467,"cumulative_distance_km":17.448,"amap_marker_url":"https://uri.amap.com/marker?position=116.966375,36.657425&name=%E7%91%9E%E6%B4%BE%E4%BC%B4%E4%BE%A3%E5%AE%A0%E7%89%A9%E5%8C%BB%E9%99%A2&src=vetmap&coordinate=gaode&callnative=1"},{"name":"心仪动物医院·24h急重症转诊中心·CT核磁·神经外科","address":"经四路西首703号","phone":"18678395020","category":"医疗保健服务;动物医疗场所;宠物诊所","area":"经四路","lng":116.965723,"lat":36.657456,"amap_id":"B0FFJ5LMT7","order":17,"prev_distance_km":0.058,"cumulative_distance_km":17.506,"amap_marker_url":"https://uri.amap.com/marker?position=116.965723,36.657456&name=%E5%BF%83%E4%BB%AA%E5%8A%A8%E7%89%A9%E5%8C%BB%E9%99%A2%C2%B724h%E6%80%A5%E9%87%8D%E7%97%87%E8%BD%AC%E8%AF%8A%E4%B8%AD%E5%BF%83%C2%B7CT%E6%A0%B8%E7%A3%81%C2%B7%E7%A5%9E%E7%BB%8F%E5%A4%96%E7%A7%91&src=vetmap&coordinate=gaode&callnative=1"},{"name":"济南凯恩宠物医院","address":"营市街槐苑欣城1-101B","phone":"15866203980","category":"医疗保健服务;动物医疗场所;宠物诊所","area":"经六路","lng":116.960301,"lat":36.652383,"amap_id":"B0GUG5ZQ7E","order":18,"prev_distance_km":0.743,"cumulative_distance_km":18.249,"amap_marker_url":"https://uri.amap.com/marker?position=116.960301,36.652383&name=%E6%B5%8E%E5%8D%97%E5%87%AF%E6%81%A9%E5%AE%A0%E7%89%A9%E5%8C%BB%E9%99%A2&src=vetmap&coordinate=gaode&callnative=1"},{"name":"禧可宠物","address":"槐荫街90号楼A3号楼2-101","phone":"19531111351","category":"医疗保健服务;动物医疗场所;动物医疗场所","area":"经六路","lng":116.95664,"lat":36.65405,"amap_id":"B0LUGALN0G","order":19,"prev_distance_km":0.376,"cumulative_distance_km":18.625,"amap_marker_url":"https://uri.amap.com/marker?position=116.956640,36.654050&name=%E7%A6%A7%E5%8F%AF%E5%AE%A0%E7%89%A9&src=vetmap&coordinate=gaode&callnative=1"},{"name":"奥纳佳宠物医院","address":"经六路845-2号","phone":"0531-69924088","category":"医疗保健服务;动物医疗场所;宠物诊所","area":"经六路","lng":116.950388,"lat":36.65588,"amap_id":"B0FFIVLGNG","order":20,"prev_distance_km":0.594,"cumulative_distance_km":19.219,"amap_marker_url":"https://uri.amap.com/marker?position=116.950388,36.655880&name=%E5%A5%A5%E7%BA%B3%E4%BD%B3%E5%AE%A0%E7%89%A9%E5%8C%BB%E9%99%A2&src=vetmap&coordinate=gaode&callnative=1"},{"name":"优宠宠物中心","address":"段兴东路7-23号","phone":"18678434345","category":"医疗保健服务;动物医疗场所;宠物诊所","area":"经六路","lng":116.94713,"lat":36.656921,"amap_id":"B0L1VDAHPH","order":21,"prev_distance_km":0.313,"cumulative_distance_km":19.531,"amap_marker_url":"https://uri.amap.com/marker?position=116.947130,36.656921&name=%E4%BC%98%E5%AE%A0%E5%AE%A0%E7%89%A9%E4%B8%AD%E5%BF%83&src=vetmap&coordinate=gaode&callnative=1"},{"name":"宠幸宠物(匡山小区西路店)","address":"幸福街匡山小区54号楼大门口","phone":"18553160270","category":"医疗保健服务;动物医疗场所;动物医疗场所","area":"匡山","lng":116.952125,"lat":36.675533,"amap_id":"B0K31ZLZUW","order":22,"prev_distance_km":2.117,"cumulative_distance_km":21.648,"amap_marker_url":"https://uri.amap.com/marker?position=116.952125,36.675533&name=%E5%AE%A0%E5%B9%B8%E5%AE%A0%E7%89%A9%28%E5%8C%A1%E5%B1%B1%E5%B0%8F%E5%8C%BA%E8%A5%BF%E8%B7%AF%E5%BA%97%29&src=vetmap&coordinate=gaode&callnative=1"},{"name":"珍诺宠物诊所","address":"匡山大街商业房4-103室","phone":"","category":"医疗保健服务;动物医疗场所;宠物诊所","area":"匡山","lng":116.941446,"lat":36.685473,"amap_id":"B0JUOM4MGU","order":23,"prev_distance_km":1.459,"cumulative_distance_km":23.107,"amap_marker_url":"https://uri.amap.com/marker?position=116.941446,36.685473&name=%E7%8F%8D%E8%AF%BA%E5%AE%A0%E7%89%A9%E8%AF%8A%E6%89%80&src=vetmap&coordinate=gaode&callnative=1"},{"name":"心仪动物医院·牙专科·肿瘤·心脏科(西客站院)","address":"恒大世纪广场二期15号楼1单元108","phone":"13306418725","category":"医疗保健服务;动物医疗场所;宠物诊所","area":"","lng":116.92558,"lat":36.678426,"amap_id":"B0FFJZN6Z5","order":24,"prev_distance_km":1.617,"cumulative_distance_km":24.725,"amap_marker_url":"https://uri.amap.com/marker?position=116.925580,36.678426&name=%E5%BF%83%E4%BB%AA%E5%8A%A8%E7%89%A9%E5%8C%BB%E9%99%A2%C2%B7%E7%89%99%E4%B8%93%E7%A7%91%C2%B7%E8%82%BF%E7%98%A4%C2%B7%E5%BF%83%E8%84%8F%E7%A7%91%28%E8%A5%BF%E5%AE%A2%E7%AB%99%E9%99%A2%29&src=vetmap&coordinate=gaode&callnative=1"},{"name":"仁仁动物医院","address":"东营路3-101号","phone":"","category":"医疗保健服务;动物医疗场所;宠物诊所","area":"","lng":116.922815,"lat":36.677756,"amap_id":"B0K2RLBZA0","order":25,"prev_distance_km":0.258,"cumulative_distance_km":24.982,"amap_marker_url":"https://uri.amap.com/marker?position=116.922815,36.677756&name=%E4%BB%81%E4%BB%81%E5%8A%A8%E7%89%A9%E5%8C%BB%E9%99%A2&src=vetmap&coordinate=gaode&callnative=1"},{"name":"美联众合动物医院(恒大华府店)","address":"张庄路街道东营路恒大华府二期1号配套商业102室","phone":"15634098872","category":"医疗保健服务;动物医疗场所;宠物诊所","area":"","lng":116.921895,"lat":36.674427,"amap_id":"B0HGCUJK81","order":26,"prev_distance_km":0.379,"cumulative_distance_km":25.361,"amap_marker_url":"https://uri.amap.com/marker?position=116.921895,36.674427&name=%E7%BE%8E%E8%81%94%E4%BC%97%E5%90%88%E5%8A%A8%E7%89%A9%E5%8C%BB%E9%99%A2%28%E6%81%92%E5%A4%A7%E5%8D%8E%E5%BA%9C%E5%BA%97%29&src=vetmap&coordinate=gaode&callnative=1"},{"name":"至善宠物诊所","address":"海亮艺术华府东区1-1-104","phone":"15689723738","category":"医疗保健服务;动物医疗场所;宠物诊所","area":"","lng":116.914837,"lat":36.674837,"amap_id":"B0I09HLSHD","order":27,"prev_distance_km":0.631,"cumulative_distance_km":25.993,"amap_marker_url":"https://uri.amap.com/marker?position=116.914837,36.674837&name=%E8%87%B3%E5%96%84%E5%AE%A0%E7%89%A9%E8%AF%8A%E6%89%80&src=vetmap&coordinate=gaode&callnative=1"},{"name":"贝恩宠动物医院","address":"腊山河东路西侧恒大御峰6号楼121商铺","phone":"13406066133","category":"医疗保健服务;动物医疗场所;宠物诊所","area":"","lng":116.911075,"lat":36.681125,"amap_id":"B0H2MZ18ID","order":28,"prev_distance_km":0.776,"cumulative_distance_km":26.768,"amap_marker_url":"https://uri.amap.com/marker?position=116.911075,36.681125&name=%E8%B4%9D%E6%81%A9%E5%AE%A0%E5%8A%A8%E7%89%A9%E5%8C%BB%E9%99%A2&src=vetmap&coordinate=gaode&callnative=1"},{"name":"济南格莱美动物医院","address":"泰安路与青岛路交叉口西北角恒大城市之光B座商业裙楼105","phone":"0531-81614161;15562466120","category":"医疗保健服务;动物医疗场所;宠物诊所","area":"","lng":116.902383,"lat":36.680885,"amap_id":"B0FFJMQED1","order":29,"prev_distance_km":0.776,"cumulative_distance_km":27.544,"amap_marker_url":"https://uri.amap.com/marker?position=116.902383,36.680885&name=%E6%B5%8E%E5%8D%97%E6%A0%BC%E8%8E%B1%E7%BE%8E%E5%8A%A8%E7%89%A9%E5%8C%BB%E9%99%A2&src=vetmap&coordinate=gaode&callnative=1"},{"name":"象博士动物医院(弘阳分院)","address":"泰安路1665号","phone":"19511593317","category":"医疗保健服务;动物医疗场所;宠物诊所","area":"","lng":116.902338,"lat":36.675545,"amap_id":"B0I11589LD","order":30,"prev_distance_km":0.594,"cumulative_distance_km":28.137,"amap_marker_url":"https://uri.amap.com/marker?position=116.902338,36.675545&name=%E8%B1%A1%E5%8D%9A%E5%A3%AB%E5%8A%A8%E7%89%A9%E5%8C%BB%E9%99%A2%28%E5%BC%98%E9%98%B3%E5%88%86%E9%99%A2%29&src=vetmap&coordinate=gaode&callnative=1"},{"name":"安之宠物诊疗中心","address":"杨柳春风杨柳郡东门27号商铺","phone":"18253193303","category":"医疗保健服务;动物医疗场所;宠物诊所","area":"","lng":116.88507,"lat":36.681346,"amap_id":"B0KA9AM3CZ","order":31,"prev_distance_km":1.67,"cumulative_distance_km":29.807,"amap_marker_url":"https://uri.amap.com/marker?position=116.885070,36.681346&name=%E5%AE%89%E4%B9%8B%E5%AE%A0%E7%89%A9%E8%AF%8A%E7%96%97%E4%B8%AD%E5%BF%83&src=vetmap&coordinate=gaode&callnative=1"},{"name":"宠生堂","address":"济齐路273号","phone":"15753188808","category":"医疗保健服务;动物医疗场所;动物医疗场所","area":"","lng":116.886096,"lat":36.707868,"amap_id":"B0LKN6O6RX","order":32,"prev_distance_km":2.951,"cumulative_distance_km":32.758,"amap_marker_url":"https://uri.amap.com/marker?position=116.886096,36.707868&name=%E5%AE%A0%E7%94%9F%E5%A0%82&src=vetmap&coordinate=gaode&callnative=1"},{"name":"济南乐宠益家宠物医院","address":"美里路555号海那城总部21号楼103-105","phone":"18596086073","category":"医疗保健服务;动物医疗场所;宠物诊所","area":"","lng":116.9206,"lat":36.720995,"amap_id":"B0K6JZXO2F","order":33,"prev_distance_km":3.404,"cumulative_distance_km":36.162,"amap_marker_url":"https://uri.amap.com/marker?position=116.920600,36.720995&name=%E6%B5%8E%E5%8D%97%E4%B9%90%E5%AE%A0%E7%9B%8A%E5%AE%B6%E5%AE%A0%E7%89%A9%E5%8C%BB%E9%99%A2&src=vetmap&coordinate=gaode&callnative=1"}]}