{"summary":{"id":"d00318","province":"山东省","city":"临沂市","district":"沂南县","count":22,"route_count":1,"max_route_clinics":22,"total_distance_km":114.524,"coordinate_system":"GCJ-02 / Amap","generated_at":"2026-05-08 19:41:58"},"routes":[{"id":"r1","name":"第1段","count":22,"total_distance_km":114.524,"rows":[{"name":"沂南县岸堤畜牧兽医站","address":"延安路7号","phone":"","category":"医疗保健服务;动物医疗场所;兽医站","area":"","lng":118.213591,"lat":35.663908,"amap_id":"B0J0M7UBD4","order":1,"prev_distance_km":0.0,"cumulative_distance_km":0.0,"amap_marker_url":"https://uri.amap.com/marker?position=118.213591,35.663908&name=%E6%B2%82%E5%8D%97%E5%8E%BF%E5%B2%B8%E5%A0%A4%E7%95%9C%E7%89%A7%E5%85%BD%E5%8C%BB%E7%AB%99&src=vetmap&coordinate=gaode&callnative=1","route_id":"r1","route_name":"第1段"},{"name":"沂南县马牧池畜牧兽医站","address":"云快充汽车充电站(马牧池供销社加油站充电桩)西北侧250米","phone":"","category":"医疗保健服务;动物医疗场所;兽医站","area":"","lng":118.277588,"lat":35.657638,"amap_id":"B0J1YMGP9G","order":2,"prev_distance_km":5.824,"cumulative_distance_km":5.824,"amap_marker_url":"https://uri.amap.com/marker?position=118.277588,35.657638&name=%E6%B2%82%E5%8D%97%E5%8E%BF%E9%A9%AC%E7%89%A7%E6%B1%A0%E7%95%9C%E7%89%A7%E5%85%BD%E5%8C%BB%E7%AB%99&src=vetmap&coordinate=gaode&callnative=1","route_id":"r1","route_name":"第1段"},{"name":"沂南县依汶畜牧兽医站","address":"汶河一路北侧","phone":"15020396258","category":"医疗保健服务;动物医疗场所;兽医站","area":"","lng":118.34912,"lat":35.611242,"amap_id":"B0HRDBWMRM","order":3,"prev_distance_km":8.271,"cumulative_distance_km":14.094,"amap_marker_url":"https://uri.amap.com/marker?position=118.349120,35.611242&name=%E6%B2%82%E5%8D%97%E5%8E%BF%E4%BE%9D%E6%B1%B6%E7%95%9C%E7%89%A7%E5%85%BD%E5%8C%BB%E7%AB%99&src=vetmap&coordinate=gaode&callnative=1","route_id":"r1","route_name":"第1段"},{"name":"沂南县农业农村局孙祖畜牧兽医站","address":"孙祖镇人民政府西南侧170米","phone":"","category":"医疗保健服务;动物医疗场所;兽医站","area":"","lng":118.339118,"lat":35.518121,"amap_id":"B0HDZL3N9S","order":4,"prev_distance_km":10.394,"cumulative_distance_km":24.489,"amap_marker_url":"https://uri.amap.com/marker?position=118.339118,35.518121&name=%E6%B2%82%E5%8D%97%E5%8E%BF%E5%86%9C%E4%B8%9A%E5%86%9C%E6%9D%91%E5%B1%80%E5%AD%99%E7%A5%96%E7%95%9C%E7%89%A7%E5%85%BD%E5%8C%BB%E7%AB%99&src=vetmap&coordinate=gaode&callnative=1","route_id":"r1","route_name":"第1段"},{"name":"帅克宠物美容中心","address":"澳柯玛大道与汉街南大门交汇处向南500米路东","phone":"13668692536","category":"医疗保健服务;动物医疗场所;宠物诊所","area":"","lng":118.445802,"lat":35.526494,"amap_id":"B0FFGCOAIC","order":5,"prev_distance_km":9.7,"cumulative_distance_km":34.188,"amap_marker_url":"https://uri.amap.com/marker?position=118.445802,35.526494&name=%E5%B8%85%E5%85%8B%E5%AE%A0%E7%89%A9%E7%BE%8E%E5%AE%B9%E4%B8%AD%E5%BF%83&src=vetmap&coordinate=gaode&callnative=1","route_id":"r1","route_name":"第1段"},{"name":"康乐动物门诊","address":"澳柯玛大道与汉街交汇处南200米路东","phone":"15253978531;18754916899","category":"医疗保健服务;动物医疗场所;宠物诊所","area":"","lng":118.444997,"lat":35.530603,"amap_id":"B0HROUJEXC","order":6,"prev_distance_km":0.463,"cumulative_distance_km":34.651,"amap_marker_url":"https://uri.amap.com/marker?position=118.444997,35.530603&name=%E5%BA%B7%E4%B9%90%E5%8A%A8%E7%89%A9%E9%97%A8%E8%AF%8A&src=vetmap&coordinate=gaode&callnative=1","route_id":"r1","route_name":"第1段"},{"name":"沂南爱诺宠物医院","address":"界湖街道人民路与团山路交汇向东100米路南","phone":"15266698197","category":"医疗保健服务;动物医疗场所;宠物诊所","area":"","lng":118.451814,"lat":35.550478,"amap_id":"B0L2MSYFBT","order":7,"prev_distance_km":2.294,"cumulative_distance_km":36.945,"amap_marker_url":"https://uri.amap.com/marker?position=118.451814,35.550478&name=%E6%B2%82%E5%8D%97%E7%88%B1%E8%AF%BA%E5%AE%A0%E7%89%A9%E5%8C%BB%E9%99%A2&src=vetmap&coordinate=gaode&callnative=1","route_id":"r1","route_name":"第1段"},{"name":"常安动物医院","address":"锦绣园南门东50米","phone":"15376019696","category":"医疗保健服务;动物医疗场所;兽医站","area":"界湖","lng":118.458646,"lat":35.543427,"amap_id":"B0K3VZQM8C","order":8,"prev_distance_km":0.998,"cumulative_distance_km":37.944,"amap_marker_url":"https://uri.amap.com/marker?position=118.458646,35.543427&name=%E5%B8%B8%E5%AE%89%E5%8A%A8%E7%89%A9%E5%8C%BB%E9%99%A2&src=vetmap&coordinate=gaode&callnative=1","route_id":"r1","route_name":"第1段"},{"name":"瑞贝安宠物医院","address":"锦绣花园北1门旁","phone":"17661609977","category":"医疗保健服务;动物医疗场所;宠物诊所","area":"","lng":118.471507,"lat":35.538127,"amap_id":"B0FFKEJKH5","order":9,"prev_distance_km":1.304,"cumulative_distance_km":39.248,"amap_marker_url":"https://uri.amap.com/marker?position=118.471507,35.538127&name=%E7%91%9E%E8%B4%9D%E5%AE%89%E5%AE%A0%E7%89%A9%E5%8C%BB%E9%99%A2&src=vetmap&coordinate=gaode&callnative=1","route_id":"r1","route_name":"第1段"},{"name":"鸿丰宠物门诊","address":"正阳路与振兴路交叉路口往东南约100米","phone":"13792403857","category":"医疗保健服务;动物医疗场所;宠物诊所","area":"","lng":118.470758,"lat":35.541941,"amap_id":"B0FFLLDSNP","order":10,"prev_distance_km":0.429,"cumulative_distance_km":39.678,"amap_marker_url":"https://uri.amap.com/marker?position=118.470758,35.541941&name=%E9%B8%BF%E4%B8%B0%E5%AE%A0%E7%89%A9%E9%97%A8%E8%AF%8A&src=vetmap&coordinate=gaode&callnative=1","route_id":"r1","route_name":"第1段"},{"name":"嘟嘟宠物医院","address":"振兴路南村办公楼(广汇集团)东20米路北康宁家园南沿街","phone":"","category":"医疗保健服务;动物医疗场所;宠物诊所","area":"界湖","lng":118.468451,"lat":35.543091,"amap_id":"B0KB4SWTL2","order":11,"prev_distance_km":0.245,"cumulative_distance_km":39.922,"amap_marker_url":"https://uri.amap.com/marker?position=118.468451,35.543091&name=%E5%98%9F%E5%98%9F%E5%AE%A0%E7%89%A9%E5%8C%BB%E9%99%A2&src=vetmap&coordinate=gaode&callnative=1","route_id":"r1","route_name":"第1段"},{"name":"萌康宠物门诊","address":"文化路与正阳路交汇东50米路南","phone":"18369489119","category":"医疗保健服务;动物医疗场所;宠物诊所","area":"","lng":118.471454,"lat":35.551965,"amap_id":"B0I39AY7Y1","order":12,"prev_distance_km":1.023,"cumulative_distance_km":40.946,"amap_marker_url":"https://uri.amap.com/marker?position=118.471454,35.551965&name=%E8%90%8C%E5%BA%B7%E5%AE%A0%E7%89%A9%E9%97%A8%E8%AF%8A&src=vetmap&coordinate=gaode&callnative=1","route_id":"r1","route_name":"第1段"},{"name":"山东中牧兽药苏村镇服务部","address":"沂南县市场监督管理局苏村监管所西南侧","phone":"","category":"医疗保健服务;动物医疗场所;动物医疗场所","area":"","lng":118.577415,"lat":35.604706,"amap_id":"B0JBP99KU1","order":13,"prev_distance_km":11.235,"cumulative_distance_km":52.181,"amap_marker_url":"https://uri.amap.com/marker?position=118.577415,35.604706&name=%E5%B1%B1%E4%B8%9C%E4%B8%AD%E7%89%A7%E5%85%BD%E8%8D%AF%E8%8B%8F%E6%9D%91%E9%95%87%E6%9C%8D%E5%8A%A1%E9%83%A8&src=vetmap&coordinate=gaode&callnative=1","route_id":"r1","route_name":"第1段"},{"name":"沂南县湖头畜牧兽医站","address":"湖头镇卫生院东侧160米","phone":"","category":"医疗保健服务;动物医疗场所;兽医站","area":"","lng":118.658905,"lat":35.585536,"amap_id":"B0FFFXZV3D","order":14,"prev_distance_km":7.67,"cumulative_distance_km":59.851,"amap_marker_url":"https://uri.amap.com/marker?position=118.658905,35.585536&name=%E6%B2%82%E5%8D%97%E5%8E%BF%E6%B9%96%E5%A4%B4%E7%95%9C%E7%89%A7%E5%85%BD%E5%8C%BB%E7%AB%99&src=vetmap&coordinate=gaode&callnative=1","route_id":"r1","route_name":"第1段"},{"name":"沂南县兴王畜牧技术服务站","address":"三蒲线","phone":"","category":"医疗保健服务;动物医疗场所;兽医站","area":"","lng":118.675758,"lat":35.536733,"amap_id":"B0FFGFYAKD","order":15,"prev_distance_km":5.637,"cumulative_distance_km":65.488,"amap_marker_url":"https://uri.amap.com/marker?position=118.675758,35.536733&name=%E6%B2%82%E5%8D%97%E5%8E%BF%E5%85%B4%E7%8E%8B%E7%95%9C%E7%89%A7%E6%8A%80%E6%9C%AF%E6%9C%8D%E5%8A%A1%E7%AB%99&src=vetmap&coordinate=gaode&callnative=1","route_id":"r1","route_name":"第1段"},{"name":"沂南县正大兽药店","address":"蒲汪镇大王庄村","phone":"13165298071","category":"医疗保健服务;动物医疗场所;动物医疗场所","area":"","lng":118.675055,"lat":35.534931,"amap_id":"B0FFFWDKAJ","order":16,"prev_distance_km":0.21,"cumulative_distance_km":65.698,"amap_marker_url":"https://uri.amap.com/marker?position=118.675055,35.534931&name=%E6%B2%82%E5%8D%97%E5%8E%BF%E6%AD%A3%E5%A4%A7%E5%85%BD%E8%8D%AF%E5%BA%97&src=vetmap&coordinate=gaode&callnative=1","route_id":"r1","route_name":"第1段"},{"name":"蒲汪镇动物医院","address":"长虹大道9-9号","phone":"","category":"医疗保健服务;动物医疗场所;宠物诊所","area":"","lng":118.670021,"lat":35.502385,"amap_id":"B0JD5SC6MU","order":17,"prev_distance_km":3.648,"cumulative_distance_km":69.346,"amap_marker_url":"https://uri.amap.com/marker?position=118.670021,35.502385&name=%E8%92%B2%E6%B1%AA%E9%95%87%E5%8A%A8%E7%89%A9%E5%8C%BB%E9%99%A2&src=vetmap&coordinate=gaode&callnative=1","route_id":"r1","route_name":"第1段"},{"name":"蒲汪畜牧兽医站","address":"莒大线与三蒲线交叉口南220米","phone":"","category":"医疗保健服务;动物医疗场所;兽医站","area":"","lng":118.672897,"lat":35.495676,"amap_id":"B0FFFW8KCQ","order":18,"prev_distance_km":0.79,"cumulative_distance_km":70.136,"amap_marker_url":"https://uri.amap.com/marker?position=118.672897,35.495676&name=%E8%92%B2%E6%B1%AA%E7%95%9C%E7%89%A7%E5%85%BD%E5%8C%BB%E7%AB%99&src=vetmap&coordinate=gaode&callnative=1","route_id":"r1","route_name":"第1段"},{"name":"沂南县辛集畜牧兽医站","address":"通达路与文化路交叉口东440米","phone":"","category":"医疗保健服务;动物医疗场所;兽医站","area":"","lng":118.550449,"lat":35.501885,"amap_id":"B0FFLBZ4I6","order":19,"prev_distance_km":11.106,"cumulative_distance_km":81.242,"amap_marker_url":"https://uri.amap.com/marker?position=118.550449,35.501885&name=%E6%B2%82%E5%8D%97%E5%8E%BF%E8%BE%9B%E9%9B%86%E7%95%9C%E7%89%A7%E5%85%BD%E5%8C%BB%E7%AB%99&src=vetmap&coordinate=gaode&callnative=1","route_id":"r1","route_name":"第1段"},{"name":"沂南县祥礼畜禽科技服务部","address":"良沂线南50米","phone":"18669936586","category":"医疗保健服务;动物医疗场所;兽医站","area":"","lng":118.53739,"lat":35.425459,"amap_id":"B0FFGCGNXE","order":20,"prev_distance_km":8.58,"cumulative_distance_km":89.822,"amap_marker_url":"https://uri.amap.com/marker?position=118.537390,35.425459&name=%E6%B2%82%E5%8D%97%E5%8E%BF%E7%A5%A5%E7%A4%BC%E7%95%9C%E7%A6%BD%E7%A7%91%E6%8A%80%E6%9C%8D%E5%8A%A1%E9%83%A8&src=vetmap&coordinate=gaode&callnative=1","route_id":"r1","route_name":"第1段"},{"name":"沂南县张庄镇畜牧兽医站","address":"张庄镇","phone":"","category":"医疗保健服务;动物医疗场所;兽医站","area":"","lng":118.391215,"lat":35.452435,"amap_id":"B0FFG369G9","order":21,"prev_distance_km":13.578,"cumulative_distance_km":103.4,"amap_marker_url":"https://uri.amap.com/marker?position=118.391215,35.452435&name=%E6%B2%82%E5%8D%97%E5%8E%BF%E5%BC%A0%E5%BA%84%E9%95%87%E7%95%9C%E7%89%A7%E5%85%BD%E5%8C%BB%E7%AB%99&src=vetmap&coordinate=gaode&callnative=1","route_id":"r1","route_name":"第1段"},{"name":"沂南县青驼畜牧兽医站","address":"青驼供销合作社东南侧","phone":"","category":"医疗保健服务;动物医疗场所;兽医站","area":"","lng":118.284128,"lat":35.403508,"amap_id":"B021B0ADV2","order":22,"prev_distance_km":11.124,"cumulative_distance_km":114.524,"amap_marker_url":"https://uri.amap.com/marker?position=118.284128,35.403508&name=%E6%B2%82%E5%8D%97%E5%8E%BF%E9%9D%92%E9%A9%BC%E7%95%9C%E7%89%A7%E5%85%BD%E5%8C%BB%E7%AB%99&src=vetmap&coordinate=gaode&callnative=1","route_id":"r1","route_name":"第1段"}]}],"rows":[{"name":"沂南县岸堤畜牧兽医站","address":"延安路7号","phone":"","category":"医疗保健服务;动物医疗场所;兽医站","area":"","lng":118.213591,"lat":35.663908,"amap_id":"B0J0M7UBD4","order":1,"prev_distance_km":0.0,"cumulative_distance_km":0.0,"amap_marker_url":"https://uri.amap.com/marker?position=118.213591,35.663908&name=%E6%B2%82%E5%8D%97%E5%8E%BF%E5%B2%B8%E5%A0%A4%E7%95%9C%E7%89%A7%E5%85%BD%E5%8C%BB%E7%AB%99&src=vetmap&coordinate=gaode&callnative=1","route_id":"r1","route_name":"第1段","global_order":1},{"name":"沂南县马牧池畜牧兽医站","address":"云快充汽车充电站(马牧池供销社加油站充电桩)西北侧250米","phone":"","category":"医疗保健服务;动物医疗场所;兽医站","area":"","lng":118.277588,"lat":35.657638,"amap_id":"B0J1YMGP9G","order":2,"prev_distance_km":5.824,"cumulative_distance_km":5.824,"amap_marker_url":"https://uri.amap.com/marker?position=118.277588,35.657638&name=%E6%B2%82%E5%8D%97%E5%8E%BF%E9%A9%AC%E7%89%A7%E6%B1%A0%E7%95%9C%E7%89%A7%E5%85%BD%E5%8C%BB%E7%AB%99&src=vetmap&coordinate=gaode&callnative=1","route_id":"r1","route_name":"第1段","global_order":2},{"name":"沂南县依汶畜牧兽医站","address":"汶河一路北侧","phone":"15020396258","category":"医疗保健服务;动物医疗场所;兽医站","area":"","lng":118.34912,"lat":35.611242,"amap_id":"B0HRDBWMRM","order":3,"prev_distance_km":8.271,"cumulative_distance_km":14.094,"amap_marker_url":"https://uri.amap.com/marker?position=118.349120,35.611242&name=%E6%B2%82%E5%8D%97%E5%8E%BF%E4%BE%9D%E6%B1%B6%E7%95%9C%E7%89%A7%E5%85%BD%E5%8C%BB%E7%AB%99&src=vetmap&coordinate=gaode&callnative=1","route_id":"r1","route_name":"第1段","global_order":3},{"name":"沂南县农业农村局孙祖畜牧兽医站","address":"孙祖镇人民政府西南侧170米","phone":"","category":"医疗保健服务;动物医疗场所;兽医站","area":"","lng":118.339118,"lat":35.518121,"amap_id":"B0HDZL3N9S","order":4,"prev_distance_km":10.394,"cumulative_distance_km":24.489,"amap_marker_url":"https://uri.amap.com/marker?position=118.339118,35.518121&name=%E6%B2%82%E5%8D%97%E5%8E%BF%E5%86%9C%E4%B8%9A%E5%86%9C%E6%9D%91%E5%B1%80%E5%AD%99%E7%A5%96%E7%95%9C%E7%89%A7%E5%85%BD%E5%8C%BB%E7%AB%99&src=vetmap&coordinate=gaode&callnative=1","route_id":"r1","route_name":"第1段","global_order":4},{"name":"帅克宠物美容中心","address":"澳柯玛大道与汉街南大门交汇处向南500米路东","phone":"13668692536","category":"医疗保健服务;动物医疗场所;宠物诊所","area":"","lng":118.445802,"lat":35.526494,"amap_id":"B0FFGCOAIC","order":5,"prev_distance_km":9.7,"cumulative_distance_km":34.188,"amap_marker_url":"https://uri.amap.com/marker?position=118.445802,35.526494&name=%E5%B8%85%E5%85%8B%E5%AE%A0%E7%89%A9%E7%BE%8E%E5%AE%B9%E4%B8%AD%E5%BF%83&src=vetmap&coordinate=gaode&callnative=1","route_id":"r1","route_name":"第1段","global_order":5},{"name":"康乐动物门诊","address":"澳柯玛大道与汉街交汇处南200米路东","phone":"15253978531;18754916899","category":"医疗保健服务;动物医疗场所;宠物诊所","area":"","lng":118.444997,"lat":35.530603,"amap_id":"B0HROUJEXC","order":6,"prev_distance_km":0.463,"cumulative_distance_km":34.651,"amap_marker_url":"https://uri.amap.com/marker?position=118.444997,35.530603&name=%E5%BA%B7%E4%B9%90%E5%8A%A8%E7%89%A9%E9%97%A8%E8%AF%8A&src=vetmap&coordinate=gaode&callnative=1","route_id":"r1","route_name":"第1段","global_order":6},{"name":"沂南爱诺宠物医院","address":"界湖街道人民路与团山路交汇向东100米路南","phone":"15266698197","category":"医疗保健服务;动物医疗场所;宠物诊所","area":"","lng":118.451814,"lat":35.550478,"amap_id":"B0L2MSYFBT","order":7,"prev_distance_km":2.294,"cumulative_distance_km":36.945,"amap_marker_url":"https://uri.amap.com/marker?position=118.451814,35.550478&name=%E6%B2%82%E5%8D%97%E7%88%B1%E8%AF%BA%E5%AE%A0%E7%89%A9%E5%8C%BB%E9%99%A2&src=vetmap&coordinate=gaode&callnative=1","route_id":"r1","route_name":"第1段","global_order":7},{"name":"常安动物医院","address":"锦绣园南门东50米","phone":"15376019696","category":"医疗保健服务;动物医疗场所;兽医站","area":"界湖","lng":118.458646,"lat":35.543427,"amap_id":"B0K3VZQM8C","order":8,"prev_distance_km":0.998,"cumulative_distance_km":37.944,"amap_marker_url":"https://uri.amap.com/marker?position=118.458646,35.543427&name=%E5%B8%B8%E5%AE%89%E5%8A%A8%E7%89%A9%E5%8C%BB%E9%99%A2&src=vetmap&coordinate=gaode&callnative=1","route_id":"r1","route_name":"第1段","global_order":8},{"name":"瑞贝安宠物医院","address":"锦绣花园北1门旁","phone":"17661609977","category":"医疗保健服务;动物医疗场所;宠物诊所","area":"","lng":118.471507,"lat":35.538127,"amap_id":"B0FFKEJKH5","order":9,"prev_distance_km":1.304,"cumulative_distance_km":39.248,"amap_marker_url":"https://uri.amap.com/marker?position=118.471507,35.538127&name=%E7%91%9E%E8%B4%9D%E5%AE%89%E5%AE%A0%E7%89%A9%E5%8C%BB%E9%99%A2&src=vetmap&coordinate=gaode&callnative=1","route_id":"r1","route_name":"第1段","global_order":9},{"name":"鸿丰宠物门诊","address":"正阳路与振兴路交叉路口往东南约100米","phone":"13792403857","category":"医疗保健服务;动物医疗场所;宠物诊所","area":"","lng":118.470758,"lat":35.541941,"amap_id":"B0FFLLDSNP","order":10,"prev_distance_km":0.429,"cumulative_distance_km":39.678,"amap_marker_url":"https://uri.amap.com/marker?position=118.470758,35.541941&name=%E9%B8%BF%E4%B8%B0%E5%AE%A0%E7%89%A9%E9%97%A8%E8%AF%8A&src=vetmap&coordinate=gaode&callnative=1","route_id":"r1","route_name":"第1段","global_order":10},{"name":"嘟嘟宠物医院","address":"振兴路南村办公楼(广汇集团)东20米路北康宁家园南沿街","phone":"","category":"医疗保健服务;动物医疗场所;宠物诊所","area":"界湖","lng":118.468451,"lat":35.543091,"amap_id":"B0KB4SWTL2","order":11,"prev_distance_km":0.245,"cumulative_distance_km":39.922,"amap_marker_url":"https://uri.amap.com/marker?position=118.468451,35.543091&name=%E5%98%9F%E5%98%9F%E5%AE%A0%E7%89%A9%E5%8C%BB%E9%99%A2&src=vetmap&coordinate=gaode&callnative=1","route_id":"r1","route_name":"第1段","global_order":11},{"name":"萌康宠物门诊","address":"文化路与正阳路交汇东50米路南","phone":"18369489119","category":"医疗保健服务;动物医疗场所;宠物诊所","area":"","lng":118.471454,"lat":35.551965,"amap_id":"B0I39AY7Y1","order":12,"prev_distance_km":1.023,"cumulative_distance_km":40.946,"amap_marker_url":"https://uri.amap.com/marker?position=118.471454,35.551965&name=%E8%90%8C%E5%BA%B7%E5%AE%A0%E7%89%A9%E9%97%A8%E8%AF%8A&src=vetmap&coordinate=gaode&callnative=1","route_id":"r1","route_name":"第1段","global_order":12},{"name":"山东中牧兽药苏村镇服务部","address":"沂南县市场监督管理局苏村监管所西南侧","phone":"","category":"医疗保健服务;动物医疗场所;动物医疗场所","area":"","lng":118.577415,"lat":35.604706,"amap_id":"B0JBP99KU1","order":13,"prev_distance_km":11.235,"cumulative_distance_km":52.181,"amap_marker_url":"https://uri.amap.com/marker?position=118.577415,35.604706&name=%E5%B1%B1%E4%B8%9C%E4%B8%AD%E7%89%A7%E5%85%BD%E8%8D%AF%E8%8B%8F%E6%9D%91%E9%95%87%E6%9C%8D%E5%8A%A1%E9%83%A8&src=vetmap&coordinate=gaode&callnative=1","route_id":"r1","route_name":"第1段","global_order":13},{"name":"沂南县湖头畜牧兽医站","address":"湖头镇卫生院东侧160米","phone":"","category":"医疗保健服务;动物医疗场所;兽医站","area":"","lng":118.658905,"lat":35.585536,"amap_id":"B0FFFXZV3D","order":14,"prev_distance_km":7.67,"cumulative_distance_km":59.851,"amap_marker_url":"https://uri.amap.com/marker?position=118.658905,35.585536&name=%E6%B2%82%E5%8D%97%E5%8E%BF%E6%B9%96%E5%A4%B4%E7%95%9C%E7%89%A7%E5%85%BD%E5%8C%BB%E7%AB%99&src=vetmap&coordinate=gaode&callnative=1","route_id":"r1","route_name":"第1段","global_order":14},{"name":"沂南县兴王畜牧技术服务站","address":"三蒲线","phone":"","category":"医疗保健服务;动物医疗场所;兽医站","area":"","lng":118.675758,"lat":35.536733,"amap_id":"B0FFGFYAKD","order":15,"prev_distance_km":5.637,"cumulative_distance_km":65.488,"amap_marker_url":"https://uri.amap.com/marker?position=118.675758,35.536733&name=%E6%B2%82%E5%8D%97%E5%8E%BF%E5%85%B4%E7%8E%8B%E7%95%9C%E7%89%A7%E6%8A%80%E6%9C%AF%E6%9C%8D%E5%8A%A1%E7%AB%99&src=vetmap&coordinate=gaode&callnative=1","route_id":"r1","route_name":"第1段","global_order":15},{"name":"沂南县正大兽药店","address":"蒲汪镇大王庄村","phone":"13165298071","category":"医疗保健服务;动物医疗场所;动物医疗场所","area":"","lng":118.675055,"lat":35.534931,"amap_id":"B0FFFWDKAJ","order":16,"prev_distance_km":0.21,"cumulative_distance_km":65.698,"amap_marker_url":"https://uri.amap.com/marker?position=118.675055,35.534931&name=%E6%B2%82%E5%8D%97%E5%8E%BF%E6%AD%A3%E5%A4%A7%E5%85%BD%E8%8D%AF%E5%BA%97&src=vetmap&coordinate=gaode&callnative=1","route_id":"r1","route_name":"第1段","global_order":16},{"name":"蒲汪镇动物医院","address":"长虹大道9-9号","phone":"","category":"医疗保健服务;动物医疗场所;宠物诊所","area":"","lng":118.670021,"lat":35.502385,"amap_id":"B0JD5SC6MU","order":17,"prev_distance_km":3.648,"cumulative_distance_km":69.346,"amap_marker_url":"https://uri.amap.com/marker?position=118.670021,35.502385&name=%E8%92%B2%E6%B1%AA%E9%95%87%E5%8A%A8%E7%89%A9%E5%8C%BB%E9%99%A2&src=vetmap&coordinate=gaode&callnative=1","route_id":"r1","route_name":"第1段","global_order":17},{"name":"蒲汪畜牧兽医站","address":"莒大线与三蒲线交叉口南220米","phone":"","category":"医疗保健服务;动物医疗场所;兽医站","area":"","lng":118.672897,"lat":35.495676,"amap_id":"B0FFFW8KCQ","order":18,"prev_distance_km":0.79,"cumulative_distance_km":70.136,"amap_marker_url":"https://uri.amap.com/marker?position=118.672897,35.495676&name=%E8%92%B2%E6%B1%AA%E7%95%9C%E7%89%A7%E5%85%BD%E5%8C%BB%E7%AB%99&src=vetmap&coordinate=gaode&callnative=1","route_id":"r1","route_name":"第1段","global_order":18},{"name":"沂南县辛集畜牧兽医站","address":"通达路与文化路交叉口东440米","phone":"","category":"医疗保健服务;动物医疗场所;兽医站","area":"","lng":118.550449,"lat":35.501885,"amap_id":"B0FFLBZ4I6","order":19,"prev_distance_km":11.106,"cumulative_distance_km":81.242,"amap_marker_url":"https://uri.amap.com/marker?position=118.550449,35.501885&name=%E6%B2%82%E5%8D%97%E5%8E%BF%E8%BE%9B%E9%9B%86%E7%95%9C%E7%89%A7%E5%85%BD%E5%8C%BB%E7%AB%99&src=vetmap&coordinate=gaode&callnative=1","route_id":"r1","route_name":"第1段","global_order":19},{"name":"沂南县祥礼畜禽科技服务部","address":"良沂线南50米","phone":"18669936586","category":"医疗保健服务;动物医疗场所;兽医站","area":"","lng":118.53739,"lat":35.425459,"amap_id":"B0FFGCGNXE","order":20,"prev_distance_km":8.58,"cumulative_distance_km":89.822,"amap_marker_url":"https://uri.amap.com/marker?position=118.537390,35.425459&name=%E6%B2%82%E5%8D%97%E5%8E%BF%E7%A5%A5%E7%A4%BC%E7%95%9C%E7%A6%BD%E7%A7%91%E6%8A%80%E6%9C%8D%E5%8A%A1%E9%83%A8&src=vetmap&coordinate=gaode&callnative=1","route_id":"r1","route_name":"第1段","global_order":20},{"name":"沂南县张庄镇畜牧兽医站","address":"张庄镇","phone":"","category":"医疗保健服务;动物医疗场所;兽医站","area":"","lng":118.391215,"lat":35.452435,"amap_id":"B0FFG369G9","order":21,"prev_distance_km":13.578,"cumulative_distance_km":103.4,"amap_marker_url":"https://uri.amap.com/marker?position=118.391215,35.452435&name=%E6%B2%82%E5%8D%97%E5%8E%BF%E5%BC%A0%E5%BA%84%E9%95%87%E7%95%9C%E7%89%A7%E5%85%BD%E5%8C%BB%E7%AB%99&src=vetmap&coordinate=gaode&callnative=1","route_id":"r1","route_name":"第1段","global_order":21},{"name":"沂南县青驼畜牧兽医站","address":"青驼供销合作社东南侧","phone":"","category":"医疗保健服务;动物医疗场所;兽医站","area":"","lng":118.284128,"lat":35.403508,"amap_id":"B021B0ADV2","order":22,"prev_distance_km":11.124,"cumulative_distance_km":114.524,"amap_marker_url":"https://uri.amap.com/marker?position=118.284128,35.403508&name=%E6%B2%82%E5%8D%97%E5%8E%BF%E9%9D%92%E9%A9%BC%E7%95%9C%E7%89%A7%E5%85%BD%E5%8C%BB%E7%AB%99&src=vetmap&coordinate=gaode&callnative=1","route_id":"r1","route_name":"第1段","global_order":22}]}