{"summary":{"id":"d00377","province":"山东省","city":"济宁市","district":"邹城市","count":17,"total_distance_km":64.993,"coordinate_system":"GCJ-02 / Amap","generated_at":"2026-05-07 20:21:50"},"rows":[{"name":"香城兽医站","address":"香城派出所东侧180米","phone":"","category":"医疗保健服务;动物医疗场所;兽医站","area":"","lng":117.139039,"lat":35.291133,"amap_id":"B0FFGA8IDQ","order":1,"prev_distance_km":0.0,"cumulative_distance_km":0.0,"amap_marker_url":"https://uri.amap.com/marker?position=117.139039,35.291133&name=%E9%A6%99%E5%9F%8E%E5%85%BD%E5%8C%BB%E7%AB%99&src=vetmap&coordinate=gaode&callnative=1"},{"name":"峄山镇畜牧医技术服务站","address":"高明山路与莲花山路交叉口东60米","phone":"","category":"医疗保健服务;动物医疗场所;兽医站","area":"","lng":117.001772,"lat":35.301798,"amap_id":"B0FFHPFC5W","order":2,"prev_distance_km":12.514,"cumulative_distance_km":12.514,"amap_marker_url":"https://uri.amap.com/marker?position=117.001772,35.301798&name=%E5%B3%84%E5%B1%B1%E9%95%87%E7%95%9C%E7%89%A7%E5%8C%BB%E6%8A%80%E6%9C%AF%E6%9C%8D%E5%8A%A1%E7%AB%99&src=vetmap&coordinate=gaode&callnative=1"},{"name":"邹城市兽医院第一门诊部","address":"城前西路36号附近","phone":"","category":"医疗保健服务;动物医疗场所;兽医站","area":"","lng":116.977943,"lat":35.376783,"amap_id":"B02190B01L","order":3,"prev_distance_km":8.614,"cumulative_distance_km":21.127,"amap_marker_url":"https://uri.amap.com/marker?position=116.977943,35.376783&name=%E9%82%B9%E5%9F%8E%E5%B8%82%E5%85%BD%E5%8C%BB%E9%99%A2%E7%AC%AC%E4%B8%80%E9%97%A8%E8%AF%8A%E9%83%A8&src=vetmap&coordinate=gaode&callnative=1"},{"name":"城郊兽医站","address":"峄山南路388号","phone":"13562720300","category":"医疗保健服务;动物医疗场所;兽医站","area":"","lng":116.978781,"lat":35.383145,"amap_id":"B02190AZLI","order":4,"prev_distance_km":0.711,"cumulative_distance_km":21.839,"amap_marker_url":"https://uri.amap.com/marker?position=116.978781,35.383145&name=%E5%9F%8E%E9%83%8A%E5%85%BD%E5%8C%BB%E7%AB%99&src=vetmap&coordinate=gaode&callnative=1"},{"name":"心诺宠物医疗","address":"平阳东路1061号","phone":"19819099581","category":"医疗保健服务;动物医疗场所;宠物诊所","area":"","lng":116.991208,"lat":35.400589,"amap_id":"B0J29C03WH","order":5,"prev_distance_km":2.243,"cumulative_distance_km":24.082,"amap_marker_url":"https://uri.amap.com/marker?position=116.991208,35.400589&name=%E5%BF%83%E8%AF%BA%E5%AE%A0%E7%89%A9%E5%8C%BB%E7%96%97&src=vetmap&coordinate=gaode&callnative=1"},{"name":"正华宠物诊疗","address":"太平东路恒丰银行东","phone":"","category":"医疗保健服务;动物医疗场所;宠物诊所","area":"","lng":116.995213,"lat":35.403702,"amap_id":"B0GR6MYZA7","order":6,"prev_distance_km":0.502,"cumulative_distance_km":24.584,"amap_marker_url":"https://uri.amap.com/marker?position=116.995213,35.403702&name=%E6%AD%A3%E5%8D%8E%E5%AE%A0%E7%89%A9%E8%AF%8A%E7%96%97&src=vetmap&coordinate=gaode&callnative=1"},{"name":"康恒宠物门诊","address":"嘉禾·世纪国宏北1门西80米","phone":"15339929917","category":"医疗保健服务;动物医疗场所;宠物诊所","area":"","lng":117.005966,"lat":35.413056,"amap_id":"B0K6CAWIF8","order":7,"prev_distance_km":1.425,"cumulative_distance_km":26.009,"amap_marker_url":"https://uri.amap.com/marker?position=117.005966,35.413056&name=%E5%BA%B7%E6%81%92%E5%AE%A0%E7%89%A9%E9%97%A8%E8%AF%8A&src=vetmap&coordinate=gaode&callnative=1"},{"name":"蓝牧宠物","address":"钢山街道王兰路1147号","phone":"13355111057;18053767518","category":"医疗保健服务;动物医疗场所;动物医疗场所","area":"","lng":117.01497,"lat":35.412814,"amap_id":"B0JGCCPUJC","order":8,"prev_distance_km":0.816,"cumulative_distance_km":26.825,"amap_marker_url":"https://uri.amap.com/marker?position=117.014970,35.412814&name=%E8%93%9D%E7%89%A7%E5%AE%A0%E7%89%A9&src=vetmap&coordinate=gaode&callnative=1"},{"name":"康贝宠物医院·猫病专科","address":"中心镇富民路银河佳苑南门东侧","phone":"","category":"医疗保健服务;动物医疗场所;宠物诊所","area":"","lng":116.987134,"lat":35.448987,"amap_id":"B0K6YH2IP3","order":9,"prev_distance_km":4.748,"cumulative_distance_km":31.573,"amap_marker_url":"https://uri.amap.com/marker?position=116.987134,35.448987&name=%E5%BA%B7%E8%B4%9D%E5%AE%A0%E7%89%A9%E5%8C%BB%E9%99%A2%C2%B7%E7%8C%AB%E7%97%85%E4%B8%93%E7%A7%91&src=vetmap&coordinate=gaode&callnative=1"},{"name":"康众宠物","address":"康贝宠物医院·猫病专科西侧","phone":"","category":"医疗保健服务;动物医疗场所;宠物诊所","area":"","lng":116.987082,"lat":35.448977,"amap_id":"B0LAOUGZBR","order":10,"prev_distance_km":0.005,"cumulative_distance_km":31.578,"amap_marker_url":"https://uri.amap.com/marker?position=116.987082,35.448977&name=%E5%BA%B7%E4%BC%97%E5%AE%A0%E7%89%A9&src=vetmap&coordinate=gaode&callnative=1"},{"name":"酷迪宠物医院(东滩路店)","address":"东滩路36号","phone":"18678703299","category":"医疗保健服务;动物医疗场所;宠物诊所","area":"","lng":116.968732,"lat":35.407939,"amap_id":"B0FFFGUVHM","order":11,"prev_distance_km":4.857,"cumulative_distance_km":36.434,"amap_marker_url":"https://uri.amap.com/marker?position=116.968732,35.407939&name=%E9%85%B7%E8%BF%AA%E5%AE%A0%E7%89%A9%E5%8C%BB%E9%99%A2%28%E4%B8%9C%E6%BB%A9%E8%B7%AF%E5%BA%97%29&src=vetmap&coordinate=gaode&callnative=1"},{"name":"宠艺宠物","address":"凫山街道营西北路888号九巨龙水景苑21-137门面房","phone":"19547330317","category":"医疗保健服务;动物医疗场所;动物医疗场所","area":"","lng":116.960138,"lat":35.389378,"amap_id":"B0LG4RBNPY","order":12,"prev_distance_km":2.206,"cumulative_distance_km":38.64,"amap_marker_url":"https://uri.amap.com/marker?position=116.960138,35.389378&name=%E5%AE%A0%E8%89%BA%E5%AE%A0%E7%89%A9&src=vetmap&coordinate=gaode&callnative=1"},{"name":"瑞合宠物医院","address":"宏河路188号瑞合宠物医院","phone":"","category":"医疗保健服务;动物医疗场所;宠物诊所","area":"凫山","lng":116.947939,"lat":35.397417,"amap_id":"B0G3P1S086","order":13,"prev_distance_km":1.422,"cumulative_distance_km":40.062,"amap_marker_url":"https://uri.amap.com/marker?position=116.947939,35.397417&name=%E7%91%9E%E5%90%88%E5%AE%A0%E7%89%A9%E5%8C%BB%E9%99%A2&src=vetmap&coordinate=gaode&callnative=1"},{"name":"加菲宠物医院","address":"凫山北路58号","phone":"0537-5210789;15315196111;15666575557","category":"医疗保健服务;动物医疗场所;宠物诊所","area":"凫山","lng":116.9501,"lat":35.40708,"amap_id":"B0FFG4PPJQ","order":14,"prev_distance_km":1.092,"cumulative_distance_km":41.155,"amap_marker_url":"https://uri.amap.com/marker?position=116.950100,35.407080&name=%E5%8A%A0%E8%8F%B2%E5%AE%A0%E7%89%A9%E5%8C%BB%E9%99%A2&src=vetmap&coordinate=gaode&callnative=1"},{"name":"杨师傅动物保健院","address":"宏河路2067号(世纪花苑门西21号底商)","phone":"0537-5212915;18863769961","category":"医疗保健服务;动物医疗场所;动物医疗场所","area":"","lng":116.927044,"lat":35.397431,"amap_id":"B0FFGA8BGS","order":15,"prev_distance_km":2.349,"cumulative_distance_km":43.504,"amap_marker_url":"https://uri.amap.com/marker?position=116.927044,35.397431&name=%E6%9D%A8%E5%B8%88%E5%82%85%E5%8A%A8%E7%89%A9%E4%BF%9D%E5%81%A5%E9%99%A2&src=vetmap&coordinate=gaode&callnative=1"},{"name":"前瓦宠物医院","address":"宏泰路2001号","phone":"13853798098;15554713967","category":"医疗保健服务;动物医疗场所;宠物诊所","area":"","lng":116.90606,"lat":35.376734,"amap_id":"B0LDNDNRGQ","order":16,"prev_distance_km":2.986,"cumulative_distance_km":46.489,"amap_marker_url":"https://uri.amap.com/marker?position=116.906060,35.376734&name=%E5%89%8D%E7%93%A6%E5%AE%A0%E7%89%A9%E5%8C%BB%E9%99%A2&src=vetmap&coordinate=gaode&callnative=1"},{"name":"动物医院","address":"太黄线与邹两路交叉口东58米","phone":"13258046395","category":"医疗保健服务;动物医疗场所;宠物诊所","area":"","lng":116.83035,"lat":35.222222,"amap_id":"B0KRUO4BHM","order":17,"prev_distance_km":18.504,"cumulative_distance_km":64.993,"amap_marker_url":"https://uri.amap.com/marker?position=116.830350,35.222222&name=%E5%8A%A8%E7%89%A9%E5%8C%BB%E9%99%A2&src=vetmap&coordinate=gaode&callnative=1"}]}