{"summary":{"id":"d00488","province":"山西省","city":"太原市","district":"晋源区","count":11,"route_count":1,"max_route_clinics":11,"total_distance_km":21.005,"coordinate_system":"GCJ-02 / Amap","generated_at":"2026-05-08 19:42:41"},"routes":[{"id":"r1","name":"第1段","count":11,"total_distance_km":21.005,"rows":[{"name":"尊宠动物医院","address":"西峪街2号","phone":"18834127733","category":"医疗保健服务;动物医疗场所;宠物诊所","area":"","lng":112.491636,"lat":37.801825,"amap_id":"B0KRT9ZD7T","order":1,"prev_distance_km":0.0,"cumulative_distance_km":0.0,"amap_marker_url":"https://uri.amap.com/marker?position=112.491636,37.801825&name=%E5%B0%8A%E5%AE%A0%E5%8A%A8%E7%89%A9%E5%8C%BB%E9%99%A2&src=vetmap&coordinate=gaode&callnative=1","route_id":"r1","route_name":"第1段"},{"name":"鑫瑞佳宠物医院(富嘉园店)","address":"和平南路富嘉园底商7号商铺","phone":"18635594353","category":"医疗保健服务;动物医疗场所;宠物诊所","area":"义井","lng":112.504934,"lat":37.813,"amap_id":"B0FFKCJX92","order":2,"prev_distance_km":1.706,"cumulative_distance_km":1.706,"amap_marker_url":"https://uri.amap.com/marker?position=112.504934,37.813000&name=%E9%91%AB%E7%91%9E%E4%BD%B3%E5%AE%A0%E7%89%A9%E5%8C%BB%E9%99%A2%28%E5%AF%8C%E5%98%89%E5%9B%AD%E5%BA%97%29&src=vetmap&coordinate=gaode&callnative=1","route_id":"r1","route_name":"第1段"},{"name":"优宠动物诊所","address":"晋祠路与西峪东街交口都市e线C座底商","phone":"13603562348","category":"医疗保健服务;动物医疗场所;宠物诊所","area":"义井","lng":112.513287,"lat":37.810161,"amap_id":"B0LB7ZQ3T5","order":3,"prev_distance_km":0.799,"cumulative_distance_km":2.504,"amap_marker_url":"https://uri.amap.com/marker?position=112.513287,37.810161&name=%E4%BC%98%E5%AE%A0%E5%8A%A8%E7%89%A9%E8%AF%8A%E6%89%80&src=vetmap&coordinate=gaode&callnative=1","route_id":"r1","route_name":"第1段"},{"name":"御宠国际宠物医院(梧桐语店)","address":"保利梧桐语3号-1010","phone":"4006999175","category":"医疗保健服务;动物医疗场所;宠物诊所","area":"","lng":112.519034,"lat":37.797245,"amap_id":"B0HUOAE3FZ","order":4,"prev_distance_km":1.522,"cumulative_distance_km":4.027,"amap_marker_url":"https://uri.amap.com/marker?position=112.519034,37.797245&name=%E5%BE%A1%E5%AE%A0%E5%9B%BD%E9%99%85%E5%AE%A0%E7%89%A9%E5%8C%BB%E9%99%A2%28%E6%A2%A7%E6%A1%90%E8%AF%AD%E5%BA%97%29&src=vetmap&coordinate=gaode&callnative=1","route_id":"r1","route_name":"第1段"},{"name":"康诺动物医院","address":"义井街道康兴路26号6幢1-2层","phone":"18536871995","category":"医疗保健服务;动物医疗场所;宠物诊所","area":"","lng":112.520455,"lat":37.790958,"amap_id":"B0L14R27HJ","order":5,"prev_distance_km":0.71,"cumulative_distance_km":4.737,"amap_marker_url":"https://uri.amap.com/marker?position=112.520455,37.790958&name=%E5%BA%B7%E8%AF%BA%E5%8A%A8%E7%89%A9%E5%8C%BB%E9%99%A2&src=vetmap&coordinate=gaode&callnative=1","route_id":"r1","route_name":"第1段"},{"name":"爱宠立方动物医院","address":"义井街道新晋祠路300号11幢1-2层1010号","phone":"15608265998","category":"医疗保健服务;动物医疗场所;宠物诊所","area":"","lng":112.529021,"lat":37.786187,"amap_id":"B0L16HSCZ2","order":6,"prev_distance_km":0.921,"cumulative_distance_km":5.658,"amap_marker_url":"https://uri.amap.com/marker?position=112.529021,37.786187&name=%E7%88%B1%E5%AE%A0%E7%AB%8B%E6%96%B9%E5%8A%A8%E7%89%A9%E5%8C%BB%E9%99%A2&src=vetmap&coordinate=gaode&callnative=1","route_id":"r1","route_name":"第1段"},{"name":"嘉贝宠物医院(绿地店)","address":"新晋祠路绿地世纪城3期1009","phone":"0351-6119120;15235352444;19935359120","category":"医疗保健服务;动物医疗场所;宠物诊所","area":"","lng":112.531528,"lat":37.785452,"amap_id":"B0FFKU6LKE","order":7,"prev_distance_km":0.235,"cumulative_distance_km":5.893,"amap_marker_url":"https://uri.amap.com/marker?position=112.531528,37.785452&name=%E5%98%89%E8%B4%9D%E5%AE%A0%E7%89%A9%E5%8C%BB%E9%99%A2%28%E7%BB%BF%E5%9C%B0%E5%BA%97%29&src=vetmap&coordinate=gaode&callnative=1","route_id":"r1","route_name":"第1段"},{"name":"惠泽宠物医院","address":"西塞南街28号保利西江月14幢1-2层商铺1010室","phone":"19935103563","category":"医疗保健服务;动物医疗场所;宠物诊所","area":"","lng":112.52738,"lat":37.76229,"amap_id":"B0HKAZGWCU","order":8,"prev_distance_km":2.601,"cumulative_distance_km":8.494,"amap_marker_url":"https://uri.amap.com/marker?position=112.527380,37.762290&name=%E6%83%A0%E6%B3%BD%E5%AE%A0%E7%89%A9%E5%8C%BB%E9%99%A2&src=vetmap&coordinate=gaode&callnative=1","route_id":"r1","route_name":"第1段"},{"name":"宝康宠物诊所","address":"金胜镇贾家庄48号4幢1-2层商铺1003号","phone":"13834510661;15698406884","category":"医疗保健服务;动物医疗场所;宠物诊所","area":"","lng":112.523737,"lat":37.748909,"amap_id":"B0LGDZF2UI","order":9,"prev_distance_km":1.522,"cumulative_distance_km":10.016,"amap_marker_url":"https://uri.amap.com/marker?position=112.523737,37.748909&name=%E5%AE%9D%E5%BA%B7%E5%AE%A0%E7%89%A9%E8%AF%8A%E6%89%80&src=vetmap&coordinate=gaode&callnative=1","route_id":"r1","route_name":"第1段"},{"name":"恩泽宠物医院晋源新区店","address":"小站营A区西南门东100米3号","phone":"15333015639","category":"医疗保健服务;动物医疗场所;宠物诊所","area":"","lng":112.473182,"lat":37.708579,"amap_id":"B0K19UCIJA","order":10,"prev_distance_km":6.315,"cumulative_distance_km":16.331,"amap_marker_url":"https://uri.amap.com/marker?position=112.473182,37.708579&name=%E6%81%A9%E6%B3%BD%E5%AE%A0%E7%89%A9%E5%8C%BB%E9%99%A2%E6%99%8B%E6%BA%90%E6%96%B0%E5%8C%BA%E5%BA%97&src=vetmap&coordinate=gaode&callnative=1","route_id":"r1","route_name":"第1段"},{"name":"牛儿兽药动物诊疗","address":"晋阳大道王郭村村口路西","phone":"13753131127;18835193831","category":"医疗保健服务;动物医疗场所;兽医站","area":"","lng":112.432343,"lat":37.681689,"amap_id":"B0J1Y7MOOX","order":11,"prev_distance_km":4.675,"cumulative_distance_km":21.005,"amap_marker_url":"https://uri.amap.com/marker?position=112.432343,37.681689&name=%E7%89%9B%E5%84%BF%E5%85%BD%E8%8D%AF%E5%8A%A8%E7%89%A9%E8%AF%8A%E7%96%97&src=vetmap&coordinate=gaode&callnative=1","route_id":"r1","route_name":"第1段"}]}],"rows":[{"name":"尊宠动物医院","address":"西峪街2号","phone":"18834127733","category":"医疗保健服务;动物医疗场所;宠物诊所","area":"","lng":112.491636,"lat":37.801825,"amap_id":"B0KRT9ZD7T","order":1,"prev_distance_km":0.0,"cumulative_distance_km":0.0,"amap_marker_url":"https://uri.amap.com/marker?position=112.491636,37.801825&name=%E5%B0%8A%E5%AE%A0%E5%8A%A8%E7%89%A9%E5%8C%BB%E9%99%A2&src=vetmap&coordinate=gaode&callnative=1","route_id":"r1","route_name":"第1段","global_order":1},{"name":"鑫瑞佳宠物医院(富嘉园店)","address":"和平南路富嘉园底商7号商铺","phone":"18635594353","category":"医疗保健服务;动物医疗场所;宠物诊所","area":"义井","lng":112.504934,"lat":37.813,"amap_id":"B0FFKCJX92","order":2,"prev_distance_km":1.706,"cumulative_distance_km":1.706,"amap_marker_url":"https://uri.amap.com/marker?position=112.504934,37.813000&name=%E9%91%AB%E7%91%9E%E4%BD%B3%E5%AE%A0%E7%89%A9%E5%8C%BB%E9%99%A2%28%E5%AF%8C%E5%98%89%E5%9B%AD%E5%BA%97%29&src=vetmap&coordinate=gaode&callnative=1","route_id":"r1","route_name":"第1段","global_order":2},{"name":"优宠动物诊所","address":"晋祠路与西峪东街交口都市e线C座底商","phone":"13603562348","category":"医疗保健服务;动物医疗场所;宠物诊所","area":"义井","lng":112.513287,"lat":37.810161,"amap_id":"B0LB7ZQ3T5","order":3,"prev_distance_km":0.799,"cumulative_distance_km":2.504,"amap_marker_url":"https://uri.amap.com/marker?position=112.513287,37.810161&name=%E4%BC%98%E5%AE%A0%E5%8A%A8%E7%89%A9%E8%AF%8A%E6%89%80&src=vetmap&coordinate=gaode&callnative=1","route_id":"r1","route_name":"第1段","global_order":3},{"name":"御宠国际宠物医院(梧桐语店)","address":"保利梧桐语3号-1010","phone":"4006999175","category":"医疗保健服务;动物医疗场所;宠物诊所","area":"","lng":112.519034,"lat":37.797245,"amap_id":"B0HUOAE3FZ","order":4,"prev_distance_km":1.522,"cumulative_distance_km":4.027,"amap_marker_url":"https://uri.amap.com/marker?position=112.519034,37.797245&name=%E5%BE%A1%E5%AE%A0%E5%9B%BD%E9%99%85%E5%AE%A0%E7%89%A9%E5%8C%BB%E9%99%A2%28%E6%A2%A7%E6%A1%90%E8%AF%AD%E5%BA%97%29&src=vetmap&coordinate=gaode&callnative=1","route_id":"r1","route_name":"第1段","global_order":4},{"name":"康诺动物医院","address":"义井街道康兴路26号6幢1-2层","phone":"18536871995","category":"医疗保健服务;动物医疗场所;宠物诊所","area":"","lng":112.520455,"lat":37.790958,"amap_id":"B0L14R27HJ","order":5,"prev_distance_km":0.71,"cumulative_distance_km":4.737,"amap_marker_url":"https://uri.amap.com/marker?position=112.520455,37.790958&name=%E5%BA%B7%E8%AF%BA%E5%8A%A8%E7%89%A9%E5%8C%BB%E9%99%A2&src=vetmap&coordinate=gaode&callnative=1","route_id":"r1","route_name":"第1段","global_order":5},{"name":"爱宠立方动物医院","address":"义井街道新晋祠路300号11幢1-2层1010号","phone":"15608265998","category":"医疗保健服务;动物医疗场所;宠物诊所","area":"","lng":112.529021,"lat":37.786187,"amap_id":"B0L16HSCZ2","order":6,"prev_distance_km":0.921,"cumulative_distance_km":5.658,"amap_marker_url":"https://uri.amap.com/marker?position=112.529021,37.786187&name=%E7%88%B1%E5%AE%A0%E7%AB%8B%E6%96%B9%E5%8A%A8%E7%89%A9%E5%8C%BB%E9%99%A2&src=vetmap&coordinate=gaode&callnative=1","route_id":"r1","route_name":"第1段","global_order":6},{"name":"嘉贝宠物医院(绿地店)","address":"新晋祠路绿地世纪城3期1009","phone":"0351-6119120;15235352444;19935359120","category":"医疗保健服务;动物医疗场所;宠物诊所","area":"","lng":112.531528,"lat":37.785452,"amap_id":"B0FFKU6LKE","order":7,"prev_distance_km":0.235,"cumulative_distance_km":5.893,"amap_marker_url":"https://uri.amap.com/marker?position=112.531528,37.785452&name=%E5%98%89%E8%B4%9D%E5%AE%A0%E7%89%A9%E5%8C%BB%E9%99%A2%28%E7%BB%BF%E5%9C%B0%E5%BA%97%29&src=vetmap&coordinate=gaode&callnative=1","route_id":"r1","route_name":"第1段","global_order":7},{"name":"惠泽宠物医院","address":"西塞南街28号保利西江月14幢1-2层商铺1010室","phone":"19935103563","category":"医疗保健服务;动物医疗场所;宠物诊所","area":"","lng":112.52738,"lat":37.76229,"amap_id":"B0HKAZGWCU","order":8,"prev_distance_km":2.601,"cumulative_distance_km":8.494,"amap_marker_url":"https://uri.amap.com/marker?position=112.527380,37.762290&name=%E6%83%A0%E6%B3%BD%E5%AE%A0%E7%89%A9%E5%8C%BB%E9%99%A2&src=vetmap&coordinate=gaode&callnative=1","route_id":"r1","route_name":"第1段","global_order":8},{"name":"宝康宠物诊所","address":"金胜镇贾家庄48号4幢1-2层商铺1003号","phone":"13834510661;15698406884","category":"医疗保健服务;动物医疗场所;宠物诊所","area":"","lng":112.523737,"lat":37.748909,"amap_id":"B0LGDZF2UI","order":9,"prev_distance_km":1.522,"cumulative_distance_km":10.016,"amap_marker_url":"https://uri.amap.com/marker?position=112.523737,37.748909&name=%E5%AE%9D%E5%BA%B7%E5%AE%A0%E7%89%A9%E8%AF%8A%E6%89%80&src=vetmap&coordinate=gaode&callnative=1","route_id":"r1","route_name":"第1段","global_order":9},{"name":"恩泽宠物医院晋源新区店","address":"小站营A区西南门东100米3号","phone":"15333015639","category":"医疗保健服务;动物医疗场所;宠物诊所","area":"","lng":112.473182,"lat":37.708579,"amap_id":"B0K19UCIJA","order":10,"prev_distance_km":6.315,"cumulative_distance_km":16.331,"amap_marker_url":"https://uri.amap.com/marker?position=112.473182,37.708579&name=%E6%81%A9%E6%B3%BD%E5%AE%A0%E7%89%A9%E5%8C%BB%E9%99%A2%E6%99%8B%E6%BA%90%E6%96%B0%E5%8C%BA%E5%BA%97&src=vetmap&coordinate=gaode&callnative=1","route_id":"r1","route_name":"第1段","global_order":10},{"name":"牛儿兽药动物诊疗","address":"晋阳大道王郭村村口路西","phone":"13753131127;18835193831","category":"医疗保健服务;动物医疗场所;兽医站","area":"","lng":112.432343,"lat":37.681689,"amap_id":"B0J1Y7MOOX","order":11,"prev_distance_km":4.675,"cumulative_distance_km":21.005,"amap_marker_url":"https://uri.amap.com/marker?position=112.432343,37.681689&name=%E7%89%9B%E5%84%BF%E5%85%BD%E8%8D%AF%E5%8A%A8%E7%89%A9%E8%AF%8A%E7%96%97&src=vetmap&coordinate=gaode&callnative=1","route_id":"r1","route_name":"第1段","global_order":11}]}