{"summary":{"id":"d00427","province":"山东省","city":"菏泽市","district":"单县","count":16,"route_count":1,"max_route_clinics":16,"total_distance_km":75.565,"coordinate_system":"GCJ-02 / Amap","generated_at":"2026-05-07 21:27:34"},"routes":[{"id":"r1","name":"第1段","count":16,"total_distance_km":75.565,"rows":[{"name":"朱集镇畜牧兽医站","address":"亿佳美购物广场西北侧120米","phone":"","category":"医疗保健服务;动物医疗场所;兽医站","area":"","lng":116.354003,"lat":34.654273,"amap_id":"B0FFIT2S4J","order":1,"prev_distance_km":0.0,"cumulative_distance_km":0.0,"amap_marker_url":"https://uri.amap.com/marker?position=116.354003,34.654273&name=%E6%9C%B1%E9%9B%86%E9%95%87%E7%95%9C%E7%89%A7%E5%85%BD%E5%8C%BB%E7%AB%99&src=vetmap&coordinate=gaode&callnative=1","route_id":"r1","route_name":"第1段"},{"name":"张集兽医站","address":"中塔石化瑞立加油站西侧150米","phone":"","category":"医疗保健服务;动物医疗场所;兽医站","area":"","lng":116.335715,"lat":34.810068,"amap_id":"B0KALUJY9K","order":2,"prev_distance_km":17.404,"cumulative_distance_km":17.404,"amap_marker_url":"https://uri.amap.com/marker?position=116.335715,34.810068&name=%E5%BC%A0%E9%9B%86%E5%85%BD%E5%8C%BB%E7%AB%99&src=vetmap&coordinate=gaode&callnative=1","route_id":"r1","route_name":"第1段"},{"name":"时楼镇兽医站","address":"时楼镇中心小学南侧140米","phone":"","category":"医疗保健服务;动物医疗场所;兽医站","area":"","lng":116.282463,"lat":34.818617,"amap_id":"B0JDRKBY56","order":3,"prev_distance_km":4.954,"cumulative_distance_km":22.358,"amap_marker_url":"https://uri.amap.com/marker?position=116.282463,34.818617&name=%E6%97%B6%E6%A5%BC%E9%95%87%E5%85%BD%E5%8C%BB%E7%AB%99&src=vetmap&coordinate=gaode&callnative=1","route_id":"r1","route_name":"第1段"},{"name":"动物诊所","address":"龙中路与龙华路交叉口南200米","phone":"","category":"医疗保健服务;动物医疗场所;宠物诊所","area":"","lng":116.186594,"lat":34.697747,"amap_id":"B0KAYU2TZJ","order":4,"prev_distance_km":16.042,"cumulative_distance_km":38.399,"amap_marker_url":"https://uri.amap.com/marker?position=116.186594,34.697747&name=%E5%8A%A8%E7%89%A9%E8%AF%8A%E6%89%80&src=vetmap&coordinate=gaode&callnative=1","route_id":"r1","route_name":"第1段"},{"name":"宠信宠物医院","address":"东方国际新城东北1门西130米","phone":"17805303210","category":"医疗保健服务;动物医疗场所;宠物诊所","area":"","lng":116.119683,"lat":34.769955,"amap_id":"B0KKCXMJL8","order":5,"prev_distance_km":10.092,"cumulative_distance_km":48.492,"amap_marker_url":"https://uri.amap.com/marker?position=116.119683,34.769955&name=%E5%AE%A0%E4%BF%A1%E5%AE%A0%E7%89%A9%E5%8C%BB%E9%99%A2&src=vetmap&coordinate=gaode&callnative=1","route_id":"r1","route_name":"第1段"},{"name":"宠道宠物会所(铂金湾店)","address":"铂金湾北门西","phone":"15506620931","category":"医疗保健服务;动物医疗场所;动物医疗场所","area":"","lng":116.113555,"lat":34.77092,"amap_id":"B0K2NAZMIW","order":6,"prev_distance_km":0.57,"cumulative_distance_km":49.062,"amap_marker_url":"https://uri.amap.com/marker?position=116.113555,34.770920&name=%E5%AE%A0%E9%81%93%E5%AE%A0%E7%89%A9%E4%BC%9A%E6%89%80%28%E9%93%82%E9%87%91%E6%B9%BE%E5%BA%97%29&src=vetmap&coordinate=gaode&callnative=1","route_id":"r1","route_name":"第1段"},{"name":"单州动物医院","address":"财富广场东区E1-11号","phone":"0530-4568120;16653078120","category":"医疗保健服务;动物医疗场所;宠物诊所","area":"","lng":116.106206,"lat":34.775084,"amap_id":"B0GR95PFT9","order":7,"prev_distance_km":0.815,"cumulative_distance_km":49.877,"amap_marker_url":"https://uri.amap.com/marker?position=116.106206,34.775084&name=%E5%8D%95%E5%B7%9E%E5%8A%A8%E7%89%A9%E5%8C%BB%E9%99%A2&src=vetmap&coordinate=gaode&callnative=1","route_id":"r1","route_name":"第1段"},{"name":"松果动物诊疗中心(明泰第一城店)","address":"人民路与向阳路交叉口西行20米路北","phone":"17611167267","category":"医疗保健服务;动物医疗场所;宠物诊所","area":"","lng":116.109879,"lat":34.784566,"amap_id":"B0IKMCNF74","order":8,"prev_distance_km":1.106,"cumulative_distance_km":50.983,"amap_marker_url":"https://uri.amap.com/marker?position=116.109879,34.784566&name=%E6%9D%BE%E6%9E%9C%E5%8A%A8%E7%89%A9%E8%AF%8A%E7%96%97%E4%B8%AD%E5%BF%83%28%E6%98%8E%E6%B3%B0%E7%AC%AC%E4%B8%80%E5%9F%8E%E5%BA%97%29&src=vetmap&coordinate=gaode&callnative=1","route_id":"r1","route_name":"第1段"},{"name":"单县畜牧局兽医站","address":"胜利东路中国石化703加油站对过","phone":"13181570050","category":"医疗保健服务;动物医疗场所;兽医站","area":"","lng":116.128775,"lat":34.787625,"amap_id":"B0FFLJ23ZR","order":9,"prev_distance_km":1.759,"cumulative_distance_km":52.742,"amap_marker_url":"https://uri.amap.com/marker?position=116.128775,34.787625&name=%E5%8D%95%E5%8E%BF%E7%95%9C%E7%89%A7%E5%B1%80%E5%85%BD%E5%8C%BB%E7%AB%99&src=vetmap&coordinate=gaode&callnative=1","route_id":"r1","route_name":"第1段"},{"name":"程铭动物诊所","address":"胜利路与君子路交叉口西120米","phone":"","category":"医疗保健服务;动物医疗场所;宠物诊所","area":"","lng":116.104762,"lat":34.791673,"amap_id":"B0KBCUH1QR","order":10,"prev_distance_km":2.239,"cumulative_distance_km":54.981,"amap_marker_url":"https://uri.amap.com/marker?position=116.104762,34.791673&name=%E7%A8%8B%E9%93%AD%E5%8A%A8%E7%89%A9%E8%AF%8A%E6%89%80&src=vetmap&coordinate=gaode&callnative=1","route_id":"r1","route_name":"第1段"},{"name":"单县畜牧局疫苗供应中心","address":"大名城东侧","phone":"13346210988","category":"医疗保健服务;动物医疗场所;兽医站","area":"北城","lng":116.098168,"lat":34.793415,"amap_id":"B0FFM2WW8W","order":11,"prev_distance_km":0.633,"cumulative_distance_km":55.613,"amap_marker_url":"https://uri.amap.com/marker?position=116.098168,34.793415&name=%E5%8D%95%E5%8E%BF%E7%95%9C%E7%89%A7%E5%B1%80%E7%96%AB%E8%8B%97%E4%BE%9B%E5%BA%94%E4%B8%AD%E5%BF%83&src=vetmap&coordinate=gaode&callnative=1","route_id":"r1","route_name":"第1段"},{"name":"宠物管家动物诊疗中心","address":"府前温州商场F1-15","phone":"15562796106","category":"医疗保健服务;动物医疗场所;宠物诊所","area":"北城","lng":116.086108,"lat":34.79254,"amap_id":"B0FFKFVILK","order":12,"prev_distance_km":1.106,"cumulative_distance_km":56.719,"amap_marker_url":"https://uri.amap.com/marker?position=116.086108,34.792540&name=%E5%AE%A0%E7%89%A9%E7%AE%A1%E5%AE%B6%E5%8A%A8%E7%89%A9%E8%AF%8A%E7%96%97%E4%B8%AD%E5%BF%83&src=vetmap&coordinate=gaode&callnative=1","route_id":"r1","route_name":"第1段"},{"name":"欣烁动物诊所","address":"舜师大院16-14-15","phone":"15915341126","category":"医疗保健服务;动物医疗场所;宠物诊所","area":"","lng":116.078653,"lat":34.782482,"amap_id":"B0K0GD6O0U","order":13,"prev_distance_km":1.309,"cumulative_distance_km":58.028,"amap_marker_url":"https://uri.amap.com/marker?position=116.078653,34.782482&name=%E6%AC%A3%E7%83%81%E5%8A%A8%E7%89%A9%E8%AF%8A%E6%89%80&src=vetmap&coordinate=gaode&callnative=1","route_id":"r1","route_name":"第1段"},{"name":"丁楼家禽服务部","address":"圆通速递(平安路店)西侧","phone":"","category":"医疗保健服务;动物医疗场所;动物医疗场所","area":"","lng":116.023325,"lat":34.798025,"amap_id":"B0LK17DWUE","order":14,"prev_distance_km":5.34,"cumulative_distance_km":63.368,"amap_marker_url":"https://uri.amap.com/marker?position=116.023325,34.798025&name=%E4%B8%81%E6%A5%BC%E5%AE%B6%E7%A6%BD%E6%9C%8D%E5%8A%A1%E9%83%A8&src=vetmap&coordinate=gaode&callnative=1","route_id":"r1","route_name":"第1段"},{"name":"李新庄镇畜牧服务部","address":"李新庄镇实验小学西南侧190米","phone":"15990973341","category":"医疗保健服务;动物医疗场所;兽医站","area":"","lng":116.079928,"lat":34.874605,"amap_id":"B0FFM9SRFM","order":15,"prev_distance_km":9.96,"cumulative_distance_km":73.328,"amap_marker_url":"https://uri.amap.com/marker?position=116.079928,34.874605&name=%E6%9D%8E%E6%96%B0%E5%BA%84%E9%95%87%E7%95%9C%E7%89%A7%E6%9C%8D%E5%8A%A1%E9%83%A8&src=vetmap&coordinate=gaode&callnative=1","route_id":"r1","route_name":"第1段"},{"name":"雍泰动物门诊","address":"李新庄镇和平街2号","phone":"15865891451;18753050731","category":"医疗保健服务;动物医疗场所;宠物诊所","area":"","lng":116.085427,"lat":34.89421,"amap_id":"B0KB7RNHKD","order":16,"prev_distance_km":2.237,"cumulative_distance_km":75.565,"amap_marker_url":"https://uri.amap.com/marker?position=116.085427,34.894210&name=%E9%9B%8D%E6%B3%B0%E5%8A%A8%E7%89%A9%E9%97%A8%E8%AF%8A&src=vetmap&coordinate=gaode&callnative=1","route_id":"r1","route_name":"第1段"}]}],"rows":[{"name":"朱集镇畜牧兽医站","address":"亿佳美购物广场西北侧120米","phone":"","category":"医疗保健服务;动物医疗场所;兽医站","area":"","lng":116.354003,"lat":34.654273,"amap_id":"B0FFIT2S4J","order":1,"prev_distance_km":0.0,"cumulative_distance_km":0.0,"amap_marker_url":"https://uri.amap.com/marker?position=116.354003,34.654273&name=%E6%9C%B1%E9%9B%86%E9%95%87%E7%95%9C%E7%89%A7%E5%85%BD%E5%8C%BB%E7%AB%99&src=vetmap&coordinate=gaode&callnative=1","route_id":"r1","route_name":"第1段","global_order":1},{"name":"张集兽医站","address":"中塔石化瑞立加油站西侧150米","phone":"","category":"医疗保健服务;动物医疗场所;兽医站","area":"","lng":116.335715,"lat":34.810068,"amap_id":"B0KALUJY9K","order":2,"prev_distance_km":17.404,"cumulative_distance_km":17.404,"amap_marker_url":"https://uri.amap.com/marker?position=116.335715,34.810068&name=%E5%BC%A0%E9%9B%86%E5%85%BD%E5%8C%BB%E7%AB%99&src=vetmap&coordinate=gaode&callnative=1","route_id":"r1","route_name":"第1段","global_order":2},{"name":"时楼镇兽医站","address":"时楼镇中心小学南侧140米","phone":"","category":"医疗保健服务;动物医疗场所;兽医站","area":"","lng":116.282463,"lat":34.818617,"amap_id":"B0JDRKBY56","order":3,"prev_distance_km":4.954,"cumulative_distance_km":22.358,"amap_marker_url":"https://uri.amap.com/marker?position=116.282463,34.818617&name=%E6%97%B6%E6%A5%BC%E9%95%87%E5%85%BD%E5%8C%BB%E7%AB%99&src=vetmap&coordinate=gaode&callnative=1","route_id":"r1","route_name":"第1段","global_order":3},{"name":"动物诊所","address":"龙中路与龙华路交叉口南200米","phone":"","category":"医疗保健服务;动物医疗场所;宠物诊所","area":"","lng":116.186594,"lat":34.697747,"amap_id":"B0KAYU2TZJ","order":4,"prev_distance_km":16.042,"cumulative_distance_km":38.399,"amap_marker_url":"https://uri.amap.com/marker?position=116.186594,34.697747&name=%E5%8A%A8%E7%89%A9%E8%AF%8A%E6%89%80&src=vetmap&coordinate=gaode&callnative=1","route_id":"r1","route_name":"第1段","global_order":4},{"name":"宠信宠物医院","address":"东方国际新城东北1门西130米","phone":"17805303210","category":"医疗保健服务;动物医疗场所;宠物诊所","area":"","lng":116.119683,"lat":34.769955,"amap_id":"B0KKCXMJL8","order":5,"prev_distance_km":10.092,"cumulative_distance_km":48.492,"amap_marker_url":"https://uri.amap.com/marker?position=116.119683,34.769955&name=%E5%AE%A0%E4%BF%A1%E5%AE%A0%E7%89%A9%E5%8C%BB%E9%99%A2&src=vetmap&coordinate=gaode&callnative=1","route_id":"r1","route_name":"第1段","global_order":5},{"name":"宠道宠物会所(铂金湾店)","address":"铂金湾北门西","phone":"15506620931","category":"医疗保健服务;动物医疗场所;动物医疗场所","area":"","lng":116.113555,"lat":34.77092,"amap_id":"B0K2NAZMIW","order":6,"prev_distance_km":0.57,"cumulative_distance_km":49.062,"amap_marker_url":"https://uri.amap.com/marker?position=116.113555,34.770920&name=%E5%AE%A0%E9%81%93%E5%AE%A0%E7%89%A9%E4%BC%9A%E6%89%80%28%E9%93%82%E9%87%91%E6%B9%BE%E5%BA%97%29&src=vetmap&coordinate=gaode&callnative=1","route_id":"r1","route_name":"第1段","global_order":6},{"name":"单州动物医院","address":"财富广场东区E1-11号","phone":"0530-4568120;16653078120","category":"医疗保健服务;动物医疗场所;宠物诊所","area":"","lng":116.106206,"lat":34.775084,"amap_id":"B0GR95PFT9","order":7,"prev_distance_km":0.815,"cumulative_distance_km":49.877,"amap_marker_url":"https://uri.amap.com/marker?position=116.106206,34.775084&name=%E5%8D%95%E5%B7%9E%E5%8A%A8%E7%89%A9%E5%8C%BB%E9%99%A2&src=vetmap&coordinate=gaode&callnative=1","route_id":"r1","route_name":"第1段","global_order":7},{"name":"松果动物诊疗中心(明泰第一城店)","address":"人民路与向阳路交叉口西行20米路北","phone":"17611167267","category":"医疗保健服务;动物医疗场所;宠物诊所","area":"","lng":116.109879,"lat":34.784566,"amap_id":"B0IKMCNF74","order":8,"prev_distance_km":1.106,"cumulative_distance_km":50.983,"amap_marker_url":"https://uri.amap.com/marker?position=116.109879,34.784566&name=%E6%9D%BE%E6%9E%9C%E5%8A%A8%E7%89%A9%E8%AF%8A%E7%96%97%E4%B8%AD%E5%BF%83%28%E6%98%8E%E6%B3%B0%E7%AC%AC%E4%B8%80%E5%9F%8E%E5%BA%97%29&src=vetmap&coordinate=gaode&callnative=1","route_id":"r1","route_name":"第1段","global_order":8},{"name":"单县畜牧局兽医站","address":"胜利东路中国石化703加油站对过","phone":"13181570050","category":"医疗保健服务;动物医疗场所;兽医站","area":"","lng":116.128775,"lat":34.787625,"amap_id":"B0FFLJ23ZR","order":9,"prev_distance_km":1.759,"cumulative_distance_km":52.742,"amap_marker_url":"https://uri.amap.com/marker?position=116.128775,34.787625&name=%E5%8D%95%E5%8E%BF%E7%95%9C%E7%89%A7%E5%B1%80%E5%85%BD%E5%8C%BB%E7%AB%99&src=vetmap&coordinate=gaode&callnative=1","route_id":"r1","route_name":"第1段","global_order":9},{"name":"程铭动物诊所","address":"胜利路与君子路交叉口西120米","phone":"","category":"医疗保健服务;动物医疗场所;宠物诊所","area":"","lng":116.104762,"lat":34.791673,"amap_id":"B0KBCUH1QR","order":10,"prev_distance_km":2.239,"cumulative_distance_km":54.981,"amap_marker_url":"https://uri.amap.com/marker?position=116.104762,34.791673&name=%E7%A8%8B%E9%93%AD%E5%8A%A8%E7%89%A9%E8%AF%8A%E6%89%80&src=vetmap&coordinate=gaode&callnative=1","route_id":"r1","route_name":"第1段","global_order":10},{"name":"单县畜牧局疫苗供应中心","address":"大名城东侧","phone":"13346210988","category":"医疗保健服务;动物医疗场所;兽医站","area":"北城","lng":116.098168,"lat":34.793415,"amap_id":"B0FFM2WW8W","order":11,"prev_distance_km":0.633,"cumulative_distance_km":55.613,"amap_marker_url":"https://uri.amap.com/marker?position=116.098168,34.793415&name=%E5%8D%95%E5%8E%BF%E7%95%9C%E7%89%A7%E5%B1%80%E7%96%AB%E8%8B%97%E4%BE%9B%E5%BA%94%E4%B8%AD%E5%BF%83&src=vetmap&coordinate=gaode&callnative=1","route_id":"r1","route_name":"第1段","global_order":11},{"name":"宠物管家动物诊疗中心","address":"府前温州商场F1-15","phone":"15562796106","category":"医疗保健服务;动物医疗场所;宠物诊所","area":"北城","lng":116.086108,"lat":34.79254,"amap_id":"B0FFKFVILK","order":12,"prev_distance_km":1.106,"cumulative_distance_km":56.719,"amap_marker_url":"https://uri.amap.com/marker?position=116.086108,34.792540&name=%E5%AE%A0%E7%89%A9%E7%AE%A1%E5%AE%B6%E5%8A%A8%E7%89%A9%E8%AF%8A%E7%96%97%E4%B8%AD%E5%BF%83&src=vetmap&coordinate=gaode&callnative=1","route_id":"r1","route_name":"第1段","global_order":12},{"name":"欣烁动物诊所","address":"舜师大院16-14-15","phone":"15915341126","category":"医疗保健服务;动物医疗场所;宠物诊所","area":"","lng":116.078653,"lat":34.782482,"amap_id":"B0K0GD6O0U","order":13,"prev_distance_km":1.309,"cumulative_distance_km":58.028,"amap_marker_url":"https://uri.amap.com/marker?position=116.078653,34.782482&name=%E6%AC%A3%E7%83%81%E5%8A%A8%E7%89%A9%E8%AF%8A%E6%89%80&src=vetmap&coordinate=gaode&callnative=1","route_id":"r1","route_name":"第1段","global_order":13},{"name":"丁楼家禽服务部","address":"圆通速递(平安路店)西侧","phone":"","category":"医疗保健服务;动物医疗场所;动物医疗场所","area":"","lng":116.023325,"lat":34.798025,"amap_id":"B0LK17DWUE","order":14,"prev_distance_km":5.34,"cumulative_distance_km":63.368,"amap_marker_url":"https://uri.amap.com/marker?position=116.023325,34.798025&name=%E4%B8%81%E6%A5%BC%E5%AE%B6%E7%A6%BD%E6%9C%8D%E5%8A%A1%E9%83%A8&src=vetmap&coordinate=gaode&callnative=1","route_id":"r1","route_name":"第1段","global_order":14},{"name":"李新庄镇畜牧服务部","address":"李新庄镇实验小学西南侧190米","phone":"15990973341","category":"医疗保健服务;动物医疗场所;兽医站","area":"","lng":116.079928,"lat":34.874605,"amap_id":"B0FFM9SRFM","order":15,"prev_distance_km":9.96,"cumulative_distance_km":73.328,"amap_marker_url":"https://uri.amap.com/marker?position=116.079928,34.874605&name=%E6%9D%8E%E6%96%B0%E5%BA%84%E9%95%87%E7%95%9C%E7%89%A7%E6%9C%8D%E5%8A%A1%E9%83%A8&src=vetmap&coordinate=gaode&callnative=1","route_id":"r1","route_name":"第1段","global_order":15},{"name":"雍泰动物门诊","address":"李新庄镇和平街2号","phone":"15865891451;18753050731","category":"医疗保健服务;动物医疗场所;宠物诊所","area":"","lng":116.085427,"lat":34.89421,"amap_id":"B0KB7RNHKD","order":16,"prev_distance_km":2.237,"cumulative_distance_km":75.565,"amap_marker_url":"https://uri.amap.com/marker?position=116.085427,34.894210&name=%E9%9B%8D%E6%B3%B0%E5%8A%A8%E7%89%A9%E9%97%A8%E8%AF%8A&src=vetmap&coordinate=gaode&callnative=1","route_id":"r1","route_name":"第1段","global_order":16}]}