{"summary":{"id":"d00422","province":"山东省","city":"聊城市","district":"茌平区","count":10,"route_count":1,"max_route_clinics":10,"total_distance_km":39.31,"coordinate_system":"GCJ-02 / Amap","generated_at":"2026-05-07 21:27:34"},"routes":[{"id":"r1","name":"第1段","count":10,"total_distance_km":39.31,"rows":[{"name":"畜禽技术服务中心","address":"锦悦名府北侧180米","phone":"","category":"医疗保健服务;动物医疗场所;兽医站","area":"","lng":116.10662,"lat":36.581592,"amap_id":"B0LRTG9GSJ","order":1,"prev_distance_km":0.0,"cumulative_distance_km":0.0,"amap_marker_url":"https://uri.amap.com/marker?position=116.106620,36.581592&name=%E7%95%9C%E7%A6%BD%E6%8A%80%E6%9C%AF%E6%9C%8D%E5%8A%A1%E4%B8%AD%E5%BF%83&src=vetmap&coordinate=gaode&callnative=1","route_id":"r1","route_name":"第1段"},{"name":"博大动物诊所","address":"博平镇西环路中段路东测","phone":"13562000079","category":"医疗保健服务;动物医疗场所;宠物诊所","area":"","lng":116.107781,"lat":36.592246,"amap_id":"B0GUA1DM5S","order":2,"prev_distance_km":1.189,"cumulative_distance_km":1.189,"amap_marker_url":"https://uri.amap.com/marker?position=116.107781,36.592246&name=%E5%8D%9A%E5%A4%A7%E5%8A%A8%E7%89%A9%E8%AF%8A%E6%89%80&src=vetmap&coordinate=gaode&callnative=1","route_id":"r1","route_name":"第1段"},{"name":"胡屯镇畜牧兽医工作站","address":"广场路与惠民街交叉口西南40米","phone":"","category":"医疗保健服务;动物医疗场所;兽医站","area":"","lng":116.220397,"lat":36.662798,"amap_id":"B0FFG0KGZN","order":3,"prev_distance_km":12.749,"cumulative_distance_km":13.938,"amap_marker_url":"https://uri.amap.com/marker?position=116.220397,36.662798&name=%E8%83%A1%E5%B1%AF%E9%95%87%E7%95%9C%E7%89%A7%E5%85%BD%E5%8C%BB%E5%B7%A5%E4%BD%9C%E7%AB%99&src=vetmap&coordinate=gaode&callnative=1","route_id":"r1","route_name":"第1段"},{"name":"酷狗宠物医院(枣乡街)","address":"枣乡街2836号","phone":"13963514583;13969575170","category":"医疗保健服务;动物医疗场所;宠物诊所","area":"","lng":116.241112,"lat":36.585263,"amap_id":"B027B02VY5","order":4,"prev_distance_km":8.817,"cumulative_distance_km":22.756,"amap_marker_url":"https://uri.amap.com/marker?position=116.241112,36.585263&name=%E9%85%B7%E7%8B%97%E5%AE%A0%E7%89%A9%E5%8C%BB%E9%99%A2%28%E6%9E%A3%E4%B9%A1%E8%A1%97%29&src=vetmap&coordinate=gaode&callnative=1","route_id":"r1","route_name":"第1段"},{"name":"牧嘉动物医院","address":"龙山御景北门口东","phone":"13326251995","category":"医疗保健服务;动物医疗场所;宠物诊所","area":"","lng":116.238031,"lat":36.57825,"amap_id":"B0L6CRSXQG","order":5,"prev_distance_km":0.827,"cumulative_distance_km":23.583,"amap_marker_url":"https://uri.amap.com/marker?position=116.238031,36.578250&name=%E7%89%A7%E5%98%89%E5%8A%A8%E7%89%A9%E5%8C%BB%E9%99%A2&src=vetmap&coordinate=gaode&callnative=1","route_id":"r1","route_name":"第1段"},{"name":"琦玉宠物诊所","address":"振兴街道文化路新清华园南区6号楼113号商铺","phone":"15562821579;17865362525","category":"医疗保健服务;动物医疗场所;宠物诊所","area":"","lng":116.242889,"lat":36.580206,"amap_id":"B0I0BZDLX0","order":6,"prev_distance_km":0.485,"cumulative_distance_km":24.068,"amap_marker_url":"https://uri.amap.com/marker?position=116.242889,36.580206&name=%E7%90%A6%E7%8E%89%E5%AE%A0%E7%89%A9%E8%AF%8A%E6%89%80&src=vetmap&coordinate=gaode&callnative=1","route_id":"r1","route_name":"第1段"},{"name":"御康宠宠物大药房","address":"东方新天地2号楼14楼1406室","phone":"","category":"医疗保健服务;动物医疗场所;宠物诊所","area":"","lng":116.255895,"lat":36.57728,"amap_id":"B0L6RL4R9W","order":7,"prev_distance_km":1.206,"cumulative_distance_km":25.274,"amap_marker_url":"https://uri.amap.com/marker?position=116.255895,36.577280&name=%E5%BE%A1%E5%BA%B7%E5%AE%A0%E5%AE%A0%E7%89%A9%E5%A4%A7%E8%8D%AF%E6%88%BF&src=vetmap&coordinate=gaode&callnative=1","route_id":"r1","route_name":"第1段"},{"name":"豪友宠物诊所","address":"文化路91号","phone":"18264543566","category":"医疗保健服务;动物医疗场所;宠物诊所","area":"","lng":116.260265,"lat":36.577746,"amap_id":"B0LAYZXBG2","order":8,"prev_distance_km":0.394,"cumulative_distance_km":25.668,"amap_marker_url":"https://uri.amap.com/marker?position=116.260265,36.577746&name=%E8%B1%AA%E5%8F%8B%E5%AE%A0%E7%89%A9%E8%AF%8A%E6%89%80&src=vetmap&coordinate=gaode&callnative=1","route_id":"r1","route_name":"第1段"},{"name":"刘涛动物医院","address":"乐平镇","phone":"18963537055","category":"医疗保健服务;动物医疗场所;宠物诊所","area":"","lng":116.260546,"lat":36.456644,"amap_id":"B0I1BAURT4","order":9,"prev_distance_km":13.466,"cumulative_distance_km":39.134,"amap_marker_url":"https://uri.amap.com/marker?position=116.260546,36.456644&name=%E5%88%98%E6%B6%9B%E5%8A%A8%E7%89%A9%E5%8C%BB%E9%99%A2&src=vetmap&coordinate=gaode&callnative=1","route_id":"r1","route_name":"第1段"},{"name":"聊城市茌平区刘涛动物门诊经营部","address":"乐平镇双平路口东30米路北","phone":"15998702187","category":"医疗保健服务;动物医疗场所;宠物诊所","area":"","lng":116.25902,"lat":36.455632,"amap_id":"B0K0O5H7D2","order":10,"prev_distance_km":0.177,"cumulative_distance_km":39.31,"amap_marker_url":"https://uri.amap.com/marker?position=116.259020,36.455632&name=%E8%81%8A%E5%9F%8E%E5%B8%82%E8%8C%8C%E5%B9%B3%E5%8C%BA%E5%88%98%E6%B6%9B%E5%8A%A8%E7%89%A9%E9%97%A8%E8%AF%8A%E7%BB%8F%E8%90%A5%E9%83%A8&src=vetmap&coordinate=gaode&callnative=1","route_id":"r1","route_name":"第1段"}]}],"rows":[{"name":"畜禽技术服务中心","address":"锦悦名府北侧180米","phone":"","category":"医疗保健服务;动物医疗场所;兽医站","area":"","lng":116.10662,"lat":36.581592,"amap_id":"B0LRTG9GSJ","order":1,"prev_distance_km":0.0,"cumulative_distance_km":0.0,"amap_marker_url":"https://uri.amap.com/marker?position=116.106620,36.581592&name=%E7%95%9C%E7%A6%BD%E6%8A%80%E6%9C%AF%E6%9C%8D%E5%8A%A1%E4%B8%AD%E5%BF%83&src=vetmap&coordinate=gaode&callnative=1","route_id":"r1","route_name":"第1段","global_order":1},{"name":"博大动物诊所","address":"博平镇西环路中段路东测","phone":"13562000079","category":"医疗保健服务;动物医疗场所;宠物诊所","area":"","lng":116.107781,"lat":36.592246,"amap_id":"B0GUA1DM5S","order":2,"prev_distance_km":1.189,"cumulative_distance_km":1.189,"amap_marker_url":"https://uri.amap.com/marker?position=116.107781,36.592246&name=%E5%8D%9A%E5%A4%A7%E5%8A%A8%E7%89%A9%E8%AF%8A%E6%89%80&src=vetmap&coordinate=gaode&callnative=1","route_id":"r1","route_name":"第1段","global_order":2},{"name":"胡屯镇畜牧兽医工作站","address":"广场路与惠民街交叉口西南40米","phone":"","category":"医疗保健服务;动物医疗场所;兽医站","area":"","lng":116.220397,"lat":36.662798,"amap_id":"B0FFG0KGZN","order":3,"prev_distance_km":12.749,"cumulative_distance_km":13.938,"amap_marker_url":"https://uri.amap.com/marker?position=116.220397,36.662798&name=%E8%83%A1%E5%B1%AF%E9%95%87%E7%95%9C%E7%89%A7%E5%85%BD%E5%8C%BB%E5%B7%A5%E4%BD%9C%E7%AB%99&src=vetmap&coordinate=gaode&callnative=1","route_id":"r1","route_name":"第1段","global_order":3},{"name":"酷狗宠物医院(枣乡街)","address":"枣乡街2836号","phone":"13963514583;13969575170","category":"医疗保健服务;动物医疗场所;宠物诊所","area":"","lng":116.241112,"lat":36.585263,"amap_id":"B027B02VY5","order":4,"prev_distance_km":8.817,"cumulative_distance_km":22.756,"amap_marker_url":"https://uri.amap.com/marker?position=116.241112,36.585263&name=%E9%85%B7%E7%8B%97%E5%AE%A0%E7%89%A9%E5%8C%BB%E9%99%A2%28%E6%9E%A3%E4%B9%A1%E8%A1%97%29&src=vetmap&coordinate=gaode&callnative=1","route_id":"r1","route_name":"第1段","global_order":4},{"name":"牧嘉动物医院","address":"龙山御景北门口东","phone":"13326251995","category":"医疗保健服务;动物医疗场所;宠物诊所","area":"","lng":116.238031,"lat":36.57825,"amap_id":"B0L6CRSXQG","order":5,"prev_distance_km":0.827,"cumulative_distance_km":23.583,"amap_marker_url":"https://uri.amap.com/marker?position=116.238031,36.578250&name=%E7%89%A7%E5%98%89%E5%8A%A8%E7%89%A9%E5%8C%BB%E9%99%A2&src=vetmap&coordinate=gaode&callnative=1","route_id":"r1","route_name":"第1段","global_order":5},{"name":"琦玉宠物诊所","address":"振兴街道文化路新清华园南区6号楼113号商铺","phone":"15562821579;17865362525","category":"医疗保健服务;动物医疗场所;宠物诊所","area":"","lng":116.242889,"lat":36.580206,"amap_id":"B0I0BZDLX0","order":6,"prev_distance_km":0.485,"cumulative_distance_km":24.068,"amap_marker_url":"https://uri.amap.com/marker?position=116.242889,36.580206&name=%E7%90%A6%E7%8E%89%E5%AE%A0%E7%89%A9%E8%AF%8A%E6%89%80&src=vetmap&coordinate=gaode&callnative=1","route_id":"r1","route_name":"第1段","global_order":6},{"name":"御康宠宠物大药房","address":"东方新天地2号楼14楼1406室","phone":"","category":"医疗保健服务;动物医疗场所;宠物诊所","area":"","lng":116.255895,"lat":36.57728,"amap_id":"B0L6RL4R9W","order":7,"prev_distance_km":1.206,"cumulative_distance_km":25.274,"amap_marker_url":"https://uri.amap.com/marker?position=116.255895,36.577280&name=%E5%BE%A1%E5%BA%B7%E5%AE%A0%E5%AE%A0%E7%89%A9%E5%A4%A7%E8%8D%AF%E6%88%BF&src=vetmap&coordinate=gaode&callnative=1","route_id":"r1","route_name":"第1段","global_order":7},{"name":"豪友宠物诊所","address":"文化路91号","phone":"18264543566","category":"医疗保健服务;动物医疗场所;宠物诊所","area":"","lng":116.260265,"lat":36.577746,"amap_id":"B0LAYZXBG2","order":8,"prev_distance_km":0.394,"cumulative_distance_km":25.668,"amap_marker_url":"https://uri.amap.com/marker?position=116.260265,36.577746&name=%E8%B1%AA%E5%8F%8B%E5%AE%A0%E7%89%A9%E8%AF%8A%E6%89%80&src=vetmap&coordinate=gaode&callnative=1","route_id":"r1","route_name":"第1段","global_order":8},{"name":"刘涛动物医院","address":"乐平镇","phone":"18963537055","category":"医疗保健服务;动物医疗场所;宠物诊所","area":"","lng":116.260546,"lat":36.456644,"amap_id":"B0I1BAURT4","order":9,"prev_distance_km":13.466,"cumulative_distance_km":39.134,"amap_marker_url":"https://uri.amap.com/marker?position=116.260546,36.456644&name=%E5%88%98%E6%B6%9B%E5%8A%A8%E7%89%A9%E5%8C%BB%E9%99%A2&src=vetmap&coordinate=gaode&callnative=1","route_id":"r1","route_name":"第1段","global_order":9},{"name":"聊城市茌平区刘涛动物门诊经营部","address":"乐平镇双平路口东30米路北","phone":"15998702187","category":"医疗保健服务;动物医疗场所;宠物诊所","area":"","lng":116.25902,"lat":36.455632,"amap_id":"B0K0O5H7D2","order":10,"prev_distance_km":0.177,"cumulative_distance_km":39.31,"amap_marker_url":"https://uri.amap.com/marker?position=116.259020,36.455632&name=%E8%81%8A%E5%9F%8E%E5%B8%82%E8%8C%8C%E5%B9%B3%E5%8C%BA%E5%88%98%E6%B6%9B%E5%8A%A8%E7%89%A9%E9%97%A8%E8%AF%8A%E7%BB%8F%E8%90%A5%E9%83%A8&src=vetmap&coordinate=gaode&callnative=1","route_id":"r1","route_name":"第1段","global_order":10}]}