{"summary":{"id":"d00415","province":"山东省","city":"烟台市","district":"莱阳市","count":30,"route_count":1,"max_route_clinics":30,"total_distance_km":89.878,"coordinate_system":"GCJ-02 / Amap","generated_at":"2026-05-07 21:27:32"},"routes":[{"id":"r1","name":"第1段","count":30,"total_distance_km":89.878,"rows":[{"name":"牧兴旺动物门诊","address":"歇凤路","phone":"","category":"医疗保健服务;动物医疗场所;宠物诊所","area":"","lng":120.710807,"lat":36.667506,"amap_id":"B0L6K4M9R6","order":1,"prev_distance_km":0.0,"cumulative_distance_km":0.0,"amap_marker_url":"https://uri.amap.com/marker?position=120.710807,36.667506&name=%E7%89%A7%E5%85%B4%E6%97%BA%E5%8A%A8%E7%89%A9%E9%97%A8%E8%AF%8A&src=vetmap&coordinate=gaode&callnative=1","route_id":"r1","route_name":"第1段"},{"name":"高格庄第一兽药门诊","address":"高格庄镇人民政府西侧60米","phone":"13645441233","category":"医疗保健服务;动物医疗场所;兽医站","area":"","lng":120.769501,"lat":36.719782,"amap_id":"B0FFFZ9SSU","order":2,"prev_distance_km":7.821,"cumulative_distance_km":7.821,"amap_marker_url":"https://uri.amap.com/marker?position=120.769501,36.719782&name=%E9%AB%98%E6%A0%BC%E5%BA%84%E7%AC%AC%E4%B8%80%E5%85%BD%E8%8D%AF%E9%97%A8%E8%AF%8A&src=vetmap&coordinate=gaode&callnative=1","route_id":"r1","route_name":"第1段"},{"name":"莱阳市姜疃畜牧兽医站","address":"莱阳市第一人民医院东北侧130米","phone":"0535-7639899;15953582337","category":"医疗保健服务;动物医疗场所;兽医站","area":"","lng":120.743528,"lat":36.782854,"amap_id":"B02170RCPT","order":3,"prev_distance_km":7.385,"cumulative_distance_km":15.207,"amap_marker_url":"https://uri.amap.com/marker?position=120.743528,36.782854&name=%E8%8E%B1%E9%98%B3%E5%B8%82%E5%A7%9C%E7%96%83%E7%95%9C%E7%89%A7%E5%85%BD%E5%8C%BB%E7%AB%99&src=vetmap&coordinate=gaode&callnative=1","route_id":"r1","route_name":"第1段"},{"name":"莱阳市团旺畜牧兽医工作站","address":"209省道与益友街交叉口北220米","phone":"0535-7541368","category":"医疗保健服务;动物医疗场所;兽医站","area":"","lng":120.645994,"lat":36.761221,"amap_id":"B021705MCF","order":4,"prev_distance_km":9.014,"cumulative_distance_km":24.221,"amap_marker_url":"https://uri.amap.com/marker?position=120.645994,36.761221&name=%E8%8E%B1%E9%98%B3%E5%B8%82%E5%9B%A2%E6%97%BA%E7%95%9C%E7%89%A7%E5%85%BD%E5%8C%BB%E5%B7%A5%E4%BD%9C%E7%AB%99&src=vetmap&coordinate=gaode&callnative=1","route_id":"r1","route_name":"第1段"},{"name":"祥云动物医院","address":"团旺镇莱穴路中国移动手机专卖店旁","phone":"0535-7532339;13884675626","category":"医疗保健服务;动物医疗场所;兽医站","area":"","lng":120.645333,"lat":36.761709,"amap_id":"B02170RCP1","order":5,"prev_distance_km":0.08,"cumulative_distance_km":24.301,"amap_marker_url":"https://uri.amap.com/marker?position=120.645333,36.761709&name=%E7%A5%A5%E4%BA%91%E5%8A%A8%E7%89%A9%E5%8C%BB%E9%99%A2&src=vetmap&coordinate=gaode&callnative=1","route_id":"r1","route_name":"第1段"},{"name":"吕格庄动物检疫申报点","address":"209省道与昌盛路交叉口北320米","phone":"","category":"医疗保健服务;动物医疗场所;动物医疗场所","area":"","lng":120.646812,"lat":36.86841,"amap_id":"B0KG2UX3TC","order":6,"prev_distance_km":11.865,"cumulative_distance_km":36.166,"amap_marker_url":"https://uri.amap.com/marker?position=120.646812,36.868410&name=%E5%90%95%E6%A0%BC%E5%BA%84%E5%8A%A8%E7%89%A9%E6%A3%80%E7%96%AB%E7%94%B3%E6%8A%A5%E7%82%B9&src=vetmap&coordinate=gaode&callnative=1","route_id":"r1","route_name":"第1段"},{"name":"盛迪牧业动物门诊","address":"209省道与013乡道交叉口南400米","phone":"","category":"医疗保健服务;动物医疗场所;宠物诊所","area":"","lng":120.646009,"lat":36.870181,"amap_id":"B0LD1KGI6P","order":7,"prev_distance_km":0.209,"cumulative_distance_km":36.376,"amap_marker_url":"https://uri.amap.com/marker?position=120.646009,36.870181&name=%E7%9B%9B%E8%BF%AA%E7%89%A7%E4%B8%9A%E5%8A%A8%E7%89%A9%E9%97%A8%E8%AF%8A&src=vetmap&coordinate=gaode&callnative=1","route_id":"r1","route_name":"第1段"},{"name":"莱阳市古柳畜牧兽医工作站","address":"荆山路","phone":"","category":"医疗保健服务;动物医疗场所;兽医站","area":"","lng":120.697304,"lat":36.926738,"amap_id":"B021705G4W","order":8,"prev_distance_km":7.769,"cumulative_distance_km":44.145,"amap_marker_url":"https://uri.amap.com/marker?position=120.697304,36.926738&name=%E8%8E%B1%E9%98%B3%E5%B8%82%E5%8F%A4%E6%9F%B3%E7%95%9C%E7%89%A7%E5%85%BD%E5%8C%BB%E5%B7%A5%E4%BD%9C%E7%AB%99&src=vetmap&coordinate=gaode&callnative=1","route_id":"r1","route_name":"第1段"},{"name":"动物保健中心","address":"荆山路81号","phone":"13791231073","category":"医疗保健服务;动物医疗场所;动物医疗场所","area":"","lng":120.696915,"lat":36.927124,"amap_id":"B0FFH9O0A6","order":9,"prev_distance_km":0.055,"cumulative_distance_km":44.2,"amap_marker_url":"https://uri.amap.com/marker?position=120.696915,36.927124&name=%E5%8A%A8%E7%89%A9%E4%BF%9D%E5%81%A5%E4%B8%AD%E5%BF%83&src=vetmap&coordinate=gaode&callnative=1","route_id":"r1","route_name":"第1段"},{"name":"爱尚伴侣动物医院(盛隆富水小区店)","address":"金山大街668号","phone":"15153569699","category":"医疗保健服务;动物医疗场所;宠物诊所","area":"","lng":120.704371,"lat":36.958863,"amap_id":"B02170RXT7","order":10,"prev_distance_km":3.591,"cumulative_distance_km":47.791,"amap_marker_url":"https://uri.amap.com/marker?position=120.704371,36.958863&name=%E7%88%B1%E5%B0%9A%E4%BC%B4%E4%BE%A3%E5%8A%A8%E7%89%A9%E5%8C%BB%E9%99%A2%28%E7%9B%9B%E9%9A%86%E5%AF%8C%E6%B0%B4%E5%B0%8F%E5%8C%BA%E5%BA%97%29&src=vetmap&coordinate=gaode&callnative=1","route_id":"r1","route_name":"第1段"},{"name":"莱阳市瑞宠宠物生活馆","address":"金山大街国家安全局商品房1-2号","phone":"13853529998","category":"医疗保健服务;动物医疗场所;宠物诊所","area":"","lng":120.703417,"lat":36.959451,"amap_id":"B0FFLIND0C","order":11,"prev_distance_km":0.107,"cumulative_distance_km":47.898,"amap_marker_url":"https://uri.amap.com/marker?position=120.703417,36.959451&name=%E8%8E%B1%E9%98%B3%E5%B8%82%E7%91%9E%E5%AE%A0%E5%AE%A0%E7%89%A9%E7%94%9F%E6%B4%BB%E9%A6%86&src=vetmap&coordinate=gaode&callnative=1","route_id":"r1","route_name":"第1段"},{"name":"道格动物诊疗","address":"富水南路与望石街交叉口东南80米","phone":"15345359097","category":"医疗保健服务;动物医疗场所;宠物诊所","area":"","lng":120.700975,"lat":36.961322,"amap_id":"B0JKBOFDW7","order":12,"prev_distance_km":0.301,"cumulative_distance_km":48.198,"amap_marker_url":"https://uri.amap.com/marker?position=120.700975,36.961322&name=%E9%81%93%E6%A0%BC%E5%8A%A8%E7%89%A9%E8%AF%8A%E7%96%97&src=vetmap&coordinate=gaode&callnative=1","route_id":"r1","route_name":"第1段"},{"name":"莱阳加禾宠物诊疗","address":"富水南路9号","phone":"15153520556","category":"医疗保健服务;动物医疗场所;宠物诊所","area":"","lng":120.700498,"lat":36.965412,"amap_id":"B0M6FSWZW9","order":13,"prev_distance_km":0.457,"cumulative_distance_km":48.655,"amap_marker_url":"https://uri.amap.com/marker?position=120.700498,36.965412&name=%E8%8E%B1%E9%98%B3%E5%8A%A0%E7%A6%BE%E5%AE%A0%E7%89%A9%E8%AF%8A%E7%96%97&src=vetmap&coordinate=gaode&callnative=1","route_id":"r1","route_name":"第1段"},{"name":"熊孩子宠物医院","address":"金山大街盛隆悦府22号楼112号","phone":"0535-7210968","category":"医疗保健服务;动物医疗场所;宠物诊所","area":"","lng":120.714055,"lat":36.95849,"amap_id":"B0IBFZ0R2K","order":14,"prev_distance_km":1.429,"cumulative_distance_km":50.085,"amap_marker_url":"https://uri.amap.com/marker?position=120.714055,36.958490&name=%E7%86%8A%E5%AD%A9%E5%AD%90%E5%AE%A0%E7%89%A9%E5%8C%BB%E9%99%A2&src=vetmap&coordinate=gaode&callnative=1","route_id":"r1","route_name":"第1段"},{"name":"宠嘉(盛隆新天地店)","address":"大寺街288号盛隆新天地F2层","phone":"","category":"医疗保健服务;动物医疗场所;宠物诊所","area":"","lng":120.713874,"lat":36.969636,"amap_id":"B0LD3DJ020","order":15,"prev_distance_km":1.239,"cumulative_distance_km":51.324,"amap_marker_url":"https://uri.amap.com/marker?position=120.713874,36.969636&name=%E5%AE%A0%E5%98%89%28%E7%9B%9B%E9%9A%86%E6%96%B0%E5%A4%A9%E5%9C%B0%E5%BA%97%29&src=vetmap&coordinate=gaode&callnative=1","route_id":"r1","route_name":"第1段"},{"name":"莱阳市动物疫病防治门诊","address":"昌山路186号","phone":"0535-7268666","category":"医疗保健服务;动物医疗场所;兽医站","area":"","lng":120.711839,"lat":36.972639,"amap_id":"B02170RZGN","order":16,"prev_distance_km":0.38,"cumulative_distance_km":51.704,"amap_marker_url":"https://uri.amap.com/marker?position=120.711839,36.972639&name=%E8%8E%B1%E9%98%B3%E5%B8%82%E5%8A%A8%E7%89%A9%E7%96%AB%E7%97%85%E9%98%B2%E6%B2%BB%E9%97%A8%E8%AF%8A&src=vetmap&coordinate=gaode&callnative=1","route_id":"r1","route_name":"第1段"},{"name":"伯乐宠物医院","address":"温馨佳苑北门西290米","phone":"15336387779","category":"医疗保健服务;动物医疗场所;宠物诊所","area":"","lng":120.697987,"lat":36.9763,"amap_id":"B0FFI95RKM","order":17,"prev_distance_km":1.296,"cumulative_distance_km":53.0,"amap_marker_url":"https://uri.amap.com/marker?position=120.697987,36.976300&name=%E4%BC%AF%E4%B9%90%E5%AE%A0%E7%89%A9%E5%8C%BB%E9%99%A2&src=vetmap&coordinate=gaode&callnative=1","route_id":"r1","route_name":"第1段"},{"name":"莱阳市动物疫病预防与控制中心","address":"旌旗西路667号","phone":"","category":"医疗保健服务;动物医疗场所;动物医疗场所","area":"","lng":120.687403,"lat":36.97637,"amap_id":"B021704IO4","order":18,"prev_distance_km":0.94,"cumulative_distance_km":53.94,"amap_marker_url":"https://uri.amap.com/marker?position=120.687403,36.976370&name=%E8%8E%B1%E9%98%B3%E5%B8%82%E5%8A%A8%E7%89%A9%E7%96%AB%E7%97%85%E9%A2%84%E9%98%B2%E4%B8%8E%E6%8E%A7%E5%88%B6%E4%B8%AD%E5%BF%83&src=vetmap&coordinate=gaode&callnative=1","route_id":"r1","route_name":"第1段"},{"name":"锦诺宠物医院","address":"马山路58号鞋业城102商业房(碧桂园红绿灯东130米路北)","phone":"13573586174","category":"医疗保健服务;动物医疗场所;宠物诊所","area":"","lng":120.705811,"lat":36.985004,"amap_id":"B0FFGNGW6S","order":19,"prev_distance_km":1.896,"cumulative_distance_km":55.836,"amap_marker_url":"https://uri.amap.com/marker?position=120.705811,36.985004&name=%E9%94%A6%E8%AF%BA%E5%AE%A0%E7%89%A9%E5%8C%BB%E9%99%A2&src=vetmap&coordinate=gaode&callnative=1","route_id":"r1","route_name":"第1段"},{"name":"仁和宠物(朗逸豪庭国际公寓店)","address":"马山路58号朗逸豪庭西","phone":"","category":"医疗保健服务;动物医疗场所;宠物诊所","area":"","lng":120.706392,"lat":36.985526,"amap_id":"B0JRGATJ7A","order":20,"prev_distance_km":0.078,"cumulative_distance_km":55.914,"amap_marker_url":"https://uri.amap.com/marker?position=120.706392,36.985526&name=%E4%BB%81%E5%92%8C%E5%AE%A0%E7%89%A9%28%E6%9C%97%E9%80%B8%E8%B1%AA%E5%BA%AD%E5%9B%BD%E9%99%85%E5%85%AC%E5%AF%93%E5%BA%97%29&src=vetmap&coordinate=gaode&callnative=1","route_id":"r1","route_name":"第1段"},{"name":"莱阳市兽医站三门诊(马山路店)","address":"马山路137-153号附近","phone":"13791213636","category":"医疗保健服务;动物医疗场所;兽医站","area":"","lng":120.711324,"lat":36.987103,"amap_id":"B0FFG94K1C","order":21,"prev_distance_km":0.472,"cumulative_distance_km":56.386,"amap_marker_url":"https://uri.amap.com/marker?position=120.711324,36.987103&name=%E8%8E%B1%E9%98%B3%E5%B8%82%E5%85%BD%E5%8C%BB%E7%AB%99%E4%B8%89%E9%97%A8%E8%AF%8A%28%E9%A9%AC%E5%B1%B1%E8%B7%AF%E5%BA%97%29&src=vetmap&coordinate=gaode&callnative=1","route_id":"r1","route_name":"第1段"},{"name":"旺旺动物诊疗所","address":"鸿达文化小区北区西1门南380米","phone":"","category":"医疗保健服务;动物医疗场所;宠物诊所","area":"","lng":120.718546,"lat":36.983508,"amap_id":"B0JUG46Z3B","order":22,"prev_distance_km":0.756,"cumulative_distance_km":57.142,"amap_marker_url":"https://uri.amap.com/marker?position=120.718546,36.983508&name=%E6%97%BA%E6%97%BA%E5%8A%A8%E7%89%A9%E8%AF%8A%E7%96%97%E6%89%80&src=vetmap&coordinate=gaode&callnative=1","route_id":"r1","route_name":"第1段"},{"name":"友喵友汪宠物医院","address":"盛隆广场C区西北门北110米","phone":"","category":"医疗保健服务;动物医疗场所;宠物诊所","area":"","lng":120.728675,"lat":36.976975,"amap_id":"B0L1X7RGHY","order":23,"prev_distance_km":1.156,"cumulative_distance_km":58.298,"amap_marker_url":"https://uri.amap.com/marker?position=120.728675,36.976975&name=%E5%8F%8B%E5%96%B5%E5%8F%8B%E6%B1%AA%E5%AE%A0%E7%89%A9%E5%8C%BB%E9%99%A2&src=vetmap&coordinate=gaode&callnative=1","route_id":"r1","route_name":"第1段"},{"name":"万达宠物医院","address":"盛隆岭秀城北门旁","phone":"15098570787","category":"医疗保健服务;动物医疗场所;宠物诊所","area":"","lng":120.742558,"lat":36.973706,"amap_id":"B0FFIYS6WI","order":24,"prev_distance_km":1.286,"cumulative_distance_km":59.584,"amap_marker_url":"https://uri.amap.com/marker?position=120.742558,36.973706&name=%E4%B8%87%E8%BE%BE%E5%AE%A0%E7%89%A9%E5%8C%BB%E9%99%A2&src=vetmap&coordinate=gaode&callnative=1","route_id":"r1","route_name":"第1段"},{"name":"莱阳市庆农宠物医院中心","address":"文化路","phone":"13645452722","category":"医疗保健服务;动物医疗场所;宠物诊所","area":"","lng":120.724633,"lat":36.983523,"amap_id":"B0GULCS7MV","order":25,"prev_distance_km":1.931,"cumulative_distance_km":61.514,"amap_marker_url":"https://uri.amap.com/marker?position=120.724633,36.983523&name=%E8%8E%B1%E9%98%B3%E5%B8%82%E5%BA%86%E5%86%9C%E5%AE%A0%E7%89%A9%E5%8C%BB%E9%99%A2%E4%B8%AD%E5%BF%83&src=vetmap&coordinate=gaode&callnative=1","route_id":"r1","route_name":"第1段"},{"name":"毛皮动物疫病畜禽宠物疫病防控中心","address":"文化路与蚬河北路交叉口东140米","phone":"","category":"医疗保健服务;动物医疗场所;动物医疗场所","area":"","lng":120.722599,"lat":36.983819,"amap_id":"B0FFL3LHDK","order":26,"prev_distance_km":0.184,"cumulative_distance_km":61.698,"amap_marker_url":"https://uri.amap.com/marker?position=120.722599,36.983819&name=%E6%AF%9B%E7%9A%AE%E5%8A%A8%E7%89%A9%E7%96%AB%E7%97%85%E7%95%9C%E7%A6%BD%E5%AE%A0%E7%89%A9%E7%96%AB%E7%97%85%E9%98%B2%E6%8E%A7%E4%B8%AD%E5%BF%83&src=vetmap&coordinate=gaode&callnative=1","route_id":"r1","route_name":"第1段"},{"name":"莱阳市河洛畜牧兽医站","address":"河洛镇委南侧60米","phone":"","category":"医疗保健服务;动物医疗场所;兽医站","area":"","lng":120.716278,"lat":37.013035,"amap_id":"B0J1BHJX2W","order":27,"prev_distance_km":3.297,"cumulative_distance_km":64.995,"amap_marker_url":"https://uri.amap.com/marker?position=120.716278,37.013035&name=%E8%8E%B1%E9%98%B3%E5%B8%82%E6%B2%B3%E6%B4%9B%E7%95%9C%E7%89%A7%E5%85%BD%E5%8C%BB%E7%AB%99&src=vetmap&coordinate=gaode&callnative=1","route_id":"r1","route_name":"第1段"},{"name":"莱阳市沐浴店畜牧兽医工作站","address":"沐水路与龙寨街交叉口南260米","phone":"","category":"医疗保健服务;动物医疗场所;兽医站","area":"","lng":120.758722,"lat":37.03415,"amap_id":"B02170RDSV","order":28,"prev_distance_km":4.44,"cumulative_distance_km":69.434,"amap_marker_url":"https://uri.amap.com/marker?position=120.758722,37.034150&name=%E8%8E%B1%E9%98%B3%E5%B8%82%E6%B2%90%E6%B5%B4%E5%BA%97%E7%95%9C%E7%89%A7%E5%85%BD%E5%8C%BB%E5%B7%A5%E4%BD%9C%E7%AB%99&src=vetmap&coordinate=gaode&callnative=1","route_id":"r1","route_name":"第1段"},{"name":"莱阳市龙旺庄畜牧兽医工作站","address":"G309(荣兰线)","phone":"","category":"医疗保健服务;动物医疗场所;兽医站","area":"","lng":120.821909,"lat":36.958865,"amap_id":"B021705K4S","order":29,"prev_distance_km":10.078,"cumulative_distance_km":79.512,"amap_marker_url":"https://uri.amap.com/marker?position=120.821909,36.958865&name=%E8%8E%B1%E9%98%B3%E5%B8%82%E9%BE%99%E6%97%BA%E5%BA%84%E7%95%9C%E7%89%A7%E5%85%BD%E5%8C%BB%E5%B7%A5%E4%BD%9C%E7%AB%99&src=vetmap&coordinate=gaode&callnative=1","route_id":"r1","route_name":"第1段"},{"name":"莱阳市山前店畜牧兽医工作站","address":"烟台广润石化加油站西北侧70米","phone":"","category":"医疗保健服务;动物医疗场所;兽医站","area":"","lng":120.893011,"lat":37.032796,"amap_id":"B021705E4E","order":30,"prev_distance_km":10.366,"cumulative_distance_km":89.878,"amap_marker_url":"https://uri.amap.com/marker?position=120.893011,37.032796&name=%E8%8E%B1%E9%98%B3%E5%B8%82%E5%B1%B1%E5%89%8D%E5%BA%97%E7%95%9C%E7%89%A7%E5%85%BD%E5%8C%BB%E5%B7%A5%E4%BD%9C%E7%AB%99&src=vetmap&coordinate=gaode&callnative=1","route_id":"r1","route_name":"第1段"}]}],"rows":[{"name":"牧兴旺动物门诊","address":"歇凤路","phone":"","category":"医疗保健服务;动物医疗场所;宠物诊所","area":"","lng":120.710807,"lat":36.667506,"amap_id":"B0L6K4M9R6","order":1,"prev_distance_km":0.0,"cumulative_distance_km":0.0,"amap_marker_url":"https://uri.amap.com/marker?position=120.710807,36.667506&name=%E7%89%A7%E5%85%B4%E6%97%BA%E5%8A%A8%E7%89%A9%E9%97%A8%E8%AF%8A&src=vetmap&coordinate=gaode&callnative=1","route_id":"r1","route_name":"第1段","global_order":1},{"name":"高格庄第一兽药门诊","address":"高格庄镇人民政府西侧60米","phone":"13645441233","category":"医疗保健服务;动物医疗场所;兽医站","area":"","lng":120.769501,"lat":36.719782,"amap_id":"B0FFFZ9SSU","order":2,"prev_distance_km":7.821,"cumulative_distance_km":7.821,"amap_marker_url":"https://uri.amap.com/marker?position=120.769501,36.719782&name=%E9%AB%98%E6%A0%BC%E5%BA%84%E7%AC%AC%E4%B8%80%E5%85%BD%E8%8D%AF%E9%97%A8%E8%AF%8A&src=vetmap&coordinate=gaode&callnative=1","route_id":"r1","route_name":"第1段","global_order":2},{"name":"莱阳市姜疃畜牧兽医站","address":"莱阳市第一人民医院东北侧130米","phone":"0535-7639899;15953582337","category":"医疗保健服务;动物医疗场所;兽医站","area":"","lng":120.743528,"lat":36.782854,"amap_id":"B02170RCPT","order":3,"prev_distance_km":7.385,"cumulative_distance_km":15.207,"amap_marker_url":"https://uri.amap.com/marker?position=120.743528,36.782854&name=%E8%8E%B1%E9%98%B3%E5%B8%82%E5%A7%9C%E7%96%83%E7%95%9C%E7%89%A7%E5%85%BD%E5%8C%BB%E7%AB%99&src=vetmap&coordinate=gaode&callnative=1","route_id":"r1","route_name":"第1段","global_order":3},{"name":"莱阳市团旺畜牧兽医工作站","address":"209省道与益友街交叉口北220米","phone":"0535-7541368","category":"医疗保健服务;动物医疗场所;兽医站","area":"","lng":120.645994,"lat":36.761221,"amap_id":"B021705MCF","order":4,"prev_distance_km":9.014,"cumulative_distance_km":24.221,"amap_marker_url":"https://uri.amap.com/marker?position=120.645994,36.761221&name=%E8%8E%B1%E9%98%B3%E5%B8%82%E5%9B%A2%E6%97%BA%E7%95%9C%E7%89%A7%E5%85%BD%E5%8C%BB%E5%B7%A5%E4%BD%9C%E7%AB%99&src=vetmap&coordinate=gaode&callnative=1","route_id":"r1","route_name":"第1段","global_order":4},{"name":"祥云动物医院","address":"团旺镇莱穴路中国移动手机专卖店旁","phone":"0535-7532339;13884675626","category":"医疗保健服务;动物医疗场所;兽医站","area":"","lng":120.645333,"lat":36.761709,"amap_id":"B02170RCP1","order":5,"prev_distance_km":0.08,"cumulative_distance_km":24.301,"amap_marker_url":"https://uri.amap.com/marker?position=120.645333,36.761709&name=%E7%A5%A5%E4%BA%91%E5%8A%A8%E7%89%A9%E5%8C%BB%E9%99%A2&src=vetmap&coordinate=gaode&callnative=1","route_id":"r1","route_name":"第1段","global_order":5},{"name":"吕格庄动物检疫申报点","address":"209省道与昌盛路交叉口北320米","phone":"","category":"医疗保健服务;动物医疗场所;动物医疗场所","area":"","lng":120.646812,"lat":36.86841,"amap_id":"B0KG2UX3TC","order":6,"prev_distance_km":11.865,"cumulative_distance_km":36.166,"amap_marker_url":"https://uri.amap.com/marker?position=120.646812,36.868410&name=%E5%90%95%E6%A0%BC%E5%BA%84%E5%8A%A8%E7%89%A9%E6%A3%80%E7%96%AB%E7%94%B3%E6%8A%A5%E7%82%B9&src=vetmap&coordinate=gaode&callnative=1","route_id":"r1","route_name":"第1段","global_order":6},{"name":"盛迪牧业动物门诊","address":"209省道与013乡道交叉口南400米","phone":"","category":"医疗保健服务;动物医疗场所;宠物诊所","area":"","lng":120.646009,"lat":36.870181,"amap_id":"B0LD1KGI6P","order":7,"prev_distance_km":0.209,"cumulative_distance_km":36.376,"amap_marker_url":"https://uri.amap.com/marker?position=120.646009,36.870181&name=%E7%9B%9B%E8%BF%AA%E7%89%A7%E4%B8%9A%E5%8A%A8%E7%89%A9%E9%97%A8%E8%AF%8A&src=vetmap&coordinate=gaode&callnative=1","route_id":"r1","route_name":"第1段","global_order":7},{"name":"莱阳市古柳畜牧兽医工作站","address":"荆山路","phone":"","category":"医疗保健服务;动物医疗场所;兽医站","area":"","lng":120.697304,"lat":36.926738,"amap_id":"B021705G4W","order":8,"prev_distance_km":7.769,"cumulative_distance_km":44.145,"amap_marker_url":"https://uri.amap.com/marker?position=120.697304,36.926738&name=%E8%8E%B1%E9%98%B3%E5%B8%82%E5%8F%A4%E6%9F%B3%E7%95%9C%E7%89%A7%E5%85%BD%E5%8C%BB%E5%B7%A5%E4%BD%9C%E7%AB%99&src=vetmap&coordinate=gaode&callnative=1","route_id":"r1","route_name":"第1段","global_order":8},{"name":"动物保健中心","address":"荆山路81号","phone":"13791231073","category":"医疗保健服务;动物医疗场所;动物医疗场所","area":"","lng":120.696915,"lat":36.927124,"amap_id":"B0FFH9O0A6","order":9,"prev_distance_km":0.055,"cumulative_distance_km":44.2,"amap_marker_url":"https://uri.amap.com/marker?position=120.696915,36.927124&name=%E5%8A%A8%E7%89%A9%E4%BF%9D%E5%81%A5%E4%B8%AD%E5%BF%83&src=vetmap&coordinate=gaode&callnative=1","route_id":"r1","route_name":"第1段","global_order":9},{"name":"爱尚伴侣动物医院(盛隆富水小区店)","address":"金山大街668号","phone":"15153569699","category":"医疗保健服务;动物医疗场所;宠物诊所","area":"","lng":120.704371,"lat":36.958863,"amap_id":"B02170RXT7","order":10,"prev_distance_km":3.591,"cumulative_distance_km":47.791,"amap_marker_url":"https://uri.amap.com/marker?position=120.704371,36.958863&name=%E7%88%B1%E5%B0%9A%E4%BC%B4%E4%BE%A3%E5%8A%A8%E7%89%A9%E5%8C%BB%E9%99%A2%28%E7%9B%9B%E9%9A%86%E5%AF%8C%E6%B0%B4%E5%B0%8F%E5%8C%BA%E5%BA%97%29&src=vetmap&coordinate=gaode&callnative=1","route_id":"r1","route_name":"第1段","global_order":10},{"name":"莱阳市瑞宠宠物生活馆","address":"金山大街国家安全局商品房1-2号","phone":"13853529998","category":"医疗保健服务;动物医疗场所;宠物诊所","area":"","lng":120.703417,"lat":36.959451,"amap_id":"B0FFLIND0C","order":11,"prev_distance_km":0.107,"cumulative_distance_km":47.898,"amap_marker_url":"https://uri.amap.com/marker?position=120.703417,36.959451&name=%E8%8E%B1%E9%98%B3%E5%B8%82%E7%91%9E%E5%AE%A0%E5%AE%A0%E7%89%A9%E7%94%9F%E6%B4%BB%E9%A6%86&src=vetmap&coordinate=gaode&callnative=1","route_id":"r1","route_name":"第1段","global_order":11},{"name":"道格动物诊疗","address":"富水南路与望石街交叉口东南80米","phone":"15345359097","category":"医疗保健服务;动物医疗场所;宠物诊所","area":"","lng":120.700975,"lat":36.961322,"amap_id":"B0JKBOFDW7","order":12,"prev_distance_km":0.301,"cumulative_distance_km":48.198,"amap_marker_url":"https://uri.amap.com/marker?position=120.700975,36.961322&name=%E9%81%93%E6%A0%BC%E5%8A%A8%E7%89%A9%E8%AF%8A%E7%96%97&src=vetmap&coordinate=gaode&callnative=1","route_id":"r1","route_name":"第1段","global_order":12},{"name":"莱阳加禾宠物诊疗","address":"富水南路9号","phone":"15153520556","category":"医疗保健服务;动物医疗场所;宠物诊所","area":"","lng":120.700498,"lat":36.965412,"amap_id":"B0M6FSWZW9","order":13,"prev_distance_km":0.457,"cumulative_distance_km":48.655,"amap_marker_url":"https://uri.amap.com/marker?position=120.700498,36.965412&name=%E8%8E%B1%E9%98%B3%E5%8A%A0%E7%A6%BE%E5%AE%A0%E7%89%A9%E8%AF%8A%E7%96%97&src=vetmap&coordinate=gaode&callnative=1","route_id":"r1","route_name":"第1段","global_order":13},{"name":"熊孩子宠物医院","address":"金山大街盛隆悦府22号楼112号","phone":"0535-7210968","category":"医疗保健服务;动物医疗场所;宠物诊所","area":"","lng":120.714055,"lat":36.95849,"amap_id":"B0IBFZ0R2K","order":14,"prev_distance_km":1.429,"cumulative_distance_km":50.085,"amap_marker_url":"https://uri.amap.com/marker?position=120.714055,36.958490&name=%E7%86%8A%E5%AD%A9%E5%AD%90%E5%AE%A0%E7%89%A9%E5%8C%BB%E9%99%A2&src=vetmap&coordinate=gaode&callnative=1","route_id":"r1","route_name":"第1段","global_order":14},{"name":"宠嘉(盛隆新天地店)","address":"大寺街288号盛隆新天地F2层","phone":"","category":"医疗保健服务;动物医疗场所;宠物诊所","area":"","lng":120.713874,"lat":36.969636,"amap_id":"B0LD3DJ020","order":15,"prev_distance_km":1.239,"cumulative_distance_km":51.324,"amap_marker_url":"https://uri.amap.com/marker?position=120.713874,36.969636&name=%E5%AE%A0%E5%98%89%28%E7%9B%9B%E9%9A%86%E6%96%B0%E5%A4%A9%E5%9C%B0%E5%BA%97%29&src=vetmap&coordinate=gaode&callnative=1","route_id":"r1","route_name":"第1段","global_order":15},{"name":"莱阳市动物疫病防治门诊","address":"昌山路186号","phone":"0535-7268666","category":"医疗保健服务;动物医疗场所;兽医站","area":"","lng":120.711839,"lat":36.972639,"amap_id":"B02170RZGN","order":16,"prev_distance_km":0.38,"cumulative_distance_km":51.704,"amap_marker_url":"https://uri.amap.com/marker?position=120.711839,36.972639&name=%E8%8E%B1%E9%98%B3%E5%B8%82%E5%8A%A8%E7%89%A9%E7%96%AB%E7%97%85%E9%98%B2%E6%B2%BB%E9%97%A8%E8%AF%8A&src=vetmap&coordinate=gaode&callnative=1","route_id":"r1","route_name":"第1段","global_order":16},{"name":"伯乐宠物医院","address":"温馨佳苑北门西290米","phone":"15336387779","category":"医疗保健服务;动物医疗场所;宠物诊所","area":"","lng":120.697987,"lat":36.9763,"amap_id":"B0FFI95RKM","order":17,"prev_distance_km":1.296,"cumulative_distance_km":53.0,"amap_marker_url":"https://uri.amap.com/marker?position=120.697987,36.976300&name=%E4%BC%AF%E4%B9%90%E5%AE%A0%E7%89%A9%E5%8C%BB%E9%99%A2&src=vetmap&coordinate=gaode&callnative=1","route_id":"r1","route_name":"第1段","global_order":17},{"name":"莱阳市动物疫病预防与控制中心","address":"旌旗西路667号","phone":"","category":"医疗保健服务;动物医疗场所;动物医疗场所","area":"","lng":120.687403,"lat":36.97637,"amap_id":"B021704IO4","order":18,"prev_distance_km":0.94,"cumulative_distance_km":53.94,"amap_marker_url":"https://uri.amap.com/marker?position=120.687403,36.976370&name=%E8%8E%B1%E9%98%B3%E5%B8%82%E5%8A%A8%E7%89%A9%E7%96%AB%E7%97%85%E9%A2%84%E9%98%B2%E4%B8%8E%E6%8E%A7%E5%88%B6%E4%B8%AD%E5%BF%83&src=vetmap&coordinate=gaode&callnative=1","route_id":"r1","route_name":"第1段","global_order":18},{"name":"锦诺宠物医院","address":"马山路58号鞋业城102商业房(碧桂园红绿灯东130米路北)","phone":"13573586174","category":"医疗保健服务;动物医疗场所;宠物诊所","area":"","lng":120.705811,"lat":36.985004,"amap_id":"B0FFGNGW6S","order":19,"prev_distance_km":1.896,"cumulative_distance_km":55.836,"amap_marker_url":"https://uri.amap.com/marker?position=120.705811,36.985004&name=%E9%94%A6%E8%AF%BA%E5%AE%A0%E7%89%A9%E5%8C%BB%E9%99%A2&src=vetmap&coordinate=gaode&callnative=1","route_id":"r1","route_name":"第1段","global_order":19},{"name":"仁和宠物(朗逸豪庭国际公寓店)","address":"马山路58号朗逸豪庭西","phone":"","category":"医疗保健服务;动物医疗场所;宠物诊所","area":"","lng":120.706392,"lat":36.985526,"amap_id":"B0JRGATJ7A","order":20,"prev_distance_km":0.078,"cumulative_distance_km":55.914,"amap_marker_url":"https://uri.amap.com/marker?position=120.706392,36.985526&name=%E4%BB%81%E5%92%8C%E5%AE%A0%E7%89%A9%28%E6%9C%97%E9%80%B8%E8%B1%AA%E5%BA%AD%E5%9B%BD%E9%99%85%E5%85%AC%E5%AF%93%E5%BA%97%29&src=vetmap&coordinate=gaode&callnative=1","route_id":"r1","route_name":"第1段","global_order":20},{"name":"莱阳市兽医站三门诊(马山路店)","address":"马山路137-153号附近","phone":"13791213636","category":"医疗保健服务;动物医疗场所;兽医站","area":"","lng":120.711324,"lat":36.987103,"amap_id":"B0FFG94K1C","order":21,"prev_distance_km":0.472,"cumulative_distance_km":56.386,"amap_marker_url":"https://uri.amap.com/marker?position=120.711324,36.987103&name=%E8%8E%B1%E9%98%B3%E5%B8%82%E5%85%BD%E5%8C%BB%E7%AB%99%E4%B8%89%E9%97%A8%E8%AF%8A%28%E9%A9%AC%E5%B1%B1%E8%B7%AF%E5%BA%97%29&src=vetmap&coordinate=gaode&callnative=1","route_id":"r1","route_name":"第1段","global_order":21},{"name":"旺旺动物诊疗所","address":"鸿达文化小区北区西1门南380米","phone":"","category":"医疗保健服务;动物医疗场所;宠物诊所","area":"","lng":120.718546,"lat":36.983508,"amap_id":"B0JUG46Z3B","order":22,"prev_distance_km":0.756,"cumulative_distance_km":57.142,"amap_marker_url":"https://uri.amap.com/marker?position=120.718546,36.983508&name=%E6%97%BA%E6%97%BA%E5%8A%A8%E7%89%A9%E8%AF%8A%E7%96%97%E6%89%80&src=vetmap&coordinate=gaode&callnative=1","route_id":"r1","route_name":"第1段","global_order":22},{"name":"友喵友汪宠物医院","address":"盛隆广场C区西北门北110米","phone":"","category":"医疗保健服务;动物医疗场所;宠物诊所","area":"","lng":120.728675,"lat":36.976975,"amap_id":"B0L1X7RGHY","order":23,"prev_distance_km":1.156,"cumulative_distance_km":58.298,"amap_marker_url":"https://uri.amap.com/marker?position=120.728675,36.976975&name=%E5%8F%8B%E5%96%B5%E5%8F%8B%E6%B1%AA%E5%AE%A0%E7%89%A9%E5%8C%BB%E9%99%A2&src=vetmap&coordinate=gaode&callnative=1","route_id":"r1","route_name":"第1段","global_order":23},{"name":"万达宠物医院","address":"盛隆岭秀城北门旁","phone":"15098570787","category":"医疗保健服务;动物医疗场所;宠物诊所","area":"","lng":120.742558,"lat":36.973706,"amap_id":"B0FFIYS6WI","order":24,"prev_distance_km":1.286,"cumulative_distance_km":59.584,"amap_marker_url":"https://uri.amap.com/marker?position=120.742558,36.973706&name=%E4%B8%87%E8%BE%BE%E5%AE%A0%E7%89%A9%E5%8C%BB%E9%99%A2&src=vetmap&coordinate=gaode&callnative=1","route_id":"r1","route_name":"第1段","global_order":24},{"name":"莱阳市庆农宠物医院中心","address":"文化路","phone":"13645452722","category":"医疗保健服务;动物医疗场所;宠物诊所","area":"","lng":120.724633,"lat":36.983523,"amap_id":"B0GULCS7MV","order":25,"prev_distance_km":1.931,"cumulative_distance_km":61.514,"amap_marker_url":"https://uri.amap.com/marker?position=120.724633,36.983523&name=%E8%8E%B1%E9%98%B3%E5%B8%82%E5%BA%86%E5%86%9C%E5%AE%A0%E7%89%A9%E5%8C%BB%E9%99%A2%E4%B8%AD%E5%BF%83&src=vetmap&coordinate=gaode&callnative=1","route_id":"r1","route_name":"第1段","global_order":25},{"name":"毛皮动物疫病畜禽宠物疫病防控中心","address":"文化路与蚬河北路交叉口东140米","phone":"","category":"医疗保健服务;动物医疗场所;动物医疗场所","area":"","lng":120.722599,"lat":36.983819,"amap_id":"B0FFL3LHDK","order":26,"prev_distance_km":0.184,"cumulative_distance_km":61.698,"amap_marker_url":"https://uri.amap.com/marker?position=120.722599,36.983819&name=%E6%AF%9B%E7%9A%AE%E5%8A%A8%E7%89%A9%E7%96%AB%E7%97%85%E7%95%9C%E7%A6%BD%E5%AE%A0%E7%89%A9%E7%96%AB%E7%97%85%E9%98%B2%E6%8E%A7%E4%B8%AD%E5%BF%83&src=vetmap&coordinate=gaode&callnative=1","route_id":"r1","route_name":"第1段","global_order":26},{"name":"莱阳市河洛畜牧兽医站","address":"河洛镇委南侧60米","phone":"","category":"医疗保健服务;动物医疗场所;兽医站","area":"","lng":120.716278,"lat":37.013035,"amap_id":"B0J1BHJX2W","order":27,"prev_distance_km":3.297,"cumulative_distance_km":64.995,"amap_marker_url":"https://uri.amap.com/marker?position=120.716278,37.013035&name=%E8%8E%B1%E9%98%B3%E5%B8%82%E6%B2%B3%E6%B4%9B%E7%95%9C%E7%89%A7%E5%85%BD%E5%8C%BB%E7%AB%99&src=vetmap&coordinate=gaode&callnative=1","route_id":"r1","route_name":"第1段","global_order":27},{"name":"莱阳市沐浴店畜牧兽医工作站","address":"沐水路与龙寨街交叉口南260米","phone":"","category":"医疗保健服务;动物医疗场所;兽医站","area":"","lng":120.758722,"lat":37.03415,"amap_id":"B02170RDSV","order":28,"prev_distance_km":4.44,"cumulative_distance_km":69.434,"amap_marker_url":"https://uri.amap.com/marker?position=120.758722,37.034150&name=%E8%8E%B1%E9%98%B3%E5%B8%82%E6%B2%90%E6%B5%B4%E5%BA%97%E7%95%9C%E7%89%A7%E5%85%BD%E5%8C%BB%E5%B7%A5%E4%BD%9C%E7%AB%99&src=vetmap&coordinate=gaode&callnative=1","route_id":"r1","route_name":"第1段","global_order":28},{"name":"莱阳市龙旺庄畜牧兽医工作站","address":"G309(荣兰线)","phone":"","category":"医疗保健服务;动物医疗场所;兽医站","area":"","lng":120.821909,"lat":36.958865,"amap_id":"B021705K4S","order":29,"prev_distance_km":10.078,"cumulative_distance_km":79.512,"amap_marker_url":"https://uri.amap.com/marker?position=120.821909,36.958865&name=%E8%8E%B1%E9%98%B3%E5%B8%82%E9%BE%99%E6%97%BA%E5%BA%84%E7%95%9C%E7%89%A7%E5%85%BD%E5%8C%BB%E5%B7%A5%E4%BD%9C%E7%AB%99&src=vetmap&coordinate=gaode&callnative=1","route_id":"r1","route_name":"第1段","global_order":29},{"name":"莱阳市山前店畜牧兽医工作站","address":"烟台广润石化加油站西北侧70米","phone":"","category":"医疗保健服务;动物医疗场所;兽医站","area":"","lng":120.893011,"lat":37.032796,"amap_id":"B021705E4E","order":30,"prev_distance_km":10.366,"cumulative_distance_km":89.878,"amap_marker_url":"https://uri.amap.com/marker?position=120.893011,37.032796&name=%E8%8E%B1%E9%98%B3%E5%B8%82%E5%B1%B1%E5%89%8D%E5%BA%97%E7%95%9C%E7%89%A7%E5%85%BD%E5%8C%BB%E5%B7%A5%E4%BD%9C%E7%AB%99&src=vetmap&coordinate=gaode&callnative=1","route_id":"r1","route_name":"第1段","global_order":30}]}