{"summary":{"id":"d00460","province":"山西省","city":"临汾市","district":"霍州市","count":5,"route_count":1,"max_route_clinics":5,"total_distance_km":6.488,"coordinate_system":"GCJ-02 / Amap","generated_at":"2026-05-08 19:42:36"},"routes":[{"id":"r1","name":"第1段","count":5,"total_distance_km":6.488,"rows":[{"name":"维尼宠物医院","address":"经十路","phone":"","category":"医疗保健服务;动物医疗场所;宠物诊所","area":"","lng":111.793881,"lat":36.574161,"amap_id":"B0IR0ZTATZ","order":1,"prev_distance_km":0.0,"cumulative_distance_km":0.0,"amap_marker_url":"https://uri.amap.com/marker?position=111.793881,36.574161&name=%E7%BB%B4%E5%B0%BC%E5%AE%A0%E7%89%A9%E5%8C%BB%E9%99%A2&src=vetmap&coordinate=gaode&callnative=1","route_id":"r1","route_name":"第1段"},{"name":"六和动保","address":"","phone":"13835718475","category":"医疗保健服务;动物医疗场所;动物医疗场所","area":"","lng":111.762981,"lat":36.573276,"amap_id":"B0FFG9BPC0","order":2,"prev_distance_km":2.761,"cumulative_distance_km":2.761,"amap_marker_url":"https://uri.amap.com/marker?position=111.762981,36.573276&name=%E5%85%AD%E5%92%8C%E5%8A%A8%E4%BF%9D&src=vetmap&coordinate=gaode&callnative=1","route_id":"r1","route_name":"第1段"},{"name":"宠维宠物医院","address":"永康北路56号","phone":"18735954757","category":"医疗保健服务;动物医疗场所;宠物诊所","area":"","lng":111.749234,"lat":36.572117,"amap_id":"B0J1SAS0R3","order":3,"prev_distance_km":1.234,"cumulative_distance_km":3.995,"amap_marker_url":"https://uri.amap.com/marker?position=111.749234,36.572117&name=%E5%AE%A0%E7%BB%B4%E5%AE%A0%E7%89%A9%E5%8C%BB%E9%99%A2&src=vetmap&coordinate=gaode&callnative=1","route_id":"r1","route_name":"第1段"},{"name":"老曹兽药饲料动物门诊","address":"鼓楼东街与新建南路交叉口东100米","phone":"13734091262","category":"医疗保健服务;动物医疗场所;宠物诊所","area":"","lng":111.73927,"lat":36.56901,"amap_id":"B0FFFWBKZM","order":4,"prev_distance_km":0.955,"cumulative_distance_km":4.95,"amap_marker_url":"https://uri.amap.com/marker?position=111.739270,36.569010&name=%E8%80%81%E6%9B%B9%E5%85%BD%E8%8D%AF%E9%A5%B2%E6%96%99%E5%8A%A8%E7%89%A9%E9%97%A8%E8%AF%8A&src=vetmap&coordinate=gaode&callnative=1","route_id":"r1","route_name":"第1段"},{"name":"霍州博爱宠物医院","address":"滨河南路15号","phone":"","category":"医疗保健服务;动物医疗场所;宠物诊所","area":"","lng":111.723108,"lat":36.564224,"amap_id":"B0M6TZ2P97","order":5,"prev_distance_km":1.538,"cumulative_distance_km":6.488,"amap_marker_url":"https://uri.amap.com/marker?position=111.723108,36.564224&name=%E9%9C%8D%E5%B7%9E%E5%8D%9A%E7%88%B1%E5%AE%A0%E7%89%A9%E5%8C%BB%E9%99%A2&src=vetmap&coordinate=gaode&callnative=1","route_id":"r1","route_name":"第1段"}]}],"rows":[{"name":"维尼宠物医院","address":"经十路","phone":"","category":"医疗保健服务;动物医疗场所;宠物诊所","area":"","lng":111.793881,"lat":36.574161,"amap_id":"B0IR0ZTATZ","order":1,"prev_distance_km":0.0,"cumulative_distance_km":0.0,"amap_marker_url":"https://uri.amap.com/marker?position=111.793881,36.574161&name=%E7%BB%B4%E5%B0%BC%E5%AE%A0%E7%89%A9%E5%8C%BB%E9%99%A2&src=vetmap&coordinate=gaode&callnative=1","route_id":"r1","route_name":"第1段","global_order":1},{"name":"六和动保","address":"","phone":"13835718475","category":"医疗保健服务;动物医疗场所;动物医疗场所","area":"","lng":111.762981,"lat":36.573276,"amap_id":"B0FFG9BPC0","order":2,"prev_distance_km":2.761,"cumulative_distance_km":2.761,"amap_marker_url":"https://uri.amap.com/marker?position=111.762981,36.573276&name=%E5%85%AD%E5%92%8C%E5%8A%A8%E4%BF%9D&src=vetmap&coordinate=gaode&callnative=1","route_id":"r1","route_name":"第1段","global_order":2},{"name":"宠维宠物医院","address":"永康北路56号","phone":"18735954757","category":"医疗保健服务;动物医疗场所;宠物诊所","area":"","lng":111.749234,"lat":36.572117,"amap_id":"B0J1SAS0R3","order":3,"prev_distance_km":1.234,"cumulative_distance_km":3.995,"amap_marker_url":"https://uri.amap.com/marker?position=111.749234,36.572117&name=%E5%AE%A0%E7%BB%B4%E5%AE%A0%E7%89%A9%E5%8C%BB%E9%99%A2&src=vetmap&coordinate=gaode&callnative=1","route_id":"r1","route_name":"第1段","global_order":3},{"name":"老曹兽药饲料动物门诊","address":"鼓楼东街与新建南路交叉口东100米","phone":"13734091262","category":"医疗保健服务;动物医疗场所;宠物诊所","area":"","lng":111.73927,"lat":36.56901,"amap_id":"B0FFFWBKZM","order":4,"prev_distance_km":0.955,"cumulative_distance_km":4.95,"amap_marker_url":"https://uri.amap.com/marker?position=111.739270,36.569010&name=%E8%80%81%E6%9B%B9%E5%85%BD%E8%8D%AF%E9%A5%B2%E6%96%99%E5%8A%A8%E7%89%A9%E9%97%A8%E8%AF%8A&src=vetmap&coordinate=gaode&callnative=1","route_id":"r1","route_name":"第1段","global_order":4},{"name":"霍州博爱宠物医院","address":"滨河南路15号","phone":"","category":"医疗保健服务;动物医疗场所;宠物诊所","area":"","lng":111.723108,"lat":36.564224,"amap_id":"B0M6TZ2P97","order":5,"prev_distance_km":1.538,"cumulative_distance_km":6.488,"amap_marker_url":"https://uri.amap.com/marker?position=111.723108,36.564224&name=%E9%9C%8D%E5%B7%9E%E5%8D%9A%E7%88%B1%E5%AE%A0%E7%89%A9%E5%8C%BB%E9%99%A2&src=vetmap&coordinate=gaode&callnative=1","route_id":"r1","route_name":"第1段","global_order":5}]}