{"summary":{"id":"d00440","province":"山东省","city":"青岛市","district":"平度市","count":18,"route_count":1,"max_route_clinics":18,"total_distance_km":91.009,"coordinate_system":"GCJ-02 / Amap","generated_at":"2026-05-08 19:42:32"},"routes":[{"id":"r1","name":"第1段","count":18,"total_distance_km":91.009,"rows":[{"name":"兽医站","address":"双泉路42-8号","phone":"15853201356","category":"医疗保健服务;动物医疗场所;兽医站","area":"","lng":120.13034,"lat":36.533167,"amap_id":"B0FFJ08K66","order":1,"prev_distance_km":0.0,"cumulative_distance_km":0.0,"amap_marker_url":"https://uri.amap.com/marker?position=120.130340,36.533167&name=%E5%85%BD%E5%8C%BB%E7%AB%99&src=vetmap&coordinate=gaode&callnative=1","route_id":"r1","route_name":"第1段"},{"name":"动物门诊","address":"祥和华园西侧130米","phone":"0532-83361295","category":"医疗保健服务;动物医疗场所;动物医疗场所","area":"","lng":120.238456,"lat":36.735916,"amap_id":"B0FFJI7KVM","order":2,"prev_distance_km":24.522,"cumulative_distance_km":24.522,"amap_marker_url":"https://uri.amap.com/marker?position=120.238456,36.735916&name=%E5%8A%A8%E7%89%A9%E9%97%A8%E8%AF%8A&src=vetmap&coordinate=gaode&callnative=1","route_id":"r1","route_name":"第1段"},{"name":"旺康宠物门诊(青岛平度市)","address":"永州路福安花苑三期网点315号房","phone":"15153248381","category":"医疗保健服务;动物医疗场所;宠物诊所","area":"","lng":119.988349,"lat":36.795079,"amap_id":"B0FFH1DNYP","order":3,"prev_distance_km":23.23,"cumulative_distance_km":47.752,"amap_marker_url":"https://uri.amap.com/marker?position=119.988349,36.795079&name=%E6%97%BA%E5%BA%B7%E5%AE%A0%E7%89%A9%E9%97%A8%E8%AF%8A%28%E9%9D%92%E5%B2%9B%E5%B9%B3%E5%BA%A6%E5%B8%82%29&src=vetmap&coordinate=gaode&callnative=1","route_id":"r1","route_name":"第1段"},{"name":"爱尚宠物诊所(福州路)","address":"福州路海绮小区营业楼9号房","phone":"0532-87333119;13210226605","category":"医疗保健服务;动物医疗场所;宠物诊所","area":"","lng":119.983337,"lat":36.789088,"amap_id":"B0FFFFWH2K","order":4,"prev_distance_km":0.802,"cumulative_distance_km":48.554,"amap_marker_url":"https://uri.amap.com/marker?position=119.983337,36.789088&name=%E7%88%B1%E5%B0%9A%E5%AE%A0%E7%89%A9%E8%AF%8A%E6%89%80%28%E7%A6%8F%E5%B7%9E%E8%B7%AF%29&src=vetmap&coordinate=gaode&callnative=1","route_id":"r1","route_name":"第1段"},{"name":"旺康动物医院","address":"福州路名士花园东门门头房22-5","phone":"13156867279","category":"医疗保健服务;动物医疗场所;宠物诊所","area":"","lng":119.983703,"lat":36.78641,"amap_id":"B0FFLO0ZU0","order":5,"prev_distance_km":0.3,"cumulative_distance_km":48.853,"amap_marker_url":"https://uri.amap.com/marker?position=119.983703,36.786410&name=%E6%97%BA%E5%BA%B7%E5%8A%A8%E7%89%A9%E5%8C%BB%E9%99%A2&src=vetmap&coordinate=gaode&callnative=1","route_id":"r1","route_name":"第1段"},{"name":"宝康宠物门诊(福州路)","address":"福州路天福现河-一号","phone":"18753280479","category":"医疗保健服务;动物医疗场所;宠物诊所","area":"","lng":119.984127,"lat":36.782539,"amap_id":"B0FFG4KC9U","order":6,"prev_distance_km":0.432,"cumulative_distance_km":49.285,"amap_marker_url":"https://uri.amap.com/marker?position=119.984127,36.782539&name=%E5%AE%9D%E5%BA%B7%E5%AE%A0%E7%89%A9%E9%97%A8%E8%AF%8A%28%E7%A6%8F%E5%B7%9E%E8%B7%AF%29&src=vetmap&coordinate=gaode&callnative=1","route_id":"r1","route_name":"第1段"},{"name":"盛勤动物医院犬猫综合诊疗中心","address":"红旗路鑫港花园北区农行东临19-30号","phone":"0532-88391358;13220881358","category":"医疗保健服务;动物医疗场所;宠物诊所","area":"","lng":119.977608,"lat":36.787989,"amap_id":"B0FFKLFXTK","order":7,"prev_distance_km":0.839,"cumulative_distance_km":50.125,"amap_marker_url":"https://uri.amap.com/marker?position=119.977608,36.787989&name=%E7%9B%9B%E5%8B%A4%E5%8A%A8%E7%89%A9%E5%8C%BB%E9%99%A2%E7%8A%AC%E7%8C%AB%E7%BB%BC%E5%90%88%E8%AF%8A%E7%96%97%E4%B8%AD%E5%BF%83&src=vetmap&coordinate=gaode&callnative=1","route_id":"r1","route_name":"第1段"},{"name":"侃侃得宠动物诊所","address":"杭州路59-19号","phone":"15588633518","category":"医疗保健服务;动物医疗场所;宠物诊所","area":"","lng":119.968173,"lat":36.788487,"amap_id":"B0FFKWVH3A","order":8,"prev_distance_km":0.842,"cumulative_distance_km":50.967,"amap_marker_url":"https://uri.amap.com/marker?position=119.968173,36.788487&name=%E4%BE%83%E4%BE%83%E5%BE%97%E5%AE%A0%E5%8A%A8%E7%89%A9%E8%AF%8A%E6%89%80&src=vetmap&coordinate=gaode&callnative=1","route_id":"r1","route_name":"第1段"},{"name":"比瑞恩动物医院","address":"胜利路千汇花园北门88-19号","phone":"15726266664","category":"医疗保健服务;动物医疗场所;宠物诊所","area":"","lng":119.965604,"lat":36.784215,"amap_id":"B0H6M7G9EU","order":9,"prev_distance_km":0.527,"cumulative_distance_km":51.494,"amap_marker_url":"https://uri.amap.com/marker?position=119.965604,36.784215&name=%E6%AF%94%E7%91%9E%E6%81%A9%E5%8A%A8%E7%89%A9%E5%8C%BB%E9%99%A2&src=vetmap&coordinate=gaode&callnative=1","route_id":"r1","route_name":"第1段"},{"name":"众爱动物诊所","address":"苏州路19-13号","phone":"15666681297","category":"医疗保健服务;动物医疗场所;宠物诊所","area":"","lng":119.962429,"lat":36.78598,"amap_id":"B0FFMH0UC8","order":10,"prev_distance_km":0.344,"cumulative_distance_km":51.838,"amap_marker_url":"https://uri.amap.com/marker?position=119.962429,36.785980&name=%E4%BC%97%E7%88%B1%E5%8A%A8%E7%89%A9%E8%AF%8A%E6%89%80&src=vetmap&coordinate=gaode&callnative=1","route_id":"r1","route_name":"第1段"},{"name":"麦町动物诊所","address":"人民路54-1号","phone":"18562632018","category":"医疗保健服务;动物医疗场所;宠物诊所","area":"利群集团","lng":119.96408,"lat":36.790426,"amap_id":"B0HAT5Z5BG","order":11,"prev_distance_km":0.516,"cumulative_distance_km":52.354,"amap_marker_url":"https://uri.amap.com/marker?position=119.964080,36.790426&name=%E9%BA%A6%E7%94%BA%E5%8A%A8%E7%89%A9%E8%AF%8A%E6%89%80&src=vetmap&coordinate=gaode&callnative=1","route_id":"r1","route_name":"第1段"},{"name":"挚爱宠物门诊(云峡街店)","address":"云峡街14-7号","phone":"","category":"医疗保健服务;动物医疗场所;宠物诊所","area":"","lng":119.957491,"lat":36.791685,"amap_id":"B02140WJSS","order":12,"prev_distance_km":0.603,"cumulative_distance_km":52.957,"amap_marker_url":"https://uri.amap.com/marker?position=119.957491,36.791685&name=%E6%8C%9A%E7%88%B1%E5%AE%A0%E7%89%A9%E9%97%A8%E8%AF%8A%28%E4%BA%91%E5%B3%A1%E8%A1%97%E5%BA%97%29&src=vetmap&coordinate=gaode&callnative=1","route_id":"r1","route_name":"第1段"},{"name":"平度市蟠桃镇畜牧兽医站","address":"紫荆路49-7号附近","phone":"","category":"医疗保健服务;动物医疗场所;兽医站","area":"","lng":119.951841,"lat":36.830327,"amap_id":"B021409DKD","order":13,"prev_distance_km":4.326,"cumulative_distance_km":57.283,"amap_marker_url":"https://uri.amap.com/marker?position=119.951841,36.830327&name=%E5%B9%B3%E5%BA%A6%E5%B8%82%E8%9F%A0%E6%A1%83%E9%95%87%E7%95%9C%E7%89%A7%E5%85%BD%E5%8C%BB%E7%AB%99&src=vetmap&coordinate=gaode&callnative=1","route_id":"r1","route_name":"第1段"},{"name":"爱妮宠物医院(青岛路)","address":"青岛路576号(老车站西400米路南)","phone":"13791815515","category":"医疗保健服务;动物医疗场所;宠物诊所","area":"李园","lng":119.943852,"lat":36.777052,"amap_id":"B021409VW9","order":14,"prev_distance_km":5.966,"cumulative_distance_km":63.25,"amap_marker_url":"https://uri.amap.com/marker?position=119.943852,36.777052&name=%E7%88%B1%E5%A6%AE%E5%AE%A0%E7%89%A9%E5%8C%BB%E9%99%A2%28%E9%9D%92%E5%B2%9B%E8%B7%AF%29&src=vetmap&coordinate=gaode&callnative=1","route_id":"r1","route_name":"第1段"},{"name":"青岛金康动物医院","address":"胶平路178号","phone":"0532-88327958;0532-88327968","category":"医疗保健服务;动物医疗场所;兽医站","area":"","lng":119.954375,"lat":36.769225,"amap_id":"B02140WISM","order":15,"prev_distance_km":1.279,"cumulative_distance_km":64.529,"amap_marker_url":"https://uri.amap.com/marker?position=119.954375,36.769225&name=%E9%9D%92%E5%B2%9B%E9%87%91%E5%BA%B7%E5%8A%A8%E7%89%A9%E5%8C%BB%E9%99%A2&src=vetmap&coordinate=gaode&callnative=1","route_id":"r1","route_name":"第1段"},{"name":"康和恩宠物店","address":"常州路与厦门路交叉口南160米","phone":"15192774982","category":"医疗保健服务;动物医疗场所;宠物诊所","area":"","lng":119.955307,"lat":36.767645,"amap_id":"B0L2D99B2R","order":16,"prev_distance_km":0.194,"cumulative_distance_km":64.723,"amap_marker_url":"https://uri.amap.com/marker?position=119.955307,36.767645&name=%E5%BA%B7%E5%92%8C%E6%81%A9%E5%AE%A0%E7%89%A9%E5%BA%97&src=vetmap&coordinate=gaode&callnative=1","route_id":"r1","route_name":"第1段"},{"name":"清澄动物眼科医院","address":"同和街道办事处深圳路888号29栋18号118、19号119","phone":"16678988120","category":"医疗保健服务;动物医疗场所;宠物诊所","area":"","lng":119.919294,"lat":36.761989,"amap_id":"B0J2N5K6CR","order":17,"prev_distance_km":3.269,"cumulative_distance_km":67.992,"amap_marker_url":"https://uri.amap.com/marker?position=119.919294,36.761989&name=%E6%B8%85%E6%BE%84%E5%8A%A8%E7%89%A9%E7%9C%BC%E7%A7%91%E5%8C%BB%E9%99%A2&src=vetmap&coordinate=gaode&callnative=1","route_id":"r1","route_name":"第1段"},{"name":"崔家集畜牧兽医站","address":"富康路7号平度市崔家集镇镇村建设服务中心附近","phone":"0532-82382597;13792457280","category":"医疗保健服务;动物医疗场所;兽医站","area":"","lng":119.728416,"lat":36.622633,"amap_id":"B021409D70","order":18,"prev_distance_km":23.017,"cumulative_distance_km":91.009,"amap_marker_url":"https://uri.amap.com/marker?position=119.728416,36.622633&name=%E5%B4%94%E5%AE%B6%E9%9B%86%E7%95%9C%E7%89%A7%E5%85%BD%E5%8C%BB%E7%AB%99&src=vetmap&coordinate=gaode&callnative=1","route_id":"r1","route_name":"第1段"}]}],"rows":[{"name":"兽医站","address":"双泉路42-8号","phone":"15853201356","category":"医疗保健服务;动物医疗场所;兽医站","area":"","lng":120.13034,"lat":36.533167,"amap_id":"B0FFJ08K66","order":1,"prev_distance_km":0.0,"cumulative_distance_km":0.0,"amap_marker_url":"https://uri.amap.com/marker?position=120.130340,36.533167&name=%E5%85%BD%E5%8C%BB%E7%AB%99&src=vetmap&coordinate=gaode&callnative=1","route_id":"r1","route_name":"第1段","global_order":1},{"name":"动物门诊","address":"祥和华园西侧130米","phone":"0532-83361295","category":"医疗保健服务;动物医疗场所;动物医疗场所","area":"","lng":120.238456,"lat":36.735916,"amap_id":"B0FFJI7KVM","order":2,"prev_distance_km":24.522,"cumulative_distance_km":24.522,"amap_marker_url":"https://uri.amap.com/marker?position=120.238456,36.735916&name=%E5%8A%A8%E7%89%A9%E9%97%A8%E8%AF%8A&src=vetmap&coordinate=gaode&callnative=1","route_id":"r1","route_name":"第1段","global_order":2},{"name":"旺康宠物门诊(青岛平度市)","address":"永州路福安花苑三期网点315号房","phone":"15153248381","category":"医疗保健服务;动物医疗场所;宠物诊所","area":"","lng":119.988349,"lat":36.795079,"amap_id":"B0FFH1DNYP","order":3,"prev_distance_km":23.23,"cumulative_distance_km":47.752,"amap_marker_url":"https://uri.amap.com/marker?position=119.988349,36.795079&name=%E6%97%BA%E5%BA%B7%E5%AE%A0%E7%89%A9%E9%97%A8%E8%AF%8A%28%E9%9D%92%E5%B2%9B%E5%B9%B3%E5%BA%A6%E5%B8%82%29&src=vetmap&coordinate=gaode&callnative=1","route_id":"r1","route_name":"第1段","global_order":3},{"name":"爱尚宠物诊所(福州路)","address":"福州路海绮小区营业楼9号房","phone":"0532-87333119;13210226605","category":"医疗保健服务;动物医疗场所;宠物诊所","area":"","lng":119.983337,"lat":36.789088,"amap_id":"B0FFFFWH2K","order":4,"prev_distance_km":0.802,"cumulative_distance_km":48.554,"amap_marker_url":"https://uri.amap.com/marker?position=119.983337,36.789088&name=%E7%88%B1%E5%B0%9A%E5%AE%A0%E7%89%A9%E8%AF%8A%E6%89%80%28%E7%A6%8F%E5%B7%9E%E8%B7%AF%29&src=vetmap&coordinate=gaode&callnative=1","route_id":"r1","route_name":"第1段","global_order":4},{"name":"旺康动物医院","address":"福州路名士花园东门门头房22-5","phone":"13156867279","category":"医疗保健服务;动物医疗场所;宠物诊所","area":"","lng":119.983703,"lat":36.78641,"amap_id":"B0FFLO0ZU0","order":5,"prev_distance_km":0.3,"cumulative_distance_km":48.853,"amap_marker_url":"https://uri.amap.com/marker?position=119.983703,36.786410&name=%E6%97%BA%E5%BA%B7%E5%8A%A8%E7%89%A9%E5%8C%BB%E9%99%A2&src=vetmap&coordinate=gaode&callnative=1","route_id":"r1","route_name":"第1段","global_order":5},{"name":"宝康宠物门诊(福州路)","address":"福州路天福现河-一号","phone":"18753280479","category":"医疗保健服务;动物医疗场所;宠物诊所","area":"","lng":119.984127,"lat":36.782539,"amap_id":"B0FFG4KC9U","order":6,"prev_distance_km":0.432,"cumulative_distance_km":49.285,"amap_marker_url":"https://uri.amap.com/marker?position=119.984127,36.782539&name=%E5%AE%9D%E5%BA%B7%E5%AE%A0%E7%89%A9%E9%97%A8%E8%AF%8A%28%E7%A6%8F%E5%B7%9E%E8%B7%AF%29&src=vetmap&coordinate=gaode&callnative=1","route_id":"r1","route_name":"第1段","global_order":6},{"name":"盛勤动物医院犬猫综合诊疗中心","address":"红旗路鑫港花园北区农行东临19-30号","phone":"0532-88391358;13220881358","category":"医疗保健服务;动物医疗场所;宠物诊所","area":"","lng":119.977608,"lat":36.787989,"amap_id":"B0FFKLFXTK","order":7,"prev_distance_km":0.839,"cumulative_distance_km":50.125,"amap_marker_url":"https://uri.amap.com/marker?position=119.977608,36.787989&name=%E7%9B%9B%E5%8B%A4%E5%8A%A8%E7%89%A9%E5%8C%BB%E9%99%A2%E7%8A%AC%E7%8C%AB%E7%BB%BC%E5%90%88%E8%AF%8A%E7%96%97%E4%B8%AD%E5%BF%83&src=vetmap&coordinate=gaode&callnative=1","route_id":"r1","route_name":"第1段","global_order":7},{"name":"侃侃得宠动物诊所","address":"杭州路59-19号","phone":"15588633518","category":"医疗保健服务;动物医疗场所;宠物诊所","area":"","lng":119.968173,"lat":36.788487,"amap_id":"B0FFKWVH3A","order":8,"prev_distance_km":0.842,"cumulative_distance_km":50.967,"amap_marker_url":"https://uri.amap.com/marker?position=119.968173,36.788487&name=%E4%BE%83%E4%BE%83%E5%BE%97%E5%AE%A0%E5%8A%A8%E7%89%A9%E8%AF%8A%E6%89%80&src=vetmap&coordinate=gaode&callnative=1","route_id":"r1","route_name":"第1段","global_order":8},{"name":"比瑞恩动物医院","address":"胜利路千汇花园北门88-19号","phone":"15726266664","category":"医疗保健服务;动物医疗场所;宠物诊所","area":"","lng":119.965604,"lat":36.784215,"amap_id":"B0H6M7G9EU","order":9,"prev_distance_km":0.527,"cumulative_distance_km":51.494,"amap_marker_url":"https://uri.amap.com/marker?position=119.965604,36.784215&name=%E6%AF%94%E7%91%9E%E6%81%A9%E5%8A%A8%E7%89%A9%E5%8C%BB%E9%99%A2&src=vetmap&coordinate=gaode&callnative=1","route_id":"r1","route_name":"第1段","global_order":9},{"name":"众爱动物诊所","address":"苏州路19-13号","phone":"15666681297","category":"医疗保健服务;动物医疗场所;宠物诊所","area":"","lng":119.962429,"lat":36.78598,"amap_id":"B0FFMH0UC8","order":10,"prev_distance_km":0.344,"cumulative_distance_km":51.838,"amap_marker_url":"https://uri.amap.com/marker?position=119.962429,36.785980&name=%E4%BC%97%E7%88%B1%E5%8A%A8%E7%89%A9%E8%AF%8A%E6%89%80&src=vetmap&coordinate=gaode&callnative=1","route_id":"r1","route_name":"第1段","global_order":10},{"name":"麦町动物诊所","address":"人民路54-1号","phone":"18562632018","category":"医疗保健服务;动物医疗场所;宠物诊所","area":"利群集团","lng":119.96408,"lat":36.790426,"amap_id":"B0HAT5Z5BG","order":11,"prev_distance_km":0.516,"cumulative_distance_km":52.354,"amap_marker_url":"https://uri.amap.com/marker?position=119.964080,36.790426&name=%E9%BA%A6%E7%94%BA%E5%8A%A8%E7%89%A9%E8%AF%8A%E6%89%80&src=vetmap&coordinate=gaode&callnative=1","route_id":"r1","route_name":"第1段","global_order":11},{"name":"挚爱宠物门诊(云峡街店)","address":"云峡街14-7号","phone":"","category":"医疗保健服务;动物医疗场所;宠物诊所","area":"","lng":119.957491,"lat":36.791685,"amap_id":"B02140WJSS","order":12,"prev_distance_km":0.603,"cumulative_distance_km":52.957,"amap_marker_url":"https://uri.amap.com/marker?position=119.957491,36.791685&name=%E6%8C%9A%E7%88%B1%E5%AE%A0%E7%89%A9%E9%97%A8%E8%AF%8A%28%E4%BA%91%E5%B3%A1%E8%A1%97%E5%BA%97%29&src=vetmap&coordinate=gaode&callnative=1","route_id":"r1","route_name":"第1段","global_order":12},{"name":"平度市蟠桃镇畜牧兽医站","address":"紫荆路49-7号附近","phone":"","category":"医疗保健服务;动物医疗场所;兽医站","area":"","lng":119.951841,"lat":36.830327,"amap_id":"B021409DKD","order":13,"prev_distance_km":4.326,"cumulative_distance_km":57.283,"amap_marker_url":"https://uri.amap.com/marker?position=119.951841,36.830327&name=%E5%B9%B3%E5%BA%A6%E5%B8%82%E8%9F%A0%E6%A1%83%E9%95%87%E7%95%9C%E7%89%A7%E5%85%BD%E5%8C%BB%E7%AB%99&src=vetmap&coordinate=gaode&callnative=1","route_id":"r1","route_name":"第1段","global_order":13},{"name":"爱妮宠物医院(青岛路)","address":"青岛路576号(老车站西400米路南)","phone":"13791815515","category":"医疗保健服务;动物医疗场所;宠物诊所","area":"李园","lng":119.943852,"lat":36.777052,"amap_id":"B021409VW9","order":14,"prev_distance_km":5.966,"cumulative_distance_km":63.25,"amap_marker_url":"https://uri.amap.com/marker?position=119.943852,36.777052&name=%E7%88%B1%E5%A6%AE%E5%AE%A0%E7%89%A9%E5%8C%BB%E9%99%A2%28%E9%9D%92%E5%B2%9B%E8%B7%AF%29&src=vetmap&coordinate=gaode&callnative=1","route_id":"r1","route_name":"第1段","global_order":14},{"name":"青岛金康动物医院","address":"胶平路178号","phone":"0532-88327958;0532-88327968","category":"医疗保健服务;动物医疗场所;兽医站","area":"","lng":119.954375,"lat":36.769225,"amap_id":"B02140WISM","order":15,"prev_distance_km":1.279,"cumulative_distance_km":64.529,"amap_marker_url":"https://uri.amap.com/marker?position=119.954375,36.769225&name=%E9%9D%92%E5%B2%9B%E9%87%91%E5%BA%B7%E5%8A%A8%E7%89%A9%E5%8C%BB%E9%99%A2&src=vetmap&coordinate=gaode&callnative=1","route_id":"r1","route_name":"第1段","global_order":15},{"name":"康和恩宠物店","address":"常州路与厦门路交叉口南160米","phone":"15192774982","category":"医疗保健服务;动物医疗场所;宠物诊所","area":"","lng":119.955307,"lat":36.767645,"amap_id":"B0L2D99B2R","order":16,"prev_distance_km":0.194,"cumulative_distance_km":64.723,"amap_marker_url":"https://uri.amap.com/marker?position=119.955307,36.767645&name=%E5%BA%B7%E5%92%8C%E6%81%A9%E5%AE%A0%E7%89%A9%E5%BA%97&src=vetmap&coordinate=gaode&callnative=1","route_id":"r1","route_name":"第1段","global_order":16},{"name":"清澄动物眼科医院","address":"同和街道办事处深圳路888号29栋18号118、19号119","phone":"16678988120","category":"医疗保健服务;动物医疗场所;宠物诊所","area":"","lng":119.919294,"lat":36.761989,"amap_id":"B0J2N5K6CR","order":17,"prev_distance_km":3.269,"cumulative_distance_km":67.992,"amap_marker_url":"https://uri.amap.com/marker?position=119.919294,36.761989&name=%E6%B8%85%E6%BE%84%E5%8A%A8%E7%89%A9%E7%9C%BC%E7%A7%91%E5%8C%BB%E9%99%A2&src=vetmap&coordinate=gaode&callnative=1","route_id":"r1","route_name":"第1段","global_order":17},{"name":"崔家集畜牧兽医站","address":"富康路7号平度市崔家集镇镇村建设服务中心附近","phone":"0532-82382597;13792457280","category":"医疗保健服务;动物医疗场所;兽医站","area":"","lng":119.728416,"lat":36.622633,"amap_id":"B021409D70","order":18,"prev_distance_km":23.017,"cumulative_distance_km":91.009,"amap_marker_url":"https://uri.amap.com/marker?position=119.728416,36.622633&name=%E5%B4%94%E5%AE%B6%E9%9B%86%E7%95%9C%E7%89%A7%E5%85%BD%E5%8C%BB%E7%AB%99&src=vetmap&coordinate=gaode&callnative=1","route_id":"r1","route_name":"第1段","global_order":18}]}