{"summary":{"id":"d00428","province":"山东省","city":"菏泽市","district":"定陶区","count":16,"route_count":1,"max_route_clinics":16,"total_distance_km":78.372,"coordinate_system":"GCJ-02 / Amap","generated_at":"2026-05-07 21:27:34"},"routes":[{"id":"r1","name":"第1段","count":16,"total_distance_km":78.372,"rows":[{"name":"畜禽门诊部小鸡料","address":"三国手机维修北侧","phone":"","category":"医疗保健服务;动物医疗场所;兽医站","area":"","lng":115.641671,"lat":35.201731,"amap_id":"B0IUCDW8JG","order":1,"prev_distance_km":0.0,"cumulative_distance_km":0.0,"amap_marker_url":"https://uri.amap.com/marker?position=115.641671,35.201731&name=%E7%95%9C%E7%A6%BD%E9%97%A8%E8%AF%8A%E9%83%A8%E5%B0%8F%E9%B8%A1%E6%96%99&src=vetmap&coordinate=gaode&callnative=1","route_id":"r1","route_name":"第1段"},{"name":"动物饲料服务中心","address":"万福大街与姑沙路交叉口西40米","phone":"","category":"医疗保健服务;动物医疗场所;动物医疗场所","area":"","lng":115.772033,"lat":35.173543,"amap_id":"B0K0PDX8BP","order":2,"prev_distance_km":12.254,"cumulative_distance_km":12.254,"amap_marker_url":"https://uri.amap.com/marker?position=115.772033,35.173543&name=%E5%8A%A8%E7%89%A9%E9%A5%B2%E6%96%99%E6%9C%8D%E5%8A%A1%E4%B8%AD%E5%BF%83&src=vetmap&coordinate=gaode&callnative=1","route_id":"r1","route_name":"第1段"},{"name":"黄店兽医站(黄店镇中学对面)","address":"星海小学东北侧180米","phone":"","category":"医疗保健服务;动物医疗场所;兽医站","area":"","lng":115.721271,"lat":35.081962,"amap_id":"B0HGV1STBF","order":3,"prev_distance_km":11.181,"cumulative_distance_km":23.435,"amap_marker_url":"https://uri.amap.com/marker?position=115.721271,35.081962&name=%E9%BB%84%E5%BA%97%E5%85%BD%E5%8C%BB%E7%AB%99%28%E9%BB%84%E5%BA%97%E9%95%87%E4%B8%AD%E5%AD%A6%E5%AF%B9%E9%9D%A2%29&src=vetmap&coordinate=gaode&callnative=1","route_id":"r1","route_name":"第1段"},{"name":"禽病门诊","address":"兴黄路与031县道交叉口西260米","phone":"13953062819","category":"医疗保健服务;动物医疗场所;动物医疗场所","area":"","lng":115.71269,"lat":35.078243,"amap_id":"B0FFL5HODX","order":4,"prev_distance_km":0.884,"cumulative_distance_km":24.319,"amap_marker_url":"https://uri.amap.com/marker?position=115.712690,35.078243&name=%E7%A6%BD%E7%97%85%E9%97%A8%E8%AF%8A&src=vetmap&coordinate=gaode&callnative=1","route_id":"r1","route_name":"第1段"},{"name":"冉堌镇兽医站","address":"冉固村菜市场路口向北18米路西","phone":"15964628919","category":"医疗保健服务;动物医疗场所;兽医站","area":"冉堌","lng":115.733691,"lat":35.003349,"amap_id":"B0FFLF2WC2","order":5,"prev_distance_km":8.545,"cumulative_distance_km":32.863,"amap_marker_url":"https://uri.amap.com/marker?position=115.733691,35.003349&name=%E5%86%89%E5%A0%8C%E9%95%87%E5%85%BD%E5%8C%BB%E7%AB%99&src=vetmap&coordinate=gaode&callnative=1","route_id":"r1","route_name":"第1段"},{"name":"永旺禽病防治中心","address":"田集旭晨驾校西侧170米","phone":"","category":"医疗保健服务;动物医疗场所;兽医站","area":"","lng":115.650797,"lat":35.003726,"amap_id":"B0GDHR31QF","order":6,"prev_distance_km":7.55,"cumulative_distance_km":40.414,"amap_marker_url":"https://uri.amap.com/marker?position=115.650797,35.003726&name=%E6%B0%B8%E6%97%BA%E7%A6%BD%E7%97%85%E9%98%B2%E6%B2%BB%E4%B8%AD%E5%BF%83&src=vetmap&coordinate=gaode&callnative=1","route_id":"r1","route_name":"第1段"},{"name":"畜禽医院","address":"南王店集十字路口西北角","phone":"15589434688","category":"医疗保健服务;动物医疗场所;动物医疗场所","area":"","lng":115.571212,"lat":35.004712,"amap_id":"B0FFK9DHXO","order":7,"prev_distance_km":7.25,"cumulative_distance_km":47.663,"amap_marker_url":"https://uri.amap.com/marker?position=115.571212,35.004712&name=%E7%95%9C%E7%A6%BD%E5%8C%BB%E9%99%A2&src=vetmap&coordinate=gaode&callnative=1","route_id":"r1","route_name":"第1段"},{"name":"侯庙兽医门诊","address":"传宁便民超市西南侧110米","phone":"13573034577","category":"医疗保健服务;动物医疗场所;兽医站","area":"","lng":115.536184,"lat":35.031018,"amap_id":"B0K06CVW5U","order":8,"prev_distance_km":4.328,"cumulative_distance_km":51.991,"amap_marker_url":"https://uri.amap.com/marker?position=115.536184,35.031018&name=%E4%BE%AF%E5%BA%99%E5%85%BD%E5%8C%BB%E9%97%A8%E8%AF%8A&src=vetmap&coordinate=gaode&callnative=1","route_id":"r1","route_name":"第1段"},{"name":"时记兽药","address":"怡和华庭","phone":"18265059789","category":"购物服务;购物相关场所;购物相关场所|医疗保健服务;动物医疗场所;动物医疗场所","area":"陶朱公大街","lng":115.56802,"lat":35.072421,"amap_id":"B0K3HL8SP7","order":9,"prev_distance_km":5.44,"cumulative_distance_km":57.431,"amap_marker_url":"https://uri.amap.com/marker?position=115.568020,35.072421&name=%E6%97%B6%E8%AE%B0%E5%85%BD%E8%8D%AF&src=vetmap&coordinate=gaode&callnative=1","route_id":"r1","route_name":"第1段"},{"name":"定陶平民惠宠宠物诊所","address":"范阳路与陶朱公大街交叉口北180米","phone":"15865077426","category":"医疗保健服务;动物医疗场所;宠物诊所","area":"","lng":115.583725,"lat":35.073048,"amap_id":"B0FFL6Y9YY","order":10,"prev_distance_km":1.431,"cumulative_distance_km":58.862,"amap_marker_url":"https://uri.amap.com/marker?position=115.583725,35.073048&name=%E5%AE%9A%E9%99%B6%E5%B9%B3%E6%B0%91%E6%83%A0%E5%AE%A0%E5%AE%A0%E7%89%A9%E8%AF%8A%E6%89%80&src=vetmap&coordinate=gaode&callnative=1","route_id":"r1","route_name":"第1段"},{"name":"动物门诊(兴华家园店)","address":"站前路c号","phone":"","category":"医疗保健服务;动物医疗场所;宠物诊所","area":"兴华路","lng":115.593139,"lat":35.074221,"amap_id":"B0L3O7YACC","order":11,"prev_distance_km":0.867,"cumulative_distance_km":59.729,"amap_marker_url":"https://uri.amap.com/marker?position=115.593139,35.074221&name=%E5%8A%A8%E7%89%A9%E9%97%A8%E8%AF%8A%28%E5%85%B4%E5%8D%8E%E5%AE%B6%E5%9B%AD%E5%BA%97%29&src=vetmap&coordinate=gaode&callnative=1","route_id":"r1","route_name":"第1段"},{"name":"汪汪宠物(镜湖路店)","address":"中央新城丽锦苑中央新城南区南2门旁","phone":"15288720044","category":"医疗保健服务;动物医疗场所;宠物诊所","area":"","lng":115.555416,"lat":35.089827,"amap_id":"B0FFKBJRA4","order":12,"prev_distance_km":3.846,"cumulative_distance_km":63.575,"amap_marker_url":"https://uri.amap.com/marker?position=115.555416,35.089827&name=%E6%B1%AA%E6%B1%AA%E5%AE%A0%E7%89%A9%28%E9%95%9C%E6%B9%96%E8%B7%AF%E5%BA%97%29&src=vetmap&coordinate=gaode&callnative=1","route_id":"r1","route_name":"第1段"},{"name":"爱佳动物门诊","address":"府前大道与陶驿路路口西80米路北","phone":"0530-2711119;15562749969;16653030120","category":"医疗保健服务;动物医疗场所;宠物诊所","area":"","lng":115.555497,"lat":35.092244,"amap_id":"B0FFIS3L19","order":13,"prev_distance_km":0.269,"cumulative_distance_km":63.844,"amap_marker_url":"https://uri.amap.com/marker?position=115.555497,35.092244&name=%E7%88%B1%E4%BD%B3%E5%8A%A8%E7%89%A9%E9%97%A8%E8%AF%8A&src=vetmap&coordinate=gaode&callnative=1","route_id":"r1","route_name":"第1段"},{"name":"灵兽宠物医院","address":"崇文路与建新路交叉口西南340米","phone":"18953004008","category":"医疗保健服务;动物医疗场所;宠物诊所","area":"","lng":115.551882,"lat":35.094487,"amap_id":"B0K25CSSQ7","order":14,"prev_distance_km":0.413,"cumulative_distance_km":64.257,"amap_marker_url":"https://uri.amap.com/marker?position=115.551882,35.094487&name=%E7%81%B5%E5%85%BD%E5%AE%A0%E7%89%A9%E5%8C%BB%E9%99%A2&src=vetmap&coordinate=gaode&callnative=1","route_id":"r1","route_name":"第1段"},{"name":"顾宠宠物诊疗中心","address":"华景雅苑10-3-112","phone":"18217503573","category":"医疗保健服务;动物医疗场所;宠物诊所","area":"","lng":115.549807,"lat":35.094495,"amap_id":"B0JDS7PLNP","order":15,"prev_distance_km":0.189,"cumulative_distance_km":64.445,"amap_marker_url":"https://uri.amap.com/marker?position=115.549807,35.094495&name=%E9%A1%BE%E5%AE%A0%E5%AE%A0%E7%89%A9%E8%AF%8A%E7%96%97%E4%B8%AD%E5%BF%83&src=vetmap&coordinate=gaode&callnative=1","route_id":"r1","route_name":"第1段"},{"name":"张湾镇兽医站","address":"张湾镇红绿灯往南1.5公里路东","phone":"15965876202","category":"医疗保健服务;动物医疗场所;兽医站","area":"","lng":115.407235,"lat":35.048998,"amap_id":"B0K0A7SKRN","order":16,"prev_distance_km":13.926,"cumulative_distance_km":78.372,"amap_marker_url":"https://uri.amap.com/marker?position=115.407235,35.048998&name=%E5%BC%A0%E6%B9%BE%E9%95%87%E5%85%BD%E5%8C%BB%E7%AB%99&src=vetmap&coordinate=gaode&callnative=1","route_id":"r1","route_name":"第1段"}]}],"rows":[{"name":"畜禽门诊部小鸡料","address":"三国手机维修北侧","phone":"","category":"医疗保健服务;动物医疗场所;兽医站","area":"","lng":115.641671,"lat":35.201731,"amap_id":"B0IUCDW8JG","order":1,"prev_distance_km":0.0,"cumulative_distance_km":0.0,"amap_marker_url":"https://uri.amap.com/marker?position=115.641671,35.201731&name=%E7%95%9C%E7%A6%BD%E9%97%A8%E8%AF%8A%E9%83%A8%E5%B0%8F%E9%B8%A1%E6%96%99&src=vetmap&coordinate=gaode&callnative=1","route_id":"r1","route_name":"第1段","global_order":1},{"name":"动物饲料服务中心","address":"万福大街与姑沙路交叉口西40米","phone":"","category":"医疗保健服务;动物医疗场所;动物医疗场所","area":"","lng":115.772033,"lat":35.173543,"amap_id":"B0K0PDX8BP","order":2,"prev_distance_km":12.254,"cumulative_distance_km":12.254,"amap_marker_url":"https://uri.amap.com/marker?position=115.772033,35.173543&name=%E5%8A%A8%E7%89%A9%E9%A5%B2%E6%96%99%E6%9C%8D%E5%8A%A1%E4%B8%AD%E5%BF%83&src=vetmap&coordinate=gaode&callnative=1","route_id":"r1","route_name":"第1段","global_order":2},{"name":"黄店兽医站(黄店镇中学对面)","address":"星海小学东北侧180米","phone":"","category":"医疗保健服务;动物医疗场所;兽医站","area":"","lng":115.721271,"lat":35.081962,"amap_id":"B0HGV1STBF","order":3,"prev_distance_km":11.181,"cumulative_distance_km":23.435,"amap_marker_url":"https://uri.amap.com/marker?position=115.721271,35.081962&name=%E9%BB%84%E5%BA%97%E5%85%BD%E5%8C%BB%E7%AB%99%28%E9%BB%84%E5%BA%97%E9%95%87%E4%B8%AD%E5%AD%A6%E5%AF%B9%E9%9D%A2%29&src=vetmap&coordinate=gaode&callnative=1","route_id":"r1","route_name":"第1段","global_order":3},{"name":"禽病门诊","address":"兴黄路与031县道交叉口西260米","phone":"13953062819","category":"医疗保健服务;动物医疗场所;动物医疗场所","area":"","lng":115.71269,"lat":35.078243,"amap_id":"B0FFL5HODX","order":4,"prev_distance_km":0.884,"cumulative_distance_km":24.319,"amap_marker_url":"https://uri.amap.com/marker?position=115.712690,35.078243&name=%E7%A6%BD%E7%97%85%E9%97%A8%E8%AF%8A&src=vetmap&coordinate=gaode&callnative=1","route_id":"r1","route_name":"第1段","global_order":4},{"name":"冉堌镇兽医站","address":"冉固村菜市场路口向北18米路西","phone":"15964628919","category":"医疗保健服务;动物医疗场所;兽医站","area":"冉堌","lng":115.733691,"lat":35.003349,"amap_id":"B0FFLF2WC2","order":5,"prev_distance_km":8.545,"cumulative_distance_km":32.863,"amap_marker_url":"https://uri.amap.com/marker?position=115.733691,35.003349&name=%E5%86%89%E5%A0%8C%E9%95%87%E5%85%BD%E5%8C%BB%E7%AB%99&src=vetmap&coordinate=gaode&callnative=1","route_id":"r1","route_name":"第1段","global_order":5},{"name":"永旺禽病防治中心","address":"田集旭晨驾校西侧170米","phone":"","category":"医疗保健服务;动物医疗场所;兽医站","area":"","lng":115.650797,"lat":35.003726,"amap_id":"B0GDHR31QF","order":6,"prev_distance_km":7.55,"cumulative_distance_km":40.414,"amap_marker_url":"https://uri.amap.com/marker?position=115.650797,35.003726&name=%E6%B0%B8%E6%97%BA%E7%A6%BD%E7%97%85%E9%98%B2%E6%B2%BB%E4%B8%AD%E5%BF%83&src=vetmap&coordinate=gaode&callnative=1","route_id":"r1","route_name":"第1段","global_order":6},{"name":"畜禽医院","address":"南王店集十字路口西北角","phone":"15589434688","category":"医疗保健服务;动物医疗场所;动物医疗场所","area":"","lng":115.571212,"lat":35.004712,"amap_id":"B0FFK9DHXO","order":7,"prev_distance_km":7.25,"cumulative_distance_km":47.663,"amap_marker_url":"https://uri.amap.com/marker?position=115.571212,35.004712&name=%E7%95%9C%E7%A6%BD%E5%8C%BB%E9%99%A2&src=vetmap&coordinate=gaode&callnative=1","route_id":"r1","route_name":"第1段","global_order":7},{"name":"侯庙兽医门诊","address":"传宁便民超市西南侧110米","phone":"13573034577","category":"医疗保健服务;动物医疗场所;兽医站","area":"","lng":115.536184,"lat":35.031018,"amap_id":"B0K06CVW5U","order":8,"prev_distance_km":4.328,"cumulative_distance_km":51.991,"amap_marker_url":"https://uri.amap.com/marker?position=115.536184,35.031018&name=%E4%BE%AF%E5%BA%99%E5%85%BD%E5%8C%BB%E9%97%A8%E8%AF%8A&src=vetmap&coordinate=gaode&callnative=1","route_id":"r1","route_name":"第1段","global_order":8},{"name":"时记兽药","address":"怡和华庭","phone":"18265059789","category":"购物服务;购物相关场所;购物相关场所|医疗保健服务;动物医疗场所;动物医疗场所","area":"陶朱公大街","lng":115.56802,"lat":35.072421,"amap_id":"B0K3HL8SP7","order":9,"prev_distance_km":5.44,"cumulative_distance_km":57.431,"amap_marker_url":"https://uri.amap.com/marker?position=115.568020,35.072421&name=%E6%97%B6%E8%AE%B0%E5%85%BD%E8%8D%AF&src=vetmap&coordinate=gaode&callnative=1","route_id":"r1","route_name":"第1段","global_order":9},{"name":"定陶平民惠宠宠物诊所","address":"范阳路与陶朱公大街交叉口北180米","phone":"15865077426","category":"医疗保健服务;动物医疗场所;宠物诊所","area":"","lng":115.583725,"lat":35.073048,"amap_id":"B0FFL6Y9YY","order":10,"prev_distance_km":1.431,"cumulative_distance_km":58.862,"amap_marker_url":"https://uri.amap.com/marker?position=115.583725,35.073048&name=%E5%AE%9A%E9%99%B6%E5%B9%B3%E6%B0%91%E6%83%A0%E5%AE%A0%E5%AE%A0%E7%89%A9%E8%AF%8A%E6%89%80&src=vetmap&coordinate=gaode&callnative=1","route_id":"r1","route_name":"第1段","global_order":10},{"name":"动物门诊(兴华家园店)","address":"站前路c号","phone":"","category":"医疗保健服务;动物医疗场所;宠物诊所","area":"兴华路","lng":115.593139,"lat":35.074221,"amap_id":"B0L3O7YACC","order":11,"prev_distance_km":0.867,"cumulative_distance_km":59.729,"amap_marker_url":"https://uri.amap.com/marker?position=115.593139,35.074221&name=%E5%8A%A8%E7%89%A9%E9%97%A8%E8%AF%8A%28%E5%85%B4%E5%8D%8E%E5%AE%B6%E5%9B%AD%E5%BA%97%29&src=vetmap&coordinate=gaode&callnative=1","route_id":"r1","route_name":"第1段","global_order":11},{"name":"汪汪宠物(镜湖路店)","address":"中央新城丽锦苑中央新城南区南2门旁","phone":"15288720044","category":"医疗保健服务;动物医疗场所;宠物诊所","area":"","lng":115.555416,"lat":35.089827,"amap_id":"B0FFKBJRA4","order":12,"prev_distance_km":3.846,"cumulative_distance_km":63.575,"amap_marker_url":"https://uri.amap.com/marker?position=115.555416,35.089827&name=%E6%B1%AA%E6%B1%AA%E5%AE%A0%E7%89%A9%28%E9%95%9C%E6%B9%96%E8%B7%AF%E5%BA%97%29&src=vetmap&coordinate=gaode&callnative=1","route_id":"r1","route_name":"第1段","global_order":12},{"name":"爱佳动物门诊","address":"府前大道与陶驿路路口西80米路北","phone":"0530-2711119;15562749969;16653030120","category":"医疗保健服务;动物医疗场所;宠物诊所","area":"","lng":115.555497,"lat":35.092244,"amap_id":"B0FFIS3L19","order":13,"prev_distance_km":0.269,"cumulative_distance_km":63.844,"amap_marker_url":"https://uri.amap.com/marker?position=115.555497,35.092244&name=%E7%88%B1%E4%BD%B3%E5%8A%A8%E7%89%A9%E9%97%A8%E8%AF%8A&src=vetmap&coordinate=gaode&callnative=1","route_id":"r1","route_name":"第1段","global_order":13},{"name":"灵兽宠物医院","address":"崇文路与建新路交叉口西南340米","phone":"18953004008","category":"医疗保健服务;动物医疗场所;宠物诊所","area":"","lng":115.551882,"lat":35.094487,"amap_id":"B0K25CSSQ7","order":14,"prev_distance_km":0.413,"cumulative_distance_km":64.257,"amap_marker_url":"https://uri.amap.com/marker?position=115.551882,35.094487&name=%E7%81%B5%E5%85%BD%E5%AE%A0%E7%89%A9%E5%8C%BB%E9%99%A2&src=vetmap&coordinate=gaode&callnative=1","route_id":"r1","route_name":"第1段","global_order":14},{"name":"顾宠宠物诊疗中心","address":"华景雅苑10-3-112","phone":"18217503573","category":"医疗保健服务;动物医疗场所;宠物诊所","area":"","lng":115.549807,"lat":35.094495,"amap_id":"B0JDS7PLNP","order":15,"prev_distance_km":0.189,"cumulative_distance_km":64.445,"amap_marker_url":"https://uri.amap.com/marker?position=115.549807,35.094495&name=%E9%A1%BE%E5%AE%A0%E5%AE%A0%E7%89%A9%E8%AF%8A%E7%96%97%E4%B8%AD%E5%BF%83&src=vetmap&coordinate=gaode&callnative=1","route_id":"r1","route_name":"第1段","global_order":15},{"name":"张湾镇兽医站","address":"张湾镇红绿灯往南1.5公里路东","phone":"15965876202","category":"医疗保健服务;动物医疗场所;兽医站","area":"","lng":115.407235,"lat":35.048998,"amap_id":"B0K0A7SKRN","order":16,"prev_distance_km":13.926,"cumulative_distance_km":78.372,"amap_marker_url":"https://uri.amap.com/marker?position=115.407235,35.048998&name=%E5%BC%A0%E6%B9%BE%E9%95%87%E5%85%BD%E5%8C%BB%E7%AB%99&src=vetmap&coordinate=gaode&callnative=1","route_id":"r1","route_name":"第1段","global_order":16}]}