{"summary":{"id":"d00467","province":"山西省","city":"吕梁市","district":"文水县","count":6,"total_distance_km":21.2,"coordinate_system":"GCJ-02 / Amap","generated_at":"2026-05-07 20:22:03"},"rows":[{"name":"富翔宠物医院","address":"狄青西街与黄山线交叉口东南280米","phone":"","category":"医疗保健服务;动物医疗场所;宠物诊所","area":"","lng":112.015394,"lat":37.430551,"amap_id":"B0I6BR2DC6","order":1,"prev_distance_km":0.0,"cumulative_distance_km":0.0,"amap_marker_url":"https://uri.amap.com/marker?position=112.015394,37.430551&name=%E5%AF%8C%E7%BF%94%E5%AE%A0%E7%89%A9%E5%8C%BB%E9%99%A2&src=vetmap&coordinate=gaode&callnative=1"},{"name":"爱宠壹生宠物诊所","address":"海威公寓南8号","phone":"18634781143","category":"医疗保健服务;动物医疗场所;宠物诊所","area":"","lng":112.052532,"lat":37.442321,"amap_id":"B0GRO55ENT","order":2,"prev_distance_km":3.531,"cumulative_distance_km":3.531,"amap_marker_url":"https://uri.amap.com/marker?position=112.052532,37.442321&name=%E7%88%B1%E5%AE%A0%E5%A3%B9%E7%94%9F%E5%AE%A0%E7%89%A9%E8%AF%8A%E6%89%80&src=vetmap&coordinate=gaode&callnative=1"},{"name":"瑞宠缘宠物医院","address":"天骄城商铺80号","phone":"","category":"医疗保健服务;动物医疗场所;宠物诊所","area":"","lng":112.05481,"lat":37.426392,"amap_id":"B0IDNSLIT3","order":3,"prev_distance_km":1.783,"cumulative_distance_km":5.313,"amap_marker_url":"https://uri.amap.com/marker?position=112.054810,37.426392&name=%E7%91%9E%E5%AE%A0%E7%BC%98%E5%AE%A0%E7%89%A9%E5%8C%BB%E9%99%A2&src=vetmap&coordinate=gaode&callnative=1"},{"name":"小刚兽药店","address":"英雄南路与胡兰西大街交叉口南260米","phone":"17717709999","category":"医疗保健服务;动物医疗场所;动物医疗场所","area":"","lng":112.196925,"lat":37.393325,"amap_id":"B0L0OBI0RO","order":4,"prev_distance_km":13.08,"cumulative_distance_km":18.393,"amap_marker_url":"https://uri.amap.com/marker?position=112.196925,37.393325&name=%E5%B0%8F%E5%88%9A%E5%85%BD%E8%8D%AF%E5%BA%97&src=vetmap&coordinate=gaode&callnative=1"},{"name":"广禾兽药店","address":"S320城子超限超载检测站北侧200米","phone":"","category":"医疗保健服务;动物医疗场所;动物医疗场所","area":"","lng":112.215825,"lat":37.391275,"amap_id":"B0LBLLR4RV","order":5,"prev_distance_km":1.685,"cumulative_distance_km":20.078,"amap_marker_url":"https://uri.amap.com/marker?position=112.215825,37.391275&name=%E5%B9%BF%E7%A6%BE%E5%85%BD%E8%8D%AF%E5%BA%97&src=vetmap&coordinate=gaode&callnative=1"},{"name":"成文兽药店","address":"贤美食业东北侧130米","phone":"","category":"医疗保健服务;动物医疗场所;动物医疗场所","area":"","lng":112.217766,"lat":37.401245,"amap_id":"B0KRSLGD11","order":6,"prev_distance_km":1.122,"cumulative_distance_km":21.2,"amap_marker_url":"https://uri.amap.com/marker?position=112.217766,37.401245&name=%E6%88%90%E6%96%87%E5%85%BD%E8%8D%AF%E5%BA%97&src=vetmap&coordinate=gaode&callnative=1"}]}