{"summary":{"id":"d00401","province":"山东省","city":"潍坊市","district":"昌乐县","count":10,"route_count":1,"max_route_clinics":10,"total_distance_km":38.689,"coordinate_system":"GCJ-02 / Amap","generated_at":"2026-05-08 19:42:19"},"routes":[{"id":"r1","name":"第1段","count":10,"total_distance_km":38.689,"rows":[{"name":"亚兴动物保健品","address":"昌乐县人民医院西南门旁","phone":"0536-6661637","category":"医疗保健服务;动物医疗场所;动物医疗场所","area":"","lng":118.928475,"lat":36.404636,"amap_id":"B02180JTDR","order":1,"prev_distance_km":0.0,"cumulative_distance_km":0.0,"amap_marker_url":"https://uri.amap.com/marker?position=118.928475,36.404636&name=%E4%BA%9A%E5%85%B4%E5%8A%A8%E7%89%A9%E4%BF%9D%E5%81%A5%E5%93%81&src=vetmap&coordinate=gaode&callnative=1","route_id":"r1","route_name":"第1段"},{"name":"昌乐逸婕兽药有限公司(原红河兽医门诊)","address":"红河镇商贸城88号","phone":"15053682599","category":"医疗保健服务;动物医疗场所;兽医站","area":"","lng":118.920145,"lat":36.409698,"amap_id":"B0KRADA3HN","order":2,"prev_distance_km":0.934,"cumulative_distance_km":0.934,"amap_marker_url":"https://uri.amap.com/marker?position=118.920145,36.409698&name=%E6%98%8C%E4%B9%90%E9%80%B8%E5%A9%95%E5%85%BD%E8%8D%AF%E6%9C%89%E9%99%90%E5%85%AC%E5%8F%B8%28%E5%8E%9F%E7%BA%A2%E6%B2%B3%E5%85%BD%E5%8C%BB%E9%97%A8%E8%AF%8A%29&src=vetmap&coordinate=gaode&callnative=1","route_id":"r1","route_name":"第1段"},{"name":"昌乐县五图街道畜牧兽医站","address":"盛世榴园西侧260米","phone":"","category":"医疗保健服务;动物医疗场所;兽医站","area":"","lng":118.813207,"lat":36.648896,"amap_id":"B0GDS1ST21","order":3,"prev_distance_km":28.262,"cumulative_distance_km":29.196,"amap_marker_url":"https://uri.amap.com/marker?position=118.813207,36.648896&name=%E6%98%8C%E4%B9%90%E5%8E%BF%E4%BA%94%E5%9B%BE%E8%A1%97%E9%81%93%E7%95%9C%E7%89%A7%E5%85%BD%E5%8C%BB%E7%AB%99&src=vetmap&coordinate=gaode&callnative=1","route_id":"r1","route_name":"第1段"},{"name":"惠丰种苗植物医院","address":"五图街道南郝村退役军人服务站南侧190米","phone":"","category":"医疗保健服务;动物医疗场所;动物医疗场所","area":"","lng":118.813763,"lat":36.649718,"amap_id":"B0K0HDP3MW","order":4,"prev_distance_km":0.104,"cumulative_distance_km":29.3,"amap_marker_url":"https://uri.amap.com/marker?position=118.813763,36.649718&name=%E6%83%A0%E4%B8%B0%E7%A7%8D%E8%8B%97%E6%A4%8D%E7%89%A9%E5%8C%BB%E9%99%A2&src=vetmap&coordinate=gaode&callnative=1","route_id":"r1","route_name":"第1段"},{"name":"振牧宠物诊所","address":"盛港府地东区西门北90米","phone":"18663658602","category":"医疗保健服务;动物医疗场所;宠物诊所","area":"","lng":118.834191,"lat":36.681572,"amap_id":"B0FFID7YO0","order":5,"prev_distance_km":3.983,"cumulative_distance_km":33.283,"amap_marker_url":"https://uri.amap.com/marker?position=118.834191,36.681572&name=%E6%8C%AF%E7%89%A7%E5%AE%A0%E7%89%A9%E8%AF%8A%E6%89%80&src=vetmap&coordinate=gaode&callnative=1","route_id":"r1","route_name":"第1段"},{"name":"锦麟宠物诊所","address":"博业宝都华府附近","phone":"15315259990;15624122737","category":"医疗保健服务;动物医疗场所;宠物诊所","area":"","lng":118.835934,"lat":36.685746,"amap_id":"B0J1YCOGOP","order":6,"prev_distance_km":0.489,"cumulative_distance_km":33.773,"amap_marker_url":"https://uri.amap.com/marker?position=118.835934,36.685746&name=%E9%94%A6%E9%BA%9F%E5%AE%A0%E7%89%A9%E8%AF%8A%E6%89%80&src=vetmap&coordinate=gaode&callnative=1","route_id":"r1","route_name":"第1段"},{"name":"潍乐动物医院(昌乐店)","address":"一中街553号","phone":"13287670120","category":"医疗保健服务;动物医疗场所;宠物诊所","area":"","lng":118.844052,"lat":36.685348,"amap_id":"B0JDTC3AHS","order":7,"prev_distance_km":0.725,"cumulative_distance_km":34.498,"amap_marker_url":"https://uri.amap.com/marker?position=118.844052,36.685348&name=%E6%BD%8D%E4%B9%90%E5%8A%A8%E7%89%A9%E5%8C%BB%E9%99%A2%28%E6%98%8C%E4%B9%90%E5%BA%97%29&src=vetmap&coordinate=gaode&callnative=1","route_id":"r1","route_name":"第1段"},{"name":"诺金宠物诊所","address":"方山路5811号","phone":"18753630959","category":"医疗保健服务;动物医疗场所;宠物诊所","area":"","lng":118.84664,"lat":36.695271,"amap_id":"B0FFJ9P219","order":8,"prev_distance_km":1.127,"cumulative_distance_km":35.625,"amap_marker_url":"https://uri.amap.com/marker?position=118.846640,36.695271&name=%E8%AF%BA%E9%87%91%E5%AE%A0%E7%89%A9%E8%AF%8A%E6%89%80&src=vetmap&coordinate=gaode&callnative=1","route_id":"r1","route_name":"第1段"},{"name":"贝乐佳宠物医院","address":"爱伦堡北门西160米","phone":"13863606120","category":"医疗保健服务;动物医疗场所;宠物诊所","area":"","lng":118.844512,"lat":36.705487,"amap_id":"B0IUH7PFZH","order":9,"prev_distance_km":1.152,"cumulative_distance_km":36.777,"amap_marker_url":"https://uri.amap.com/marker?position=118.844512,36.705487&name=%E8%B4%9D%E4%B9%90%E4%BD%B3%E5%AE%A0%E7%89%A9%E5%8C%BB%E9%99%A2&src=vetmap&coordinate=gaode&callnative=1","route_id":"r1","route_name":"第1段"},{"name":"博夫宠物诊所(珠宝一街)","address":"宝昌路","phone":"15763028884","category":"医疗保健服务;动物医疗场所;宠物诊所","area":"","lng":118.82628,"lat":36.714552,"amap_id":"B0FFJ041LI","order":10,"prev_distance_km":1.912,"cumulative_distance_km":38.689,"amap_marker_url":"https://uri.amap.com/marker?position=118.826280,36.714552&name=%E5%8D%9A%E5%A4%AB%E5%AE%A0%E7%89%A9%E8%AF%8A%E6%89%80%28%E7%8F%A0%E5%AE%9D%E4%B8%80%E8%A1%97%29&src=vetmap&coordinate=gaode&callnative=1","route_id":"r1","route_name":"第1段"}]}],"rows":[{"name":"亚兴动物保健品","address":"昌乐县人民医院西南门旁","phone":"0536-6661637","category":"医疗保健服务;动物医疗场所;动物医疗场所","area":"","lng":118.928475,"lat":36.404636,"amap_id":"B02180JTDR","order":1,"prev_distance_km":0.0,"cumulative_distance_km":0.0,"amap_marker_url":"https://uri.amap.com/marker?position=118.928475,36.404636&name=%E4%BA%9A%E5%85%B4%E5%8A%A8%E7%89%A9%E4%BF%9D%E5%81%A5%E5%93%81&src=vetmap&coordinate=gaode&callnative=1","route_id":"r1","route_name":"第1段","global_order":1},{"name":"昌乐逸婕兽药有限公司(原红河兽医门诊)","address":"红河镇商贸城88号","phone":"15053682599","category":"医疗保健服务;动物医疗场所;兽医站","area":"","lng":118.920145,"lat":36.409698,"amap_id":"B0KRADA3HN","order":2,"prev_distance_km":0.934,"cumulative_distance_km":0.934,"amap_marker_url":"https://uri.amap.com/marker?position=118.920145,36.409698&name=%E6%98%8C%E4%B9%90%E9%80%B8%E5%A9%95%E5%85%BD%E8%8D%AF%E6%9C%89%E9%99%90%E5%85%AC%E5%8F%B8%28%E5%8E%9F%E7%BA%A2%E6%B2%B3%E5%85%BD%E5%8C%BB%E9%97%A8%E8%AF%8A%29&src=vetmap&coordinate=gaode&callnative=1","route_id":"r1","route_name":"第1段","global_order":2},{"name":"昌乐县五图街道畜牧兽医站","address":"盛世榴园西侧260米","phone":"","category":"医疗保健服务;动物医疗场所;兽医站","area":"","lng":118.813207,"lat":36.648896,"amap_id":"B0GDS1ST21","order":3,"prev_distance_km":28.262,"cumulative_distance_km":29.196,"amap_marker_url":"https://uri.amap.com/marker?position=118.813207,36.648896&name=%E6%98%8C%E4%B9%90%E5%8E%BF%E4%BA%94%E5%9B%BE%E8%A1%97%E9%81%93%E7%95%9C%E7%89%A7%E5%85%BD%E5%8C%BB%E7%AB%99&src=vetmap&coordinate=gaode&callnative=1","route_id":"r1","route_name":"第1段","global_order":3},{"name":"惠丰种苗植物医院","address":"五图街道南郝村退役军人服务站南侧190米","phone":"","category":"医疗保健服务;动物医疗场所;动物医疗场所","area":"","lng":118.813763,"lat":36.649718,"amap_id":"B0K0HDP3MW","order":4,"prev_distance_km":0.104,"cumulative_distance_km":29.3,"amap_marker_url":"https://uri.amap.com/marker?position=118.813763,36.649718&name=%E6%83%A0%E4%B8%B0%E7%A7%8D%E8%8B%97%E6%A4%8D%E7%89%A9%E5%8C%BB%E9%99%A2&src=vetmap&coordinate=gaode&callnative=1","route_id":"r1","route_name":"第1段","global_order":4},{"name":"振牧宠物诊所","address":"盛港府地东区西门北90米","phone":"18663658602","category":"医疗保健服务;动物医疗场所;宠物诊所","area":"","lng":118.834191,"lat":36.681572,"amap_id":"B0FFID7YO0","order":5,"prev_distance_km":3.983,"cumulative_distance_km":33.283,"amap_marker_url":"https://uri.amap.com/marker?position=118.834191,36.681572&name=%E6%8C%AF%E7%89%A7%E5%AE%A0%E7%89%A9%E8%AF%8A%E6%89%80&src=vetmap&coordinate=gaode&callnative=1","route_id":"r1","route_name":"第1段","global_order":5},{"name":"锦麟宠物诊所","address":"博业宝都华府附近","phone":"15315259990;15624122737","category":"医疗保健服务;动物医疗场所;宠物诊所","area":"","lng":118.835934,"lat":36.685746,"amap_id":"B0J1YCOGOP","order":6,"prev_distance_km":0.489,"cumulative_distance_km":33.773,"amap_marker_url":"https://uri.amap.com/marker?position=118.835934,36.685746&name=%E9%94%A6%E9%BA%9F%E5%AE%A0%E7%89%A9%E8%AF%8A%E6%89%80&src=vetmap&coordinate=gaode&callnative=1","route_id":"r1","route_name":"第1段","global_order":6},{"name":"潍乐动物医院(昌乐店)","address":"一中街553号","phone":"13287670120","category":"医疗保健服务;动物医疗场所;宠物诊所","area":"","lng":118.844052,"lat":36.685348,"amap_id":"B0JDTC3AHS","order":7,"prev_distance_km":0.725,"cumulative_distance_km":34.498,"amap_marker_url":"https://uri.amap.com/marker?position=118.844052,36.685348&name=%E6%BD%8D%E4%B9%90%E5%8A%A8%E7%89%A9%E5%8C%BB%E9%99%A2%28%E6%98%8C%E4%B9%90%E5%BA%97%29&src=vetmap&coordinate=gaode&callnative=1","route_id":"r1","route_name":"第1段","global_order":7},{"name":"诺金宠物诊所","address":"方山路5811号","phone":"18753630959","category":"医疗保健服务;动物医疗场所;宠物诊所","area":"","lng":118.84664,"lat":36.695271,"amap_id":"B0FFJ9P219","order":8,"prev_distance_km":1.127,"cumulative_distance_km":35.625,"amap_marker_url":"https://uri.amap.com/marker?position=118.846640,36.695271&name=%E8%AF%BA%E9%87%91%E5%AE%A0%E7%89%A9%E8%AF%8A%E6%89%80&src=vetmap&coordinate=gaode&callnative=1","route_id":"r1","route_name":"第1段","global_order":8},{"name":"贝乐佳宠物医院","address":"爱伦堡北门西160米","phone":"13863606120","category":"医疗保健服务;动物医疗场所;宠物诊所","area":"","lng":118.844512,"lat":36.705487,"amap_id":"B0IUH7PFZH","order":9,"prev_distance_km":1.152,"cumulative_distance_km":36.777,"amap_marker_url":"https://uri.amap.com/marker?position=118.844512,36.705487&name=%E8%B4%9D%E4%B9%90%E4%BD%B3%E5%AE%A0%E7%89%A9%E5%8C%BB%E9%99%A2&src=vetmap&coordinate=gaode&callnative=1","route_id":"r1","route_name":"第1段","global_order":9},{"name":"博夫宠物诊所(珠宝一街)","address":"宝昌路","phone":"15763028884","category":"医疗保健服务;动物医疗场所;宠物诊所","area":"","lng":118.82628,"lat":36.714552,"amap_id":"B0FFJ041LI","order":10,"prev_distance_km":1.912,"cumulative_distance_km":38.689,"amap_marker_url":"https://uri.amap.com/marker?position=118.826280,36.714552&name=%E5%8D%9A%E5%A4%AB%E5%AE%A0%E7%89%A9%E8%AF%8A%E6%89%80%28%E7%8F%A0%E5%AE%9D%E4%B8%80%E8%A1%97%29&src=vetmap&coordinate=gaode&callnative=1","route_id":"r1","route_name":"第1段","global_order":10}]}