{"summary":{"id":"d00420","province":"山东省","city":"聊城市","district":"临清市","count":27,"route_count":1,"max_route_clinics":27,"total_distance_km":86.328,"coordinate_system":"GCJ-02 / Amap","generated_at":"2026-05-07 21:27:34"},"routes":[{"id":"r1","name":"第1段","count":27,"total_distance_km":86.328,"rows":[{"name":"星辉宠物诊疗中心","address":"金郝庄镇十字街南8米","phone":"15553299798","category":"医疗保健服务;动物医疗场所;宠物诊所","area":"","lng":115.989889,"lat":36.855987,"amap_id":"B0J0XUHA0B","order":1,"prev_distance_km":0.0,"cumulative_distance_km":0.0,"amap_marker_url":"https://uri.amap.com/marker?position=115.989889,36.855987&name=%E6%98%9F%E8%BE%89%E5%AE%A0%E7%89%A9%E8%AF%8A%E7%96%97%E4%B8%AD%E5%BF%83&src=vetmap&coordinate=gaode&callnative=1","route_id":"r1","route_name":"第1段"},{"name":"康庄镇兽医站","address":"康清园小区西北侧270米","phone":"13506353656","category":"医疗保健服务;动物医疗场所;兽医站","area":"","lng":115.918649,"lat":36.794508,"amap_id":"B0FFG1C34K","order":2,"prev_distance_km":9.324,"cumulative_distance_km":9.324,"amap_marker_url":"https://uri.amap.com/marker?position=115.918649,36.794508&name=%E5%BA%B7%E5%BA%84%E9%95%87%E5%85%BD%E5%8C%BB%E7%AB%99&src=vetmap&coordinate=gaode&callnative=1","route_id":"r1","route_name":"第1段"},{"name":"临清市振祥动物门诊","address":"老赵庄镇老赵庄村544号","phone":"","category":"医疗保健服务;动物医疗场所;宠物诊所","area":"","lng":115.857537,"lat":36.839254,"amap_id":"B0L3CXK8OZ","order":3,"prev_distance_km":7.372,"cumulative_distance_km":16.696,"amap_marker_url":"https://uri.amap.com/marker?position=115.857537,36.839254&name=%E4%B8%B4%E6%B8%85%E5%B8%82%E6%8C%AF%E7%A5%A5%E5%8A%A8%E7%89%A9%E9%97%A8%E8%AF%8A&src=vetmap&coordinate=gaode&callnative=1","route_id":"r1","route_name":"第1段"},{"name":"兽医门诊宠物店","address":"514国道与林城路交叉口西280米","phone":"","category":"医疗保健服务;动物医疗场所;宠物诊所","area":"","lng":115.869368,"lat":36.898397,"amap_id":"B0K3XU33MR","order":4,"prev_distance_km":6.66,"cumulative_distance_km":23.357,"amap_marker_url":"https://uri.amap.com/marker?position=115.869368,36.898397&name=%E5%85%BD%E5%8C%BB%E9%97%A8%E8%AF%8A%E5%AE%A0%E7%89%A9%E5%BA%97&src=vetmap&coordinate=gaode&callnative=1","route_id":"r1","route_name":"第1段"},{"name":"兽医门诊","address":"松林中心卫生院西南侧200米","phone":"","category":"医疗保健服务;动物医疗场所;兽医站","area":"","lng":115.86093,"lat":36.898272,"amap_id":"B0I3JR7OHL","order":5,"prev_distance_km":0.75,"cumulative_distance_km":24.107,"amap_marker_url":"https://uri.amap.com/marker?position=115.860930,36.898272&name=%E5%85%BD%E5%8C%BB%E9%97%A8%E8%AF%8A&src=vetmap&coordinate=gaode&callnative=1","route_id":"r1","route_name":"第1段"},{"name":"临清康牧兽医门诊","address":"先锋路与三和路交叉口东240米","phone":"0635-2422110;13361466062","category":"医疗保健服务;动物医疗场所;兽医站","area":"","lng":115.732773,"lat":36.847477,"amap_id":"B0FFG9DVTK","order":6,"prev_distance_km":12.722,"cumulative_distance_km":36.829,"amap_marker_url":"https://uri.amap.com/marker?position=115.732773,36.847477&name=%E4%B8%B4%E6%B8%85%E5%BA%B7%E7%89%A7%E5%85%BD%E5%8C%BB%E9%97%A8%E8%AF%8A&src=vetmap&coordinate=gaode&callnative=1","route_id":"r1","route_name":"第1段"},{"name":"临清24小时动物医院–小七宠物医院","address":"未来城A区南门旁","phone":"18264550258","category":"医疗保健服务;动物医疗场所;宠物诊所","area":"","lng":115.721494,"lat":36.84023,"amap_id":"B0JKVSM6R0","order":7,"prev_distance_km":1.287,"cumulative_distance_km":38.117,"amap_marker_url":"https://uri.amap.com/marker?position=115.721494,36.840230&name=%E4%B8%B4%E6%B8%8524%E5%B0%8F%E6%97%B6%E5%8A%A8%E7%89%A9%E5%8C%BB%E9%99%A2%E2%80%93%E5%B0%8F%E4%B8%83%E5%AE%A0%E7%89%A9%E5%8C%BB%E9%99%A2&src=vetmap&coordinate=gaode&callnative=1","route_id":"r1","route_name":"第1段"},{"name":"宜康宠物门诊中心","address":"永青路与古楼街交叉口南240米","phone":"13869522073","category":"医疗保健服务;动物医疗场所;宠物诊所","area":"","lng":115.716764,"lat":36.839057,"amap_id":"B0JKBZJS85","order":8,"prev_distance_km":0.441,"cumulative_distance_km":38.557,"amap_marker_url":"https://uri.amap.com/marker?position=115.716764,36.839057&name=%E5%AE%9C%E5%BA%B7%E5%AE%A0%E7%89%A9%E9%97%A8%E8%AF%8A%E4%B8%AD%E5%BF%83&src=vetmap&coordinate=gaode&callnative=1","route_id":"r1","route_name":"第1段"},{"name":"爱宠宠物美容","address":"银河家园B区东南门东60米","phone":"","category":"医疗保健服务;动物医疗场所;宠物诊所","area":"新华路","lng":115.712757,"lat":36.857021,"amap_id":"B0L0ZRFU4K","order":9,"prev_distance_km":2.029,"cumulative_distance_km":40.586,"amap_marker_url":"https://uri.amap.com/marker?position=115.712757,36.857021&name=%E7%88%B1%E5%AE%A0%E5%AE%A0%E7%89%A9%E7%BE%8E%E5%AE%B9&src=vetmap&coordinate=gaode&callnative=1","route_id":"r1","route_name":"第1段"},{"name":"临牧兽医服务有限公司","address":"大众路与银河路交叉口西北20米","phone":"","category":"医疗保健服务;动物医疗场所;兽医站","area":"","lng":115.707175,"lat":36.862625,"amap_id":"B0L63KV2UV","order":10,"prev_distance_km":0.797,"cumulative_distance_km":41.383,"amap_marker_url":"https://uri.amap.com/marker?position=115.707175,36.862625&name=%E4%B8%B4%E7%89%A7%E5%85%BD%E5%8C%BB%E6%9C%8D%E5%8A%A1%E6%9C%89%E9%99%90%E5%85%AC%E5%8F%B8&src=vetmap&coordinate=gaode&callnative=1","route_id":"r1","route_name":"第1段"},{"name":"临清塔湖兽医门诊","address":"银河路","phone":"0635-2435177;15615022690","category":"医疗保健服务;动物医疗场所;兽医站","area":"","lng":115.706774,"lat":36.862617,"amap_id":"B0G2V5LID5","order":11,"prev_distance_km":0.036,"cumulative_distance_km":41.419,"amap_marker_url":"https://uri.amap.com/marker?position=115.706774,36.862617&name=%E4%B8%B4%E6%B8%85%E5%A1%94%E6%B9%96%E5%85%BD%E5%8C%BB%E9%97%A8%E8%AF%8A&src=vetmap&coordinate=gaode&callnative=1","route_id":"r1","route_name":"第1段"},{"name":"酷狗宠物店","address":"光明街29号附近","phone":"15315755058","category":"医疗保健服务;动物医疗场所;宠物诊所","area":"","lng":115.696482,"lat":36.840864,"amap_id":"B0FFK11AUX","order":12,"prev_distance_km":2.586,"cumulative_distance_km":44.005,"amap_marker_url":"https://uri.amap.com/marker?position=115.696482,36.840864&name=%E9%85%B7%E7%8B%97%E5%AE%A0%E7%89%A9%E5%BA%97&src=vetmap&coordinate=gaode&callnative=1","route_id":"r1","route_name":"第1段"},{"name":"金贝贝宠物会所(龙清苑店)","address":"龙清苑东南门旁","phone":"15562821933","category":"医疗保健服务;动物医疗场所;兽医站","area":"","lng":115.700861,"lat":36.836875,"amap_id":"B0FFMF5BCT","order":13,"prev_distance_km":0.59,"cumulative_distance_km":44.596,"amap_marker_url":"https://uri.amap.com/marker?position=115.700861,36.836875&name=%E9%87%91%E8%B4%9D%E8%B4%9D%E5%AE%A0%E7%89%A9%E4%BC%9A%E6%89%80%28%E9%BE%99%E6%B8%85%E8%8B%91%E5%BA%97%29&src=vetmap&coordinate=gaode&callnative=1","route_id":"r1","route_name":"第1段"},{"name":"聪宝宠物诊疗中心(临清总院)","address":"永青路曹岗社区曹岗小区9号楼1号商铺","phone":"17866666120","category":"医疗保健服务;动物医疗场所;宠物诊所","area":"","lng":115.715955,"lat":36.830398,"amap_id":"B0JBRHMFOI","order":14,"prev_distance_km":1.524,"cumulative_distance_km":46.12,"amap_marker_url":"https://uri.amap.com/marker?position=115.715955,36.830398&name=%E8%81%AA%E5%AE%9D%E5%AE%A0%E7%89%A9%E8%AF%8A%E7%96%97%E4%B8%AD%E5%BF%83%28%E4%B8%B4%E6%B8%85%E6%80%BB%E9%99%A2%29&src=vetmap&coordinate=gaode&callnative=1","route_id":"r1","route_name":"第1段"},{"name":"星辉宠物诊疗中心","address":"永济路与清泉街交叉口东80米","phone":"15550576288","category":"医疗保健服务;动物医疗场所;宠物诊所","area":"","lng":115.72038,"lat":36.830788,"amap_id":"B0FFK91RDJ","order":15,"prev_distance_km":0.396,"cumulative_distance_km":46.516,"amap_marker_url":"https://uri.amap.com/marker?position=115.720380,36.830788&name=%E6%98%9F%E8%BE%89%E5%AE%A0%E7%89%A9%E8%AF%8A%E7%96%97%E4%B8%AD%E5%BF%83&src=vetmap&coordinate=gaode&callnative=1","route_id":"r1","route_name":"第1段"},{"name":"佳缘宠物诊疗中心","address":"新华路街道办事处古楼社区古楼东街gc01幢-18号","phone":"17206351112","category":"医疗保健服务;动物医疗场所;宠物诊所","area":"","lng":115.722833,"lat":36.830637,"amap_id":"B0IGYM79LP","order":16,"prev_distance_km":0.219,"cumulative_distance_km":46.735,"amap_marker_url":"https://uri.amap.com/marker?position=115.722833,36.830637&name=%E4%BD%B3%E7%BC%98%E5%AE%A0%E7%89%A9%E8%AF%8A%E7%96%97%E4%B8%AD%E5%BF%83&src=vetmap&coordinate=gaode&callnative=1","route_id":"r1","route_name":"第1段"},{"name":"临清市旺康宠物诊疗中心","address":"新华路街道古楼社区清泉花园东门北邻1号","phone":"17263532558","category":"医疗保健服务;动物医疗场所;宠物诊所","area":"","lng":115.722296,"lat":36.829484,"amap_id":"B0L2A7316T","order":17,"prev_distance_km":0.137,"cumulative_distance_km":46.872,"amap_marker_url":"https://uri.amap.com/marker?position=115.722296,36.829484&name=%E4%B8%B4%E6%B8%85%E5%B8%82%E6%97%BA%E5%BA%B7%E5%AE%A0%E7%89%A9%E8%AF%8A%E7%96%97%E4%B8%AD%E5%BF%83&src=vetmap&coordinate=gaode&callnative=1","route_id":"r1","route_name":"第1段"},{"name":"阳光宠物诊疗中心(曙光路店)","address":"齐鲁银行大厦西南门北70米","phone":"18806353130","category":"医疗保健服务;动物医疗场所;宠物诊所","area":"","lng":115.722786,"lat":36.828501,"amap_id":"B0FFIW0VQI","order":18,"prev_distance_km":0.118,"cumulative_distance_km":46.99,"amap_marker_url":"https://uri.amap.com/marker?position=115.722786,36.828501&name=%E9%98%B3%E5%85%89%E5%AE%A0%E7%89%A9%E8%AF%8A%E7%96%97%E4%B8%AD%E5%BF%83%28%E6%9B%99%E5%85%89%E8%B7%AF%E5%BA%97%29&src=vetmap&coordinate=gaode&callnative=1","route_id":"r1","route_name":"第1段"},{"name":"临清吉星兽医门诊","address":"三和路与新兴路交叉口北240米","phone":"0635-2418100;18678522126","category":"医疗保健服务;动物医疗场所;兽医站","area":"","lng":115.72954,"lat":36.821636,"amap_id":"B0FFHS4G8X","order":19,"prev_distance_km":0.972,"cumulative_distance_km":47.961,"amap_marker_url":"https://uri.amap.com/marker?position=115.729540,36.821636&name=%E4%B8%B4%E6%B8%85%E5%90%89%E6%98%9F%E5%85%BD%E5%8C%BB%E9%97%A8%E8%AF%8A&src=vetmap&coordinate=gaode&callnative=1","route_id":"r1","route_name":"第1段"},{"name":"福宝宠物诊疗中心","address":"祥和路与永兴街交叉口北100米","phone":"","category":"医疗保健服务;动物医疗场所;宠物诊所","area":"","lng":115.725475,"lat":36.817875,"amap_id":"B0L0U1WCYO","order":20,"prev_distance_km":0.553,"cumulative_distance_km":48.514,"amap_marker_url":"https://uri.amap.com/marker?position=115.725475,36.817875&name=%E7%A6%8F%E5%AE%9D%E5%AE%A0%E7%89%A9%E8%AF%8A%E7%96%97%E4%B8%AD%E5%BF%83&src=vetmap&coordinate=gaode&callnative=1","route_id":"r1","route_name":"第1段"},{"name":"畜牧兽医服务站","address":"尚店镇焦庄村","phone":"15266857888","category":"医疗保健服务;动物医疗场所;兽医站","area":"","lng":115.678934,"lat":36.693668,"amap_id":"B0ID7AQKB2","order":21,"prev_distance_km":14.42,"cumulative_distance_km":62.934,"amap_marker_url":"https://uri.amap.com/marker?position=115.678934,36.693668&name=%E7%95%9C%E7%89%A7%E5%85%BD%E5%8C%BB%E6%9C%8D%E5%8A%A1%E7%AB%99&src=vetmap&coordinate=gaode&callnative=1","route_id":"r1","route_name":"第1段"},{"name":"禽病专家门诊","address":"五花槐路与八岔路交叉口东100米","phone":"","category":"医疗保健服务;动物医疗场所;兽医站","area":"","lng":115.620016,"lat":36.697646,"amap_id":"B0FFHTRGGS","order":22,"prev_distance_km":5.272,"cumulative_distance_km":68.206,"amap_marker_url":"https://uri.amap.com/marker?position=115.620016,36.697646&name=%E7%A6%BD%E7%97%85%E4%B8%93%E5%AE%B6%E9%97%A8%E8%AF%8A&src=vetmap&coordinate=gaode&callnative=1","route_id":"r1","route_name":"第1段"},{"name":"宠物门诊","address":"323省道东南侧","phone":"","category":"医疗保健服务;动物医疗场所;宠物诊所","area":"","lng":115.58338,"lat":36.752851,"amap_id":"B0H23ZQXPY","order":23,"prev_distance_km":6.953,"cumulative_distance_km":75.159,"amap_marker_url":"https://uri.amap.com/marker?position=115.583380,36.752851&name=%E5%AE%A0%E7%89%A9%E9%97%A8%E8%AF%8A&src=vetmap&coordinate=gaode&callnative=1","route_id":"r1","route_name":"第1段"},{"name":"旺旺宠物诊所","address":"麦乐迪KTV附近","phone":"13676382393","category":"医疗保健服务;动物医疗场所;宠物诊所","area":"","lng":115.535641,"lat":36.697509,"amap_id":"B0FFM4V32Y","order":24,"prev_distance_km":7.481,"cumulative_distance_km":82.64,"amap_marker_url":"https://uri.amap.com/marker?position=115.535641,36.697509&name=%E6%97%BA%E6%97%BA%E5%AE%A0%E7%89%A9%E8%AF%8A%E6%89%80&src=vetmap&coordinate=gaode&callnative=1","route_id":"r1","route_name":"第1段"},{"name":"老于兽医门诊","address":"旗胜传媒对面","phone":"","category":"医疗保健服务;动物医疗场所;兽医站","area":"","lng":115.534932,"lat":36.69623,"amap_id":"B0J2Z7DRQH","order":25,"prev_distance_km":0.156,"cumulative_distance_km":82.796,"amap_marker_url":"https://uri.amap.com/marker?position=115.534932,36.696230&name=%E8%80%81%E4%BA%8E%E5%85%BD%E5%8C%BB%E9%97%A8%E8%AF%8A&src=vetmap&coordinate=gaode&callnative=1","route_id":"r1","route_name":"第1段"},{"name":"聪宝宠物医院","address":"烟店镇尚客优旁边","phone":"18863576120","category":"医疗保健服务;动物医疗场所;宠物诊所","area":"","lng":115.501036,"lat":36.708704,"amap_id":"B0FFKJPEQ5","order":26,"prev_distance_km":3.325,"cumulative_distance_km":86.121,"amap_marker_url":"https://uri.amap.com/marker?position=115.501036,36.708704&name=%E8%81%AA%E5%AE%9D%E5%AE%A0%E7%89%A9%E5%8C%BB%E9%99%A2&src=vetmap&coordinate=gaode&callnative=1","route_id":"r1","route_name":"第1段"},{"name":"宠悦宠物会所","address":"烟店镇323省道与烟潘路交叉口向东52米路北","phone":"","category":"医疗保健服务;动物医疗场所;动物医疗场所","area":"","lng":115.498885,"lat":36.709413,"amap_id":"B0LAD75MXV","order":27,"prev_distance_km":0.207,"cumulative_distance_km":86.328,"amap_marker_url":"https://uri.amap.com/marker?position=115.498885,36.709413&name=%E5%AE%A0%E6%82%A6%E5%AE%A0%E7%89%A9%E4%BC%9A%E6%89%80&src=vetmap&coordinate=gaode&callnative=1","route_id":"r1","route_name":"第1段"}]}],"rows":[{"name":"星辉宠物诊疗中心","address":"金郝庄镇十字街南8米","phone":"15553299798","category":"医疗保健服务;动物医疗场所;宠物诊所","area":"","lng":115.989889,"lat":36.855987,"amap_id":"B0J0XUHA0B","order":1,"prev_distance_km":0.0,"cumulative_distance_km":0.0,"amap_marker_url":"https://uri.amap.com/marker?position=115.989889,36.855987&name=%E6%98%9F%E8%BE%89%E5%AE%A0%E7%89%A9%E8%AF%8A%E7%96%97%E4%B8%AD%E5%BF%83&src=vetmap&coordinate=gaode&callnative=1","route_id":"r1","route_name":"第1段","global_order":1},{"name":"康庄镇兽医站","address":"康清园小区西北侧270米","phone":"13506353656","category":"医疗保健服务;动物医疗场所;兽医站","area":"","lng":115.918649,"lat":36.794508,"amap_id":"B0FFG1C34K","order":2,"prev_distance_km":9.324,"cumulative_distance_km":9.324,"amap_marker_url":"https://uri.amap.com/marker?position=115.918649,36.794508&name=%E5%BA%B7%E5%BA%84%E9%95%87%E5%85%BD%E5%8C%BB%E7%AB%99&src=vetmap&coordinate=gaode&callnative=1","route_id":"r1","route_name":"第1段","global_order":2},{"name":"临清市振祥动物门诊","address":"老赵庄镇老赵庄村544号","phone":"","category":"医疗保健服务;动物医疗场所;宠物诊所","area":"","lng":115.857537,"lat":36.839254,"amap_id":"B0L3CXK8OZ","order":3,"prev_distance_km":7.372,"cumulative_distance_km":16.696,"amap_marker_url":"https://uri.amap.com/marker?position=115.857537,36.839254&name=%E4%B8%B4%E6%B8%85%E5%B8%82%E6%8C%AF%E7%A5%A5%E5%8A%A8%E7%89%A9%E9%97%A8%E8%AF%8A&src=vetmap&coordinate=gaode&callnative=1","route_id":"r1","route_name":"第1段","global_order":3},{"name":"兽医门诊宠物店","address":"514国道与林城路交叉口西280米","phone":"","category":"医疗保健服务;动物医疗场所;宠物诊所","area":"","lng":115.869368,"lat":36.898397,"amap_id":"B0K3XU33MR","order":4,"prev_distance_km":6.66,"cumulative_distance_km":23.357,"amap_marker_url":"https://uri.amap.com/marker?position=115.869368,36.898397&name=%E5%85%BD%E5%8C%BB%E9%97%A8%E8%AF%8A%E5%AE%A0%E7%89%A9%E5%BA%97&src=vetmap&coordinate=gaode&callnative=1","route_id":"r1","route_name":"第1段","global_order":4},{"name":"兽医门诊","address":"松林中心卫生院西南侧200米","phone":"","category":"医疗保健服务;动物医疗场所;兽医站","area":"","lng":115.86093,"lat":36.898272,"amap_id":"B0I3JR7OHL","order":5,"prev_distance_km":0.75,"cumulative_distance_km":24.107,"amap_marker_url":"https://uri.amap.com/marker?position=115.860930,36.898272&name=%E5%85%BD%E5%8C%BB%E9%97%A8%E8%AF%8A&src=vetmap&coordinate=gaode&callnative=1","route_id":"r1","route_name":"第1段","global_order":5},{"name":"临清康牧兽医门诊","address":"先锋路与三和路交叉口东240米","phone":"0635-2422110;13361466062","category":"医疗保健服务;动物医疗场所;兽医站","area":"","lng":115.732773,"lat":36.847477,"amap_id":"B0FFG9DVTK","order":6,"prev_distance_km":12.722,"cumulative_distance_km":36.829,"amap_marker_url":"https://uri.amap.com/marker?position=115.732773,36.847477&name=%E4%B8%B4%E6%B8%85%E5%BA%B7%E7%89%A7%E5%85%BD%E5%8C%BB%E9%97%A8%E8%AF%8A&src=vetmap&coordinate=gaode&callnative=1","route_id":"r1","route_name":"第1段","global_order":6},{"name":"临清24小时动物医院–小七宠物医院","address":"未来城A区南门旁","phone":"18264550258","category":"医疗保健服务;动物医疗场所;宠物诊所","area":"","lng":115.721494,"lat":36.84023,"amap_id":"B0JKVSM6R0","order":7,"prev_distance_km":1.287,"cumulative_distance_km":38.117,"amap_marker_url":"https://uri.amap.com/marker?position=115.721494,36.840230&name=%E4%B8%B4%E6%B8%8524%E5%B0%8F%E6%97%B6%E5%8A%A8%E7%89%A9%E5%8C%BB%E9%99%A2%E2%80%93%E5%B0%8F%E4%B8%83%E5%AE%A0%E7%89%A9%E5%8C%BB%E9%99%A2&src=vetmap&coordinate=gaode&callnative=1","route_id":"r1","route_name":"第1段","global_order":7},{"name":"宜康宠物门诊中心","address":"永青路与古楼街交叉口南240米","phone":"13869522073","category":"医疗保健服务;动物医疗场所;宠物诊所","area":"","lng":115.716764,"lat":36.839057,"amap_id":"B0JKBZJS85","order":8,"prev_distance_km":0.441,"cumulative_distance_km":38.557,"amap_marker_url":"https://uri.amap.com/marker?position=115.716764,36.839057&name=%E5%AE%9C%E5%BA%B7%E5%AE%A0%E7%89%A9%E9%97%A8%E8%AF%8A%E4%B8%AD%E5%BF%83&src=vetmap&coordinate=gaode&callnative=1","route_id":"r1","route_name":"第1段","global_order":8},{"name":"爱宠宠物美容","address":"银河家园B区东南门东60米","phone":"","category":"医疗保健服务;动物医疗场所;宠物诊所","area":"新华路","lng":115.712757,"lat":36.857021,"amap_id":"B0L0ZRFU4K","order":9,"prev_distance_km":2.029,"cumulative_distance_km":40.586,"amap_marker_url":"https://uri.amap.com/marker?position=115.712757,36.857021&name=%E7%88%B1%E5%AE%A0%E5%AE%A0%E7%89%A9%E7%BE%8E%E5%AE%B9&src=vetmap&coordinate=gaode&callnative=1","route_id":"r1","route_name":"第1段","global_order":9},{"name":"临牧兽医服务有限公司","address":"大众路与银河路交叉口西北20米","phone":"","category":"医疗保健服务;动物医疗场所;兽医站","area":"","lng":115.707175,"lat":36.862625,"amap_id":"B0L63KV2UV","order":10,"prev_distance_km":0.797,"cumulative_distance_km":41.383,"amap_marker_url":"https://uri.amap.com/marker?position=115.707175,36.862625&name=%E4%B8%B4%E7%89%A7%E5%85%BD%E5%8C%BB%E6%9C%8D%E5%8A%A1%E6%9C%89%E9%99%90%E5%85%AC%E5%8F%B8&src=vetmap&coordinate=gaode&callnative=1","route_id":"r1","route_name":"第1段","global_order":10},{"name":"临清塔湖兽医门诊","address":"银河路","phone":"0635-2435177;15615022690","category":"医疗保健服务;动物医疗场所;兽医站","area":"","lng":115.706774,"lat":36.862617,"amap_id":"B0G2V5LID5","order":11,"prev_distance_km":0.036,"cumulative_distance_km":41.419,"amap_marker_url":"https://uri.amap.com/marker?position=115.706774,36.862617&name=%E4%B8%B4%E6%B8%85%E5%A1%94%E6%B9%96%E5%85%BD%E5%8C%BB%E9%97%A8%E8%AF%8A&src=vetmap&coordinate=gaode&callnative=1","route_id":"r1","route_name":"第1段","global_order":11},{"name":"酷狗宠物店","address":"光明街29号附近","phone":"15315755058","category":"医疗保健服务;动物医疗场所;宠物诊所","area":"","lng":115.696482,"lat":36.840864,"amap_id":"B0FFK11AUX","order":12,"prev_distance_km":2.586,"cumulative_distance_km":44.005,"amap_marker_url":"https://uri.amap.com/marker?position=115.696482,36.840864&name=%E9%85%B7%E7%8B%97%E5%AE%A0%E7%89%A9%E5%BA%97&src=vetmap&coordinate=gaode&callnative=1","route_id":"r1","route_name":"第1段","global_order":12},{"name":"金贝贝宠物会所(龙清苑店)","address":"龙清苑东南门旁","phone":"15562821933","category":"医疗保健服务;动物医疗场所;兽医站","area":"","lng":115.700861,"lat":36.836875,"amap_id":"B0FFMF5BCT","order":13,"prev_distance_km":0.59,"cumulative_distance_km":44.596,"amap_marker_url":"https://uri.amap.com/marker?position=115.700861,36.836875&name=%E9%87%91%E8%B4%9D%E8%B4%9D%E5%AE%A0%E7%89%A9%E4%BC%9A%E6%89%80%28%E9%BE%99%E6%B8%85%E8%8B%91%E5%BA%97%29&src=vetmap&coordinate=gaode&callnative=1","route_id":"r1","route_name":"第1段","global_order":13},{"name":"聪宝宠物诊疗中心(临清总院)","address":"永青路曹岗社区曹岗小区9号楼1号商铺","phone":"17866666120","category":"医疗保健服务;动物医疗场所;宠物诊所","area":"","lng":115.715955,"lat":36.830398,"amap_id":"B0JBRHMFOI","order":14,"prev_distance_km":1.524,"cumulative_distance_km":46.12,"amap_marker_url":"https://uri.amap.com/marker?position=115.715955,36.830398&name=%E8%81%AA%E5%AE%9D%E5%AE%A0%E7%89%A9%E8%AF%8A%E7%96%97%E4%B8%AD%E5%BF%83%28%E4%B8%B4%E6%B8%85%E6%80%BB%E9%99%A2%29&src=vetmap&coordinate=gaode&callnative=1","route_id":"r1","route_name":"第1段","global_order":14},{"name":"星辉宠物诊疗中心","address":"永济路与清泉街交叉口东80米","phone":"15550576288","category":"医疗保健服务;动物医疗场所;宠物诊所","area":"","lng":115.72038,"lat":36.830788,"amap_id":"B0FFK91RDJ","order":15,"prev_distance_km":0.396,"cumulative_distance_km":46.516,"amap_marker_url":"https://uri.amap.com/marker?position=115.720380,36.830788&name=%E6%98%9F%E8%BE%89%E5%AE%A0%E7%89%A9%E8%AF%8A%E7%96%97%E4%B8%AD%E5%BF%83&src=vetmap&coordinate=gaode&callnative=1","route_id":"r1","route_name":"第1段","global_order":15},{"name":"佳缘宠物诊疗中心","address":"新华路街道办事处古楼社区古楼东街gc01幢-18号","phone":"17206351112","category":"医疗保健服务;动物医疗场所;宠物诊所","area":"","lng":115.722833,"lat":36.830637,"amap_id":"B0IGYM79LP","order":16,"prev_distance_km":0.219,"cumulative_distance_km":46.735,"amap_marker_url":"https://uri.amap.com/marker?position=115.722833,36.830637&name=%E4%BD%B3%E7%BC%98%E5%AE%A0%E7%89%A9%E8%AF%8A%E7%96%97%E4%B8%AD%E5%BF%83&src=vetmap&coordinate=gaode&callnative=1","route_id":"r1","route_name":"第1段","global_order":16},{"name":"临清市旺康宠物诊疗中心","address":"新华路街道古楼社区清泉花园东门北邻1号","phone":"17263532558","category":"医疗保健服务;动物医疗场所;宠物诊所","area":"","lng":115.722296,"lat":36.829484,"amap_id":"B0L2A7316T","order":17,"prev_distance_km":0.137,"cumulative_distance_km":46.872,"amap_marker_url":"https://uri.amap.com/marker?position=115.722296,36.829484&name=%E4%B8%B4%E6%B8%85%E5%B8%82%E6%97%BA%E5%BA%B7%E5%AE%A0%E7%89%A9%E8%AF%8A%E7%96%97%E4%B8%AD%E5%BF%83&src=vetmap&coordinate=gaode&callnative=1","route_id":"r1","route_name":"第1段","global_order":17},{"name":"阳光宠物诊疗中心(曙光路店)","address":"齐鲁银行大厦西南门北70米","phone":"18806353130","category":"医疗保健服务;动物医疗场所;宠物诊所","area":"","lng":115.722786,"lat":36.828501,"amap_id":"B0FFIW0VQI","order":18,"prev_distance_km":0.118,"cumulative_distance_km":46.99,"amap_marker_url":"https://uri.amap.com/marker?position=115.722786,36.828501&name=%E9%98%B3%E5%85%89%E5%AE%A0%E7%89%A9%E8%AF%8A%E7%96%97%E4%B8%AD%E5%BF%83%28%E6%9B%99%E5%85%89%E8%B7%AF%E5%BA%97%29&src=vetmap&coordinate=gaode&callnative=1","route_id":"r1","route_name":"第1段","global_order":18},{"name":"临清吉星兽医门诊","address":"三和路与新兴路交叉口北240米","phone":"0635-2418100;18678522126","category":"医疗保健服务;动物医疗场所;兽医站","area":"","lng":115.72954,"lat":36.821636,"amap_id":"B0FFHS4G8X","order":19,"prev_distance_km":0.972,"cumulative_distance_km":47.961,"amap_marker_url":"https://uri.amap.com/marker?position=115.729540,36.821636&name=%E4%B8%B4%E6%B8%85%E5%90%89%E6%98%9F%E5%85%BD%E5%8C%BB%E9%97%A8%E8%AF%8A&src=vetmap&coordinate=gaode&callnative=1","route_id":"r1","route_name":"第1段","global_order":19},{"name":"福宝宠物诊疗中心","address":"祥和路与永兴街交叉口北100米","phone":"","category":"医疗保健服务;动物医疗场所;宠物诊所","area":"","lng":115.725475,"lat":36.817875,"amap_id":"B0L0U1WCYO","order":20,"prev_distance_km":0.553,"cumulative_distance_km":48.514,"amap_marker_url":"https://uri.amap.com/marker?position=115.725475,36.817875&name=%E7%A6%8F%E5%AE%9D%E5%AE%A0%E7%89%A9%E8%AF%8A%E7%96%97%E4%B8%AD%E5%BF%83&src=vetmap&coordinate=gaode&callnative=1","route_id":"r1","route_name":"第1段","global_order":20},{"name":"畜牧兽医服务站","address":"尚店镇焦庄村","phone":"15266857888","category":"医疗保健服务;动物医疗场所;兽医站","area":"","lng":115.678934,"lat":36.693668,"amap_id":"B0ID7AQKB2","order":21,"prev_distance_km":14.42,"cumulative_distance_km":62.934,"amap_marker_url":"https://uri.amap.com/marker?position=115.678934,36.693668&name=%E7%95%9C%E7%89%A7%E5%85%BD%E5%8C%BB%E6%9C%8D%E5%8A%A1%E7%AB%99&src=vetmap&coordinate=gaode&callnative=1","route_id":"r1","route_name":"第1段","global_order":21},{"name":"禽病专家门诊","address":"五花槐路与八岔路交叉口东100米","phone":"","category":"医疗保健服务;动物医疗场所;兽医站","area":"","lng":115.620016,"lat":36.697646,"amap_id":"B0FFHTRGGS","order":22,"prev_distance_km":5.272,"cumulative_distance_km":68.206,"amap_marker_url":"https://uri.amap.com/marker?position=115.620016,36.697646&name=%E7%A6%BD%E7%97%85%E4%B8%93%E5%AE%B6%E9%97%A8%E8%AF%8A&src=vetmap&coordinate=gaode&callnative=1","route_id":"r1","route_name":"第1段","global_order":22},{"name":"宠物门诊","address":"323省道东南侧","phone":"","category":"医疗保健服务;动物医疗场所;宠物诊所","area":"","lng":115.58338,"lat":36.752851,"amap_id":"B0H23ZQXPY","order":23,"prev_distance_km":6.953,"cumulative_distance_km":75.159,"amap_marker_url":"https://uri.amap.com/marker?position=115.583380,36.752851&name=%E5%AE%A0%E7%89%A9%E9%97%A8%E8%AF%8A&src=vetmap&coordinate=gaode&callnative=1","route_id":"r1","route_name":"第1段","global_order":23},{"name":"旺旺宠物诊所","address":"麦乐迪KTV附近","phone":"13676382393","category":"医疗保健服务;动物医疗场所;宠物诊所","area":"","lng":115.535641,"lat":36.697509,"amap_id":"B0FFM4V32Y","order":24,"prev_distance_km":7.481,"cumulative_distance_km":82.64,"amap_marker_url":"https://uri.amap.com/marker?position=115.535641,36.697509&name=%E6%97%BA%E6%97%BA%E5%AE%A0%E7%89%A9%E8%AF%8A%E6%89%80&src=vetmap&coordinate=gaode&callnative=1","route_id":"r1","route_name":"第1段","global_order":24},{"name":"老于兽医门诊","address":"旗胜传媒对面","phone":"","category":"医疗保健服务;动物医疗场所;兽医站","area":"","lng":115.534932,"lat":36.69623,"amap_id":"B0J2Z7DRQH","order":25,"prev_distance_km":0.156,"cumulative_distance_km":82.796,"amap_marker_url":"https://uri.amap.com/marker?position=115.534932,36.696230&name=%E8%80%81%E4%BA%8E%E5%85%BD%E5%8C%BB%E9%97%A8%E8%AF%8A&src=vetmap&coordinate=gaode&callnative=1","route_id":"r1","route_name":"第1段","global_order":25},{"name":"聪宝宠物医院","address":"烟店镇尚客优旁边","phone":"18863576120","category":"医疗保健服务;动物医疗场所;宠物诊所","area":"","lng":115.501036,"lat":36.708704,"amap_id":"B0FFKJPEQ5","order":26,"prev_distance_km":3.325,"cumulative_distance_km":86.121,"amap_marker_url":"https://uri.amap.com/marker?position=115.501036,36.708704&name=%E8%81%AA%E5%AE%9D%E5%AE%A0%E7%89%A9%E5%8C%BB%E9%99%A2&src=vetmap&coordinate=gaode&callnative=1","route_id":"r1","route_name":"第1段","global_order":26},{"name":"宠悦宠物会所","address":"烟店镇323省道与烟潘路交叉口向东52米路北","phone":"","category":"医疗保健服务;动物医疗场所;动物医疗场所","area":"","lng":115.498885,"lat":36.709413,"amap_id":"B0LAD75MXV","order":27,"prev_distance_km":0.207,"cumulative_distance_km":86.328,"amap_marker_url":"https://uri.amap.com/marker?position=115.498885,36.709413&name=%E5%AE%A0%E6%82%A6%E5%AE%A0%E7%89%A9%E4%BC%9A%E6%89%80&src=vetmap&coordinate=gaode&callnative=1","route_id":"r1","route_name":"第1段","global_order":27}]}