{"summary":{"id":"d00575","province":"广东省","city":"惠州市","district":"博罗县","count":40,"total_distance_km":154.54,"coordinate_system":"GCJ-02 / Amap","generated_at":"2026-05-07 20:22:12"},"rows":[{"name":"宠爱有加宠物诊所(丽湾店)","address":"石湾镇长堤路南侧丽湾花园丽湾阁26号","phone":"13719651595","category":"医疗保健服务;动物医疗场所;宠物诊所","area":"石湾","lng":113.859901,"lat":23.118197,"amap_id":"B0JR3HB7IA","order":1,"prev_distance_km":0.0,"cumulative_distance_km":0.0,"amap_marker_url":"https://uri.amap.com/marker?position=113.859901,23.118197&name=%E5%AE%A0%E7%88%B1%E6%9C%89%E5%8A%A0%E5%AE%A0%E7%89%A9%E8%AF%8A%E6%89%80%28%E4%B8%BD%E6%B9%BE%E5%BA%97%29&src=vetmap&coordinate=gaode&callnative=1"},{"name":"零启宠物医院石湾纬济分院","address":"石湾镇明月一路69号","phone":"18124490203","category":"医疗保健服务;动物医疗场所;宠物诊所","area":"石湾","lng":113.85949,"lat":23.121095,"amap_id":"B0G1DUGZNM","order":2,"prev_distance_km":0.325,"cumulative_distance_km":0.325,"amap_marker_url":"https://uri.amap.com/marker?position=113.859490,23.121095&name=%E9%9B%B6%E5%90%AF%E5%AE%A0%E7%89%A9%E5%8C%BB%E9%99%A2%E7%9F%B3%E6%B9%BE%E7%BA%AC%E6%B5%8E%E5%88%86%E9%99%A2&src=vetmap&coordinate=gaode&callnative=1"},{"name":"龙翔宠物诊所(石湾分店)","address":"明月一路196号","phone":"15814367076","category":"医疗保健服务;动物医疗场所;宠物诊所","area":"石湾","lng":113.86131,"lat":23.123978,"amap_id":"B0FFKBDY2V","order":3,"prev_distance_km":0.371,"cumulative_distance_km":0.696,"amap_marker_url":"https://uri.amap.com/marker?position=113.861310,23.123978&name=%E9%BE%99%E7%BF%94%E5%AE%A0%E7%89%A9%E8%AF%8A%E6%89%80%28%E7%9F%B3%E6%B9%BE%E5%88%86%E5%BA%97%29&src=vetmap&coordinate=gaode&callnative=1"},{"name":"宠乐多动物医院有限公司","address":"石湾镇建设西路169号","phone":"13516668673","category":"医疗保健服务;动物医疗场所;宠物诊所","area":"石湾","lng":113.859469,"lat":23.127387,"amap_id":"B0FFMCJU4A","order":4,"prev_distance_km":0.423,"cumulative_distance_km":1.119,"amap_marker_url":"https://uri.amap.com/marker?position=113.859469,23.127387&name=%E5%AE%A0%E4%B9%90%E5%A4%9A%E5%8A%A8%E7%89%A9%E5%8C%BB%E9%99%A2%E6%9C%89%E9%99%90%E5%85%AC%E5%8F%B8&src=vetmap&coordinate=gaode&callnative=1"},{"name":"康裕动物诊所(石湾店)","address":"石湾镇明月一路508号","phone":"0752-6186896;13413196866","category":"医疗保健服务;动物医疗场所;宠物诊所","area":"石湾","lng":113.866213,"lat":23.131151,"amap_id":"B02F003SHH","order":5,"prev_distance_km":0.807,"cumulative_distance_km":1.926,"amap_marker_url":"https://uri.amap.com/marker?position=113.866213,23.131151&name=%E5%BA%B7%E8%A3%95%E5%8A%A8%E7%89%A9%E8%AF%8A%E6%89%80%28%E7%9F%B3%E6%B9%BE%E5%BA%97%29&src=vetmap&coordinate=gaode&callnative=1"},{"name":"宠爱有加宠物诊所","address":"石湾镇兴业中路南侧新怡豪门商住小区2号商住楼10商铺","phone":"15322136811","category":"医疗保健服务;动物医疗场所;宠物诊所","area":"石湾","lng":113.882658,"lat":23.135587,"amap_id":"B0I0PM1YFZ","order":6,"prev_distance_km":1.752,"cumulative_distance_km":3.678,"amap_marker_url":"https://uri.amap.com/marker?position=113.882658,23.135587&name=%E5%AE%A0%E7%88%B1%E6%9C%89%E5%8A%A0%E5%AE%A0%E7%89%A9%E8%AF%8A%E6%89%80&src=vetmap&coordinate=gaode&callnative=1"},{"name":"臻宠宠物医院·肿瘤科·骨科·转诊中心","address":"下南刘屋村桥北路(37号一楼)","phone":"18026664662","category":"医疗保健服务;动物医疗场所;宠物诊所","area":"","lng":113.958892,"lat":23.120951,"amap_id":"B0KRAZ6PYO","order":7,"prev_distance_km":7.964,"cumulative_distance_km":11.642,"amap_marker_url":"https://uri.amap.com/marker?position=113.958892,23.120951&name=%E8%87%BB%E5%AE%A0%E5%AE%A0%E7%89%A9%E5%8C%BB%E9%99%A2%C2%B7%E8%82%BF%E7%98%A4%E7%A7%91%C2%B7%E9%AA%A8%E7%A7%91%C2%B7%E8%BD%AC%E8%AF%8A%E4%B8%AD%E5%BF%83&src=vetmap&coordinate=gaode&callnative=1"},{"name":"倍思宠动物医院","address":"园洲镇桥北路2号","phone":"13113402182;15875226508","category":"医疗保健服务;动物医疗场所;宠物诊所","area":"","lng":113.959925,"lat":23.119425,"amap_id":"B0FFKVFSAM","order":8,"prev_distance_km":0.2,"cumulative_distance_km":11.842,"amap_marker_url":"https://uri.amap.com/marker?position=113.959925,23.119425&name=%E5%80%8D%E6%80%9D%E5%AE%A0%E5%8A%A8%E7%89%A9%E5%8C%BB%E9%99%A2&src=vetmap&coordinate=gaode&callnative=1"},{"name":"龙翔宠物诊所(园洲分店)","address":"园洲镇园洲大道1471号","phone":"0752-6553963;13680770472","category":"医疗保健服务;动物医疗场所;宠物诊所","area":"","lng":113.968215,"lat":23.125497,"amap_id":"B02F00PWDX","order":9,"prev_distance_km":1.084,"cumulative_distance_km":12.925,"amap_marker_url":"https://uri.amap.com/marker?position=113.968215,23.125497&name=%E9%BE%99%E7%BF%94%E5%AE%A0%E7%89%A9%E8%AF%8A%E6%89%80%28%E5%9B%AD%E6%B4%B2%E5%88%86%E5%BA%97%29&src=vetmap&coordinate=gaode&callnative=1"},{"name":"园洲镇巴宝动物诊所","address":"园洲镇兴园四路39号","phone":"0752-6182303;13825456062","category":"医疗保健服务;动物医疗场所;宠物诊所","area":"","lng":113.975861,"lat":23.121142,"amap_id":"B02F00QDSA","order":10,"prev_distance_km":0.92,"cumulative_distance_km":13.845,"amap_marker_url":"https://uri.amap.com/marker?position=113.975861,23.121142&name=%E5%9B%AD%E6%B4%B2%E9%95%87%E5%B7%B4%E5%AE%9D%E5%8A%A8%E7%89%A9%E8%AF%8A%E6%89%80&src=vetmap&coordinate=gaode&callnative=1"},{"name":"宠信宠物医疗中心","address":"园洲镇上南村兴华路26号","phone":"13829928334","category":"医疗保健服务;动物医疗场所;宠物诊所","area":"","lng":113.974471,"lat":23.124505,"amap_id":"B0L6HZC8EN","order":11,"prev_distance_km":0.4,"cumulative_distance_km":14.245,"amap_marker_url":"https://uri.amap.com/marker?position=113.974471,23.124505&name=%E5%AE%A0%E4%BF%A1%E5%AE%A0%E7%89%A9%E5%8C%BB%E7%96%97%E4%B8%AD%E5%BF%83&src=vetmap&coordinate=gaode&callnative=1"},{"name":"宠康宠物诊所","address":"园洲镇绿化北路89号","phone":"13377764040","category":"医疗保健服务;动物医疗场所;宠物诊所","area":"","lng":113.974154,"lat":23.130255,"amap_id":"B0FFJQ9JG7","order":12,"prev_distance_km":0.64,"cumulative_distance_km":14.885,"amap_marker_url":"https://uri.amap.com/marker?position=113.974154,23.130255&name=%E5%AE%A0%E5%BA%B7%E5%AE%A0%E7%89%A9%E8%AF%8A%E6%89%80&src=vetmap&coordinate=gaode&callnative=1"},{"name":"名犬宠物医疗中心","address":"园洲镇园洲花园H7栋一层10号商铺","phone":"15707618777;15728123555","category":"医疗保健服务;动物医疗场所;宠物诊所","area":"","lng":113.976578,"lat":23.132117,"amap_id":"B0K6X97XKE","order":13,"prev_distance_km":0.323,"cumulative_distance_km":15.208,"amap_marker_url":"https://uri.amap.com/marker?position=113.976578,23.132117&name=%E5%90%8D%E7%8A%AC%E5%AE%A0%E7%89%A9%E5%8C%BB%E7%96%97%E4%B8%AD%E5%BF%83&src=vetmap&coordinate=gaode&callnative=1"},{"name":"禽牧康兽药店","address":"X193国油能源惠州和记加油站东南侧","phone":"13710339591","category":"医疗保健服务;动物医疗场所;动物医疗场所","area":"","lng":113.99215,"lat":23.153444,"amap_id":"B0FFJ0ZNBF","order":14,"prev_distance_km":2.856,"cumulative_distance_km":18.065,"amap_marker_url":"https://uri.amap.com/marker?position=113.992150,23.153444&name=%E7%A6%BD%E7%89%A7%E5%BA%B7%E5%85%BD%E8%8D%AF%E5%BA%97&src=vetmap&coordinate=gaode&callnative=1"},{"name":"源康宠物诊疗中心","address":"福东路2-8","phone":"13192497052","category":"医疗保健服务;动物医疗场所;宠物诊所","area":"","lng":113.97318,"lat":23.214098,"amap_id":"B0I31A20PB","order":15,"prev_distance_km":7.018,"cumulative_distance_km":25.082,"amap_marker_url":"https://uri.amap.com/marker?position=113.973180,23.214098&name=%E6%BA%90%E5%BA%B7%E5%AE%A0%E7%89%A9%E8%AF%8A%E7%96%97%E4%B8%AD%E5%BF%83&src=vetmap&coordinate=gaode&callnative=1"},{"name":"倍思宠宠物诊所(龙溪分店)","address":"龙溪镇龙桥大道609号","phone":"15779835012;18819690179","category":"医疗保健服务;动物医疗场所;宠物诊所","area":"","lng":114.11923,"lat":23.134571,"amap_id":"B0FFHRPWFT","order":16,"prev_distance_km":17.352,"cumulative_distance_km":42.434,"amap_marker_url":"https://uri.amap.com/marker?position=114.119230,23.134571&name=%E5%80%8D%E6%80%9D%E5%AE%A0%E5%AE%A0%E7%89%A9%E8%AF%8A%E6%89%80%28%E9%BE%99%E6%BA%AA%E5%88%86%E5%BA%97%29&src=vetmap&coordinate=gaode&callnative=1"},{"name":"惠明兴动物药品有限公司","address":"龙溪街道龙桥大道517号","phone":"0752-6678582;0752-6679830;13902661408","category":"医疗保健服务;动物医疗场所;动物医疗场所","area":"","lng":114.1226,"lat":23.138512,"amap_id":"B02F00SIPU","order":17,"prev_distance_km":0.557,"cumulative_distance_km":42.992,"amap_marker_url":"https://uri.amap.com/marker?position=114.122600,23.138512&name=%E6%83%A0%E6%98%8E%E5%85%B4%E5%8A%A8%E7%89%A9%E8%8D%AF%E5%93%81%E6%9C%89%E9%99%90%E5%85%AC%E5%8F%B8&src=vetmap&coordinate=gaode&callnative=1"},{"name":"宠爱有嘉动物诊所","address":"金昌路27号","phone":"","category":"医疗保健服务;动物医疗场所;宠物诊所","area":"","lng":114.125427,"lat":23.139426,"amap_id":"B0GUTSIP20","order":18,"prev_distance_km":0.306,"cumulative_distance_km":43.298,"amap_marker_url":"https://uri.amap.com/marker?position=114.125427,23.139426&name=%E5%AE%A0%E7%88%B1%E6%9C%89%E5%98%89%E5%8A%A8%E7%89%A9%E8%AF%8A%E6%89%80&src=vetmap&coordinate=gaode&callnative=1"},{"name":"安可动物诊所(龙溪店)","address":"龙溪大道峰景雅居A01栋141号","phone":"13377521525","category":"医疗保健服务;动物医疗场所;宠物诊所","area":"","lng":114.132946,"lat":23.137372,"amap_id":"B0HD1B2P8Q","order":19,"prev_distance_km":0.802,"cumulative_distance_km":44.1,"amap_marker_url":"https://uri.amap.com/marker?position=114.132946,23.137372&name=%E5%AE%89%E5%8F%AF%E5%8A%A8%E7%89%A9%E8%AF%8A%E6%89%80%28%E9%BE%99%E6%BA%AA%E5%BA%97%29&src=vetmap&coordinate=gaode&callnative=1"},{"name":"咪果宠物诊所","address":"广梅公路269号","phone":"18676089204;18870511595","category":"医疗保健服务;动物医疗场所;宠物诊所","area":"","lng":114.149262,"lat":23.240537,"amap_id":"B0K1MDQD9K","order":20,"prev_distance_km":11.592,"cumulative_distance_km":55.692,"amap_marker_url":"https://uri.amap.com/marker?position=114.149262,23.240537&name=%E5%92%AA%E6%9E%9C%E5%AE%A0%E7%89%A9%E8%AF%8A%E6%89%80&src=vetmap&coordinate=gaode&callnative=1"},{"name":"剑锋动物保健有限公司","address":"湖镇镇富裕大道东263号","phone":"","category":"医疗保健服务;动物医疗场所;动物医疗场所","area":"","lng":114.157913,"lat":23.242454,"amap_id":"B0LKMA5SGN","order":21,"prev_distance_km":0.909,"cumulative_distance_km":56.601,"amap_marker_url":"https://uri.amap.com/marker?position=114.157913,23.242454&name=%E5%89%91%E9%94%8B%E5%8A%A8%E7%89%A9%E4%BF%9D%E5%81%A5%E6%9C%89%E9%99%90%E5%85%AC%E5%8F%B8&src=vetmap&coordinate=gaode&callnative=1"},{"name":"小熊宠物医院·犬猫专科·猫友好医院(金域华府店)","address":"罗阳街道金域华府5栋1123号商铺","phone":"18824868933","category":"医疗保健服务;动物医疗场所;宠物诊所","area":"","lng":114.271033,"lat":23.164399,"amap_id":"B0K6SU52X5","order":22,"prev_distance_km":14.456,"cumulative_distance_km":71.058,"amap_marker_url":"https://uri.amap.com/marker?position=114.271033,23.164399&name=%E5%B0%8F%E7%86%8A%E5%AE%A0%E7%89%A9%E5%8C%BB%E9%99%A2%C2%B7%E7%8A%AC%E7%8C%AB%E4%B8%93%E7%A7%91%C2%B7%E7%8C%AB%E5%8F%8B%E5%A5%BD%E5%8C%BB%E9%99%A2%28%E9%87%91%E5%9F%9F%E5%8D%8E%E5%BA%9C%E5%BA%97%29&src=vetmap&coordinate=gaode&callnative=1"},{"name":"仁爱宠物诊所(博罗店)","address":"罗阳镇商业西街文广一路8号","phone":"15976103672","category":"医疗保健服务;动物医疗场所;宠物诊所","area":"罗阳","lng":114.278908,"lat":23.165999,"amap_id":"B0FFLENV7N","order":23,"prev_distance_km":0.824,"cumulative_distance_km":71.882,"amap_marker_url":"https://uri.amap.com/marker?position=114.278908,23.165999&name=%E4%BB%81%E7%88%B1%E5%AE%A0%E7%89%A9%E8%AF%8A%E6%89%80%28%E5%8D%9A%E7%BD%97%E5%BA%97%29&src=vetmap&coordinate=gaode&callnative=1"},{"name":"康牧动物诊所(人民路店)","address":"罗阳街道博罗大道674号","phone":"15089326068","category":"医疗保健服务;动物医疗场所;宠物诊所","area":"罗阳","lng":114.279638,"lat":23.173056,"amap_id":"B0FFFS69MS","order":24,"prev_distance_km":0.788,"cumulative_distance_km":72.67,"amap_marker_url":"https://uri.amap.com/marker?position=114.279638,23.173056&name=%E5%BA%B7%E7%89%A7%E5%8A%A8%E7%89%A9%E8%AF%8A%E6%89%80%28%E4%BA%BA%E6%B0%91%E8%B7%AF%E5%BA%97%29&src=vetmap&coordinate=gaode&callnative=1"},{"name":"宝愈生宠物医院(博罗店)","address":"罗阳二路111号","phone":"","category":"医疗保健服务;动物医疗场所;宠物诊所","area":"罗阳","lng":114.289217,"lat":23.174291,"amap_id":"B0K3FCSYJC","order":25,"prev_distance_km":0.989,"cumulative_distance_km":73.659,"amap_marker_url":"https://uri.amap.com/marker?position=114.289217,23.174291&name=%E5%AE%9D%E6%84%88%E7%94%9F%E5%AE%A0%E7%89%A9%E5%8C%BB%E9%99%A2%28%E5%8D%9A%E7%BD%97%E5%BA%97%29&src=vetmap&coordinate=gaode&callnative=1"},{"name":"佰恩动物诊所(博惠路店)","address":"博惠路43号","phone":"","category":"医疗保健服务;动物医疗场所;宠物诊所","area":"罗阳","lng":114.290741,"lat":23.172978,"amap_id":"B0I0M76UXX","order":26,"prev_distance_km":0.214,"cumulative_distance_km":73.873,"amap_marker_url":"https://uri.amap.com/marker?position=114.290741,23.172978&name=%E4%BD%B0%E6%81%A9%E5%8A%A8%E7%89%A9%E8%AF%8A%E6%89%80%28%E5%8D%9A%E6%83%A0%E8%B7%AF%E5%BA%97%29&src=vetmap&coordinate=gaode&callnative=1"},{"name":"宠惠康宠物医院(博罗店)","address":"博罗大道中399号(柏尚酒店旁)","phone":"18512006451","category":"医疗保健服务;动物医疗场所;宠物诊所","area":"罗阳","lng":114.29234,"lat":23.174559,"amap_id":"B0FFGWRMI3","order":27,"prev_distance_km":0.24,"cumulative_distance_km":74.113,"amap_marker_url":"https://uri.amap.com/marker?position=114.292340,23.174559&name=%E5%AE%A0%E6%83%A0%E5%BA%B7%E5%AE%A0%E7%89%A9%E5%8C%BB%E9%99%A2%28%E5%8D%9A%E7%BD%97%E5%BA%97%29&src=vetmap&coordinate=gaode&callnative=1"},{"name":"龙强宠物诊所","address":"罗阳镇商业东街245号","phone":"15217560222","category":"医疗保健服务;动物医疗场所;宠物诊所","area":"罗阳","lng":114.299877,"lat":23.171752,"amap_id":"B0FFGWXIKT","order":28,"prev_distance_km":0.831,"cumulative_distance_km":74.944,"amap_marker_url":"https://uri.amap.com/marker?position=114.299877,23.171752&name=%E9%BE%99%E5%BC%BA%E5%AE%A0%E7%89%A9%E8%AF%8A%E6%89%80&src=vetmap&coordinate=gaode&callnative=1"},{"name":"勺子宠物医院·犬猫全科(东山公园店)","address":"商业东街与桃园路交叉口东240米","phone":"18466391948","category":"医疗保健服务;动物医疗场所;宠物诊所","area":"","lng":114.300237,"lat":23.171133,"amap_id":"B0K3XL4G0D","order":29,"prev_distance_km":0.078,"cumulative_distance_km":75.022,"amap_marker_url":"https://uri.amap.com/marker?position=114.300237,23.171133&name=%E5%8B%BA%E5%AD%90%E5%AE%A0%E7%89%A9%E5%8C%BB%E9%99%A2%C2%B7%E7%8A%AC%E7%8C%AB%E5%85%A8%E7%A7%91%28%E4%B8%9C%E5%B1%B1%E5%85%AC%E5%9B%AD%E5%BA%97%29&src=vetmap&coordinate=gaode&callnative=1"},{"name":"小乐宠物医院(博罗分院)","address":"罗阳街道华桂园华康楼1号门店(一二层)","phone":"18029985276","category":"医疗保健服务;动物医疗场所;宠物诊所","area":"罗阳","lng":114.301422,"lat":23.17238,"amap_id":"B0KDSCZDJN","order":30,"prev_distance_km":0.184,"cumulative_distance_km":75.206,"amap_marker_url":"https://uri.amap.com/marker?position=114.301422,23.172380&name=%E5%B0%8F%E4%B9%90%E5%AE%A0%E7%89%A9%E5%8C%BB%E9%99%A2%28%E5%8D%9A%E7%BD%97%E5%88%86%E9%99%A2%29&src=vetmap&coordinate=gaode&callnative=1"},{"name":"博宠爱宠物医院(天韵华府店)","address":"罗阳镇商务东街天韵华府14号","phone":"18933242345","category":"医疗保健服务;动物医疗场所;宠物诊所","area":"","lng":114.306472,"lat":23.17398,"amap_id":"B0FFKTTESN","order":31,"prev_distance_km":0.546,"cumulative_distance_km":75.752,"amap_marker_url":"https://uri.amap.com/marker?position=114.306472,23.173980&name=%E5%8D%9A%E5%AE%A0%E7%88%B1%E5%AE%A0%E7%89%A9%E5%8C%BB%E9%99%A2%28%E5%A4%A9%E9%9F%B5%E5%8D%8E%E5%BA%9C%E5%BA%97%29&src=vetmap&coordinate=gaode&callnative=1"},{"name":"布丁宠物诊所(四角楼店)","address":"罗阳街道小金村金龙大道231号","phone":"18813515545","category":"医疗保健服务;动物医疗场所;宠物诊所","area":"","lng":114.420662,"lat":23.219526,"amap_id":"B0KDKZMZ5Y","order":32,"prev_distance_km":12.722,"cumulative_distance_km":88.475,"amap_marker_url":"https://uri.amap.com/marker?position=114.420662,23.219526&name=%E5%B8%83%E4%B8%81%E5%AE%A0%E7%89%A9%E8%AF%8A%E6%89%80%28%E5%9B%9B%E8%A7%92%E6%A5%BC%E5%BA%97%29&src=vetmap&coordinate=gaode&callnative=1"},{"name":"博罗县泰美镇动物检疫申报点","address":"工农路与金龙大道交叉口东北120米","phone":"","category":"医疗保健服务;动物医疗场所;动物医疗场所","area":"","lng":114.477265,"lat":23.31112,"amap_id":"B0L03RDO9G","order":33,"prev_distance_km":11.712,"cumulative_distance_km":100.186,"amap_marker_url":"https://uri.amap.com/marker?position=114.477265,23.311120&name=%E5%8D%9A%E7%BD%97%E5%8E%BF%E6%B3%B0%E7%BE%8E%E9%95%87%E5%8A%A8%E7%89%A9%E6%A3%80%E7%96%AB%E7%94%B3%E6%8A%A5%E7%82%B9&src=vetmap&coordinate=gaode&callnative=1"},{"name":"明丰兽药店","address":"440乡道与广梅公路交叉口南40米","phone":"","category":"医疗保健服务;动物医疗场所;动物医疗场所","area":"","lng":114.302025,"lat":23.341075,"amap_id":"B0LKJR2OIN","order":34,"prev_distance_km":18.201,"cumulative_distance_km":118.387,"amap_marker_url":"https://uri.amap.com/marker?position=114.302025,23.341075&name=%E6%98%8E%E4%B8%B0%E5%85%BD%E8%8D%AF%E5%BA%97&src=vetmap&coordinate=gaode&callnative=1"},{"name":"平安畜牧兽医站","address":"柏塘镇平安片区博罗农商银行斜对面","phone":"","category":"医疗保健服务;动物医疗场所;兽医站","area":"","lng":114.302031,"lat":23.341265,"amap_id":"B0FFLHH6EZ","order":35,"prev_distance_km":0.021,"cumulative_distance_km":118.408,"amap_marker_url":"https://uri.amap.com/marker?position=114.302031,23.341265&name=%E5%B9%B3%E5%AE%89%E7%95%9C%E7%89%A7%E5%85%BD%E5%8C%BB%E7%AB%99&src=vetmap&coordinate=gaode&callnative=1"},{"name":"恒富动保","address":"金龙大道与358乡道交叉口西北260米","phone":"","category":"医疗保健服务;动物医疗场所;动物医疗场所","area":"","lng":114.435825,"lat":23.400775,"amap_id":"B0LAPLAE0B","order":36,"prev_distance_km":15.175,"cumulative_distance_km":133.583,"amap_marker_url":"https://uri.amap.com/marker?position=114.435825,23.400775&name=%E6%81%92%E5%AF%8C%E5%8A%A8%E4%BF%9D&src=vetmap&coordinate=gaode&callnative=1"},{"name":"博罗县杨村畜牧兽医站","address":"杨村镇金杨大道172号","phone":"","category":"医疗保健服务;动物医疗场所;兽医站","area":"","lng":114.461216,"lat":23.431632,"amap_id":"B02F00QEDC","order":37,"prev_distance_km":4.299,"cumulative_distance_km":137.883,"amap_marker_url":"https://uri.amap.com/marker?position=114.461216,23.431632&name=%E5%8D%9A%E7%BD%97%E5%8E%BF%E6%9D%A8%E6%9D%91%E7%95%9C%E7%89%A7%E5%85%BD%E5%8C%BB%E7%AB%99&src=vetmap&coordinate=gaode&callnative=1"},{"name":"杨侨镇畜牧兽医站","address":"侨城七街34号","phone":"","category":"医疗保健服务;动物医疗场所;兽医站","area":"","lng":114.479952,"lat":23.428656,"amap_id":"B02F00RL4T","order":38,"prev_distance_km":1.94,"cumulative_distance_km":139.823,"amap_marker_url":"https://uri.amap.com/marker?position=114.479952,23.428656&name=%E6%9D%A8%E4%BE%A8%E9%95%87%E7%95%9C%E7%89%A7%E5%85%BD%E5%8C%BB%E7%AB%99&src=vetmap&coordinate=gaode&callnative=1"},{"name":"博罗县畜牧兽医局麻陂畜牧兽医站","address":"鸿兴路与建设路交叉口西南100米","phone":"","category":"医疗保健服务;动物医疗场所;兽医站","area":"","lng":114.527635,"lat":23.478554,"amap_id":"B0FFMCQIVG","order":39,"prev_distance_km":7.379,"cumulative_distance_km":147.201,"amap_marker_url":"https://uri.amap.com/marker?position=114.527635,23.478554&name=%E5%8D%9A%E7%BD%97%E5%8E%BF%E7%95%9C%E7%89%A7%E5%85%BD%E5%8C%BB%E5%B1%80%E9%BA%BB%E9%99%82%E7%95%9C%E7%89%A7%E5%85%BD%E5%8C%BB%E7%AB%99&src=vetmap&coordinate=gaode&callnative=1"},{"name":"畜牧兽医","address":"石坝大道与石黄路交叉口西南140米","phone":"","category":"医疗保健服务;动物医疗场所;兽医站","area":"","lng":114.576186,"lat":23.52727,"amap_id":"B0G3JU6BPO","order":40,"prev_distance_km":7.339,"cumulative_distance_km":154.54,"amap_marker_url":"https://uri.amap.com/marker?position=114.576186,23.527270&name=%E7%95%9C%E7%89%A7%E5%85%BD%E5%8C%BB&src=vetmap&coordinate=gaode&callnative=1"}]}