{"summary":{"id":"d00574","province":"广东省","city":"广州市","district":"黄埔区","count":41,"total_distance_km":71.67,"coordinate_system":"GCJ-02 / Amap","generated_at":"2026-05-07 19:56:39"},"rows":[{"name":"南熙宠物医院(异宠犬猫专科诊疗中心)","address":"黄埔东路4280号榕悦三街7号106号商铺","phone":"13434134610;18988943727","category":"医疗保健服务;动物医疗场所;宠物诊所","area":"","lng":113.549825,"lat":23.108725,"amap_id":"B0LR0CNSTX","order":1,"prev_distance_km":0.0,"cumulative_distance_km":0.0,"amap_marker_url":"https://uri.amap.com/marker?position=113.549825,23.108725&name=%E5%8D%97%E7%86%99%E5%AE%A0%E7%89%A9%E5%8C%BB%E9%99%A2%28%E5%BC%82%E5%AE%A0%E7%8A%AC%E7%8C%AB%E4%B8%93%E7%A7%91%E8%AF%8A%E7%96%97%E4%B8%AD%E5%BF%83%29&src=vetmap&coordinate=gaode&callnative=1"},{"name":"宠明星宠物医院","address":"开发区东区春晖六街225号","phone":"19924254898","category":"医疗保健服务;动物医疗场所;宠物诊所","area":"","lng":113.548285,"lat":23.105952,"amap_id":"B0KGFZW504","order":2,"prev_distance_km":0.346,"cumulative_distance_km":0.346,"amap_marker_url":"https://uri.amap.com/marker?position=113.548285,23.105952&name=%E5%AE%A0%E6%98%8E%E6%98%9F%E5%AE%A0%E7%89%A9%E5%8C%BB%E9%99%A2&src=vetmap&coordinate=gaode&callnative=1"},{"name":"佳宠动物医院","address":"春晖六街229.231号","phone":"020-61063035;15107691015","category":"医疗保健服务;动物医疗场所;宠物诊所","area":"","lng":113.548267,"lat":23.105944,"amap_id":"B0FFHZPTYZ","order":3,"prev_distance_km":0.002,"cumulative_distance_km":0.348,"amap_marker_url":"https://uri.amap.com/marker?position=113.548267,23.105944&name=%E4%BD%B3%E5%AE%A0%E5%8A%A8%E7%89%A9%E5%8C%BB%E9%99%A2&src=vetmap&coordinate=gaode&callnative=1"},{"name":"迈特宠物医院(广州南岗万达广场店)","address":"康富路16号之一101铺","phone":"18345697983","category":"医疗保健服务;动物医疗场所;宠物诊所","area":"","lng":113.551441,"lat":23.098243,"amap_id":"B0JDGHJHOG","order":4,"prev_distance_km":0.916,"cumulative_distance_km":1.264,"amap_marker_url":"https://uri.amap.com/marker?position=113.551441,23.098243&name=%E8%BF%88%E7%89%B9%E5%AE%A0%E7%89%A9%E5%8C%BB%E9%99%A2%28%E5%B9%BF%E5%B7%9E%E5%8D%97%E5%B2%97%E4%B8%87%E8%BE%BE%E5%B9%BF%E5%9C%BA%E5%BA%97%29&src=vetmap&coordinate=gaode&callnative=1"},{"name":"宠物高级护理中心(鸿福门广场店)","address":"黄埔东路3729号鸿福门广场F1层","phone":"","category":"医疗保健服务;动物医疗场所;宠物诊所","area":"南岗","lng":113.542078,"lat":23.096896,"amap_id":"B0J1V71LV2","order":5,"prev_distance_km":0.969,"cumulative_distance_km":2.233,"amap_marker_url":"https://uri.amap.com/marker?position=113.542078,23.096896&name=%E5%AE%A0%E7%89%A9%E9%AB%98%E7%BA%A7%E6%8A%A4%E7%90%86%E4%B8%AD%E5%BF%83%28%E9%B8%BF%E7%A6%8F%E9%97%A8%E5%B9%BF%E5%9C%BA%E5%BA%97%29&src=vetmap&coordinate=gaode&callnative=1"},{"name":"福懋动物医院(南岗分院)","address":"黄埔东路3713号104房(南岗地铁站D口步行80米)","phone":"020-82230993","category":"医疗保健服务;动物医疗场所;宠物诊所","area":"南岗","lng":113.541775,"lat":23.096475,"amap_id":"B0HDRYSXUK","order":6,"prev_distance_km":0.056,"cumulative_distance_km":2.29,"amap_marker_url":"https://uri.amap.com/marker?position=113.541775,23.096475&name=%E7%A6%8F%E6%87%8B%E5%8A%A8%E7%89%A9%E5%8C%BB%E9%99%A2%28%E5%8D%97%E5%B2%97%E5%88%86%E9%99%A2%29&src=vetmap&coordinate=gaode&callnative=1"},{"name":"德信动物诊所","address":"黄埔东路2945号","phone":"020-82255339;13711465100","category":"医疗保健服务;动物医疗场所;宠物诊所","area":"南岗","lng":113.53094,"lat":23.088321,"amap_id":"B00141I78D","order":7,"prev_distance_km":1.432,"cumulative_distance_km":3.721,"amap_marker_url":"https://uri.amap.com/marker?position=113.530940,23.088321&name=%E5%BE%B7%E4%BF%A1%E5%8A%A8%E7%89%A9%E8%AF%8A%E6%89%80&src=vetmap&coordinate=gaode&callnative=1"},{"name":"金喵满堂宠物医院","address":"文冲街道瑞东花园祥东环街3号208(嘟家卤味楼上)","phone":"18520558368","category":"医疗保健服务;动物医疗场所;宠物诊所","area":"大沙东","lng":113.466398,"lat":23.111062,"amap_id":"B0FFKCC01A","order":8,"prev_distance_km":7.069,"cumulative_distance_km":10.79,"amap_marker_url":"https://uri.amap.com/marker?position=113.466398,23.111062&name=%E9%87%91%E5%96%B5%E6%BB%A1%E5%A0%82%E5%AE%A0%E7%89%A9%E5%8C%BB%E9%99%A2&src=vetmap&coordinate=gaode&callnative=1"},{"name":"瑞派宠物医院·骨科·猫专科(黄埔德善堂店)","address":"大沙地东574号101房","phone":"020-89857243;15323339014","category":"医疗保健服务;动物医疗场所;宠物诊所","area":"文冲","lng":113.467025,"lat":23.103925,"amap_id":"B0JARHZ978","order":9,"prev_distance_km":0.796,"cumulative_distance_km":11.587,"amap_marker_url":"https://uri.amap.com/marker?position=113.467025,23.103925&name=%E7%91%9E%E6%B4%BE%E5%AE%A0%E7%89%A9%E5%8C%BB%E9%99%A2%C2%B7%E9%AA%A8%E7%A7%91%C2%B7%E7%8C%AB%E4%B8%93%E7%A7%91%28%E9%BB%84%E5%9F%94%E5%BE%B7%E5%96%84%E5%A0%82%E5%BA%97%29&src=vetmap&coordinate=gaode&callnative=1"},{"name":"宠爱宠物医院(黄埔新村店)","address":"黄埔东路623号101宠之爱宠物医院","phone":"15889987942","category":"医疗保健服务;动物医疗场所;宠物诊所","area":"文冲","lng":113.460533,"lat":23.101159,"amap_id":"B0LKMC5W8S","order":10,"prev_distance_km":0.732,"cumulative_distance_km":12.318,"amap_marker_url":"https://uri.amap.com/marker?position=113.460533,23.101159&name=%E5%AE%A0%E7%88%B1%E5%AE%A0%E7%89%A9%E5%8C%BB%E9%99%A2%28%E9%BB%84%E5%9F%94%E6%96%B0%E6%9D%91%E5%BA%97%29&src=vetmap&coordinate=gaode&callnative=1"},{"name":"联合宠物医院(黄埔分院)","address":"黄埔东路302号110-111铺","phone":"19584994398","category":"医疗保健服务;动物医疗场所;宠物诊所","area":"丰乐北路","lng":113.458913,"lat":23.100624,"amap_id":"B0IK9MXJQC","order":11,"prev_distance_km":0.176,"cumulative_distance_km":12.494,"amap_marker_url":"https://uri.amap.com/marker?position=113.458913,23.100624&name=%E8%81%94%E5%90%88%E5%AE%A0%E7%89%A9%E5%8C%BB%E9%99%A2%28%E9%BB%84%E5%9F%94%E5%88%86%E9%99%A2%29&src=vetmap&coordinate=gaode&callnative=1"},{"name":"宠颐生宠物医院","address":"黄埔东路与新溪大街交叉口西北60米","phone":"","category":"医疗保健服务;动物医疗场所;宠物诊所","area":"丰乐北路","lng":113.458725,"lat":23.101475,"amap_id":"B0L1BPYXX3","order":12,"prev_distance_km":0.097,"cumulative_distance_km":12.591,"amap_marker_url":"https://uri.amap.com/marker?position=113.458725,23.101475&name=%E5%AE%A0%E9%A2%90%E7%94%9F%E5%AE%A0%E7%89%A9%E5%8C%BB%E9%99%A2&src=vetmap&coordinate=gaode&callnative=1"},{"name":"瑞鹏宠物医院(骨外科中心丰乐分院)","address":"黄埔东路487号(广州住房公基金管理中心黄埔管理部对面)","phone":"020-83281966;020-83282366","category":"医疗保健服务;动物医疗场所;宠物诊所","area":"丰乐北路","lng":113.458564,"lat":23.101524,"amap_id":"B0G1PBHCKK","order":13,"prev_distance_km":0.017,"cumulative_distance_km":12.608,"amap_marker_url":"https://uri.amap.com/marker?position=113.458564,23.101524&name=%E7%91%9E%E9%B9%8F%E5%AE%A0%E7%89%A9%E5%8C%BB%E9%99%A2%28%E9%AA%A8%E5%A4%96%E7%A7%91%E4%B8%AD%E5%BF%83%E4%B8%B0%E4%B9%90%E5%88%86%E9%99%A2%29&src=vetmap&coordinate=gaode&callnative=1"},{"name":"派奇宠物医院·骨科·心超·猫科·丰乐店","address":"丰乐中路55号之四铺","phone":"18144874696","category":"医疗保健服务;动物医疗场所;宠物诊所","area":"大沙","lng":113.454828,"lat":23.103368,"amap_id":"B0FFJOHAQN","order":14,"prev_distance_km":0.434,"cumulative_distance_km":13.042,"amap_marker_url":"https://uri.amap.com/marker?position=113.454828,23.103368&name=%E6%B4%BE%E5%A5%87%E5%AE%A0%E7%89%A9%E5%8C%BB%E9%99%A2%C2%B7%E9%AA%A8%E7%A7%91%C2%B7%E5%BF%83%E8%B6%85%C2%B7%E7%8C%AB%E7%A7%91%C2%B7%E4%B8%B0%E4%B9%90%E5%BA%97&src=vetmap&coordinate=gaode&callnative=1"},{"name":"福懋动物专科医院","address":"黄埔东路95-99号","phone":"020-82285677","category":"医疗保健服务;动物医疗场所;宠物诊所","area":"丰乐北路","lng":113.451449,"lat":23.101473,"amap_id":"B00140UKPX","order":15,"prev_distance_km":0.405,"cumulative_distance_km":13.447,"amap_marker_url":"https://uri.amap.com/marker?position=113.451449,23.101473&name=%E7%A6%8F%E6%87%8B%E5%8A%A8%E7%89%A9%E4%B8%93%E7%A7%91%E5%8C%BB%E9%99%A2&src=vetmap&coordinate=gaode&callnative=1"},{"name":"宠e优宠物","address":"大沙地西路139号303室","phone":"13560383271","category":"医疗保健服务;动物医疗场所;宠物诊所","area":"大沙","lng":113.444463,"lat":23.102281,"amap_id":"B0FFGXH0MX","order":16,"prev_distance_km":0.72,"cumulative_distance_km":14.167,"amap_marker_url":"https://uri.amap.com/marker?position=113.444463,23.102281&name=%E5%AE%A0e%E4%BC%98%E5%AE%A0%E7%89%A9&src=vetmap&coordinate=gaode&callnative=1"},{"name":"良一宠物医疗中心","address":"中山大道东569--12号","phone":"19966269909","category":"医疗保健服务;动物医疗场所;宠物诊所","area":"大沙","lng":113.444833,"lat":23.100411,"amap_id":"B0L1ZUN9Z9","order":17,"prev_distance_km":0.211,"cumulative_distance_km":14.378,"amap_marker_url":"https://uri.amap.com/marker?position=113.444833,23.100411&name=%E8%89%AF%E4%B8%80%E5%AE%A0%E7%89%A9%E5%8C%BB%E7%96%97%E4%B8%AD%E5%BF%83&src=vetmap&coordinate=gaode&callnative=1"},{"name":"毛豆宠物服务部(下沙分店)","address":"","phone":"","category":"医疗保健服务;动物医疗场所;动物医疗场所","area":"大沙","lng":113.444922,"lat":23.096746,"amap_id":"B0LRSC4TF4","order":18,"prev_distance_km":0.408,"cumulative_distance_km":14.786,"amap_marker_url":"https://uri.amap.com/marker?position=113.444922,23.096746&name=%E6%AF%9B%E8%B1%86%E5%AE%A0%E7%89%A9%E6%9C%8D%E5%8A%A1%E9%83%A8%28%E4%B8%8B%E6%B2%99%E5%88%86%E5%BA%97%29&src=vetmap&coordinate=gaode&callnative=1"},{"name":"爱宠宠物诊所","address":"金洲新村东门旁","phone":"","category":"医疗保健服务;动物医疗场所;宠物诊所","area":"长洲","lng":113.415175,"lat":23.070825,"amap_id":"B0L3MCKY5J","order":19,"prev_distance_km":4.191,"cumulative_distance_km":18.977,"amap_marker_url":"https://uri.amap.com/marker?position=113.415175,23.070825&name=%E7%88%B1%E5%AE%A0%E5%AE%A0%E7%89%A9%E8%AF%8A%E6%89%80&src=vetmap&coordinate=gaode&callnative=1"},{"name":"华阳宠物医院(峰湖御境店)","address":"御享2街2号104","phone":"13352809646","category":"医疗保健服务;动物医疗场所;宠物诊所","area":"","lng":113.427599,"lat":23.199948,"amap_id":"B0JG59GJX9","order":20,"prev_distance_km":14.414,"cumulative_distance_km":33.391,"amap_marker_url":"https://uri.amap.com/marker?position=113.427599,23.199948&name=%E5%8D%8E%E9%98%B3%E5%AE%A0%E7%89%A9%E5%8C%BB%E9%99%A2%28%E5%B3%B0%E6%B9%96%E5%BE%A1%E5%A2%83%E5%BA%97%29&src=vetmap&coordinate=gaode&callnative=1"},{"name":"福懋动物医院(万科分院-24小时急诊)","address":"开创大道3316号E154铺","phone":"020-82183412","category":"医疗保健服务;动物医疗场所;宠物诊所","area":"","lng":113.450384,"lat":23.182845,"amap_id":"B0FFM65RSG","order":21,"prev_distance_km":3.007,"cumulative_distance_km":36.398,"amap_marker_url":"https://uri.amap.com/marker?position=113.450384,23.182845&name=%E7%A6%8F%E6%87%8B%E5%8A%A8%E7%89%A9%E5%8C%BB%E9%99%A2%28%E4%B8%87%E7%A7%91%E5%88%86%E9%99%A2-24%E5%B0%8F%E6%97%B6%E6%80%A5%E8%AF%8A%29&src=vetmap&coordinate=gaode&callnative=1"},{"name":"派奇宠物医院(万科城一期店)","address":"开创大道3302号(金峰地铁站D口步行140米)","phone":"15018774909","category":"医疗保健服务;动物医疗场所;宠物诊所","area":"","lng":113.450737,"lat":23.182398,"amap_id":"B0IUUAKCMR","order":22,"prev_distance_km":0.061,"cumulative_distance_km":36.459,"amap_marker_url":"https://uri.amap.com/marker?position=113.450737,23.182398&name=%E6%B4%BE%E5%A5%87%E5%AE%A0%E7%89%A9%E5%8C%BB%E9%99%A2%28%E4%B8%87%E7%A7%91%E5%9F%8E%E4%B8%80%E6%9C%9F%E5%BA%97%29&src=vetmap&coordinate=gaode&callnative=1"},{"name":"瑞鹏宠物医院(万科城分院)","address":"科学城开创大道3274、3276、3278、3280号商铺","phone":"020-84217866","category":"医疗保健服务;动物医疗场所;宠物诊所","area":"","lng":113.450974,"lat":23.182196,"amap_id":"B0GDXAR3JJ","order":23,"prev_distance_km":0.033,"cumulative_distance_km":36.492,"amap_marker_url":"https://uri.amap.com/marker?position=113.450974,23.182196&name=%E7%91%9E%E9%B9%8F%E5%AE%A0%E7%89%A9%E5%8C%BB%E9%99%A2%28%E4%B8%87%E7%A7%91%E5%9F%8E%E5%88%86%E9%99%A2%29&src=vetmap&coordinate=gaode&callnative=1"},{"name":"优加宠物黄埔区动物诊疗中心(金峰城购物中心店)","address":"科翔路128号133(金峰地铁站B口步行470米)","phone":"13422330021","category":"医疗保健服务;动物医疗场所;宠物诊所","area":"","lng":113.453317,"lat":23.178119,"amap_id":"B0FFK8AI21","order":24,"prev_distance_km":0.513,"cumulative_distance_km":37.005,"amap_marker_url":"https://uri.amap.com/marker?position=113.453317,23.178119&name=%E4%BC%98%E5%8A%A0%E5%AE%A0%E7%89%A9%E9%BB%84%E5%9F%94%E5%8C%BA%E5%8A%A8%E7%89%A9%E8%AF%8A%E7%96%97%E4%B8%AD%E5%BF%83%28%E9%87%91%E5%B3%B0%E5%9F%8E%E8%B4%AD%E7%89%A9%E4%B8%AD%E5%BF%83%E5%BA%97%29&src=vetmap&coordinate=gaode&callnative=1"},{"name":"迈特宠物医院(萝岗万达店)","address":"科丰路79号万达广场A106","phone":"18345697983;19120421686","category":"医疗保健服务;动物医疗场所;宠物诊所","area":"","lng":113.466527,"lat":23.166059,"amap_id":"B0JAMHI2ZX","order":25,"prev_distance_km":1.903,"cumulative_distance_km":38.908,"amap_marker_url":"https://uri.amap.com/marker?position=113.466527,23.166059&name=%E8%BF%88%E7%89%B9%E5%AE%A0%E7%89%A9%E5%8C%BB%E9%99%A2%28%E8%90%9D%E5%B2%97%E4%B8%87%E8%BE%BE%E5%BA%97%29&src=vetmap&coordinate=gaode&callnative=1"},{"name":"一凡宠物医院","address":"香雪大道中72号香雪公馆7栋119、120号商铺","phone":"19075277120","category":"医疗保健服务;动物医疗场所;宠物诊所","area":"","lng":113.498361,"lat":23.1757,"amap_id":"B0K3RG2EC8","order":26,"prev_distance_km":3.426,"cumulative_distance_km":42.334,"amap_marker_url":"https://uri.amap.com/marker?position=113.498361,23.175700&name=%E4%B8%80%E5%87%A1%E5%AE%A0%E7%89%A9%E5%8C%BB%E9%99%A2&src=vetmap&coordinate=gaode&callnative=1"},{"name":"小沫宠物美容(锐丰中心店)","address":"锐丰中心3栋12层1226房(麦当劳旁边电梯上来)","phone":"17702614074","category":"医疗保健服务;动物医疗场所;宠物诊所","area":"","lng":113.500375,"lat":23.173225,"amap_id":"B0LRLUO8AU","order":27,"prev_distance_km":0.344,"cumulative_distance_km":42.678,"amap_marker_url":"https://uri.amap.com/marker?position=113.500375,23.173225&name=%E5%B0%8F%E6%B2%AB%E5%AE%A0%E7%89%A9%E7%BE%8E%E5%AE%B9%28%E9%94%90%E4%B8%B0%E4%B8%AD%E5%BF%83%E5%BA%97%29&src=vetmap&coordinate=gaode&callnative=1"},{"name":"星牧动物医院","address":"锐丰中心L2-110号(内街)","phone":"19589490502","category":"医疗保健服务;动物医疗场所;宠物诊所","area":"","lng":113.500905,"lat":23.174014,"amap_id":"B0LBKUXOCM","order":28,"prev_distance_km":0.103,"cumulative_distance_km":42.781,"amap_marker_url":"https://uri.amap.com/marker?position=113.500905,23.174014&name=%E6%98%9F%E7%89%A7%E5%8A%A8%E7%89%A9%E5%8C%BB%E9%99%A2&src=vetmap&coordinate=gaode&callnative=1"},{"name":"福懋动物医院(24H香雪分院)","address":"荔红路萝岗锐丰中心1层123-124房","phone":"020-83764429;18126754388","category":"医疗保健服务;动物医疗场所;宠物诊所","area":"","lng":113.502022,"lat":23.174111,"amap_id":"B0FFJGKJC1","order":29,"prev_distance_km":0.115,"cumulative_distance_km":42.896,"amap_marker_url":"https://uri.amap.com/marker?position=113.502022,23.174111&name=%E7%A6%8F%E6%87%8B%E5%8A%A8%E7%89%A9%E5%8C%BB%E9%99%A2%2824H%E9%A6%99%E9%9B%AA%E5%88%86%E9%99%A2%29&src=vetmap&coordinate=gaode&callnative=1"},{"name":"思诺宠物(黄埔分院)","address":"彩文路166号146-147房","phone":"18814099001","category":"医疗保健服务;动物医疗场所;宠物诊所","area":"","lng":113.503887,"lat":23.170749,"amap_id":"B0IRJZOQEN","order":30,"prev_distance_km":0.42,"cumulative_distance_km":43.316,"amap_marker_url":"https://uri.amap.com/marker?position=113.503887,23.170749&name=%E6%80%9D%E8%AF%BA%E5%AE%A0%E7%89%A9%28%E9%BB%84%E5%9F%94%E5%88%86%E9%99%A2%29&src=vetmap&coordinate=gaode&callnative=1"},{"name":"萝岗片区动物检疫申报点","address":"荔红路2号","phone":"020-82080865","category":"医疗保健服务;动物医疗场所;动物医疗场所","area":"","lng":113.510624,"lat":23.175512,"amap_id":"B0FFFAHGDC","order":31,"prev_distance_km":0.869,"cumulative_distance_km":44.184,"amap_marker_url":"https://uri.amap.com/marker?position=113.510624,23.175512&name=%E8%90%9D%E5%B2%97%E7%89%87%E5%8C%BA%E5%8A%A8%E7%89%A9%E6%A3%80%E7%96%AB%E7%94%B3%E6%8A%A5%E7%82%B9&src=vetmap&coordinate=gaode&callnative=1"},{"name":"泰洋动物医院","address":"开源大道440号首层","phone":"020-82331824;13316041038","category":"医疗保健服务;动物医疗场所;宠物诊所","area":"","lng":113.525247,"lat":23.163323,"amap_id":"B0GR2UBJCS","order":32,"prev_distance_km":2.018,"cumulative_distance_km":46.202,"amap_marker_url":"https://uri.amap.com/marker?position=113.525247,23.163323&name=%E6%B3%B0%E6%B4%8B%E5%8A%A8%E7%89%A9%E5%8C%BB%E9%99%A2&src=vetmap&coordinate=gaode&callnative=1"},{"name":"福懋动物医院(中海誉城分院)","address":"开源大道450号一层101房448","phone":"","category":"医疗保健服务;动物医疗场所;宠物诊所","area":"","lng":113.525459,"lat":23.163395,"amap_id":"B0H6DP4NYA","order":33,"prev_distance_km":0.023,"cumulative_distance_km":46.225,"amap_marker_url":"https://uri.amap.com/marker?position=113.525459,23.163395&name=%E7%A6%8F%E6%87%8B%E5%8A%A8%E7%89%A9%E5%8C%BB%E9%99%A2%28%E4%B8%AD%E6%B5%B7%E8%AA%89%E5%9F%8E%E5%88%86%E9%99%A2%29&src=vetmap&coordinate=gaode&callnative=1"},{"name":"奈思动物医院","address":"中海誉城南苑漫林街4-5号","phone":"13535346228","category":"医疗保健服务;动物医疗场所;宠物诊所","area":"","lng":113.532389,"lat":23.157345,"amap_id":"B0L6D5OLY0","order":34,"prev_distance_km":0.977,"cumulative_distance_km":47.202,"amap_marker_url":"https://uri.amap.com/marker?position=113.532389,23.157345&name=%E5%A5%88%E6%80%9D%E5%8A%A8%E7%89%A9%E5%8C%BB%E9%99%A2&src=vetmap&coordinate=gaode&callnative=1"},{"name":"康珍动物诊所(康珍黄埔店)","address":"永岗村井泉一路48号","phone":"17328636997","category":"医疗保健服务;动物医疗场所;宠物诊所","area":"","lng":113.575561,"lat":23.183951,"amap_id":"B0FFM80I64","order":35,"prev_distance_km":5.313,"cumulative_distance_km":52.515,"amap_marker_url":"https://uri.amap.com/marker?position=113.575561,23.183951&name=%E5%BA%B7%E7%8F%8D%E5%8A%A8%E7%89%A9%E8%AF%8A%E6%89%80%28%E5%BA%B7%E7%8F%8D%E9%BB%84%E5%9F%94%E5%BA%97%29&src=vetmap&coordinate=gaode&callnative=1"},{"name":"勤宠堂动物诊疗中心","address":"布岭新村一巷一号101铺","phone":"15360682188","category":"医疗保健服务;动物医疗场所;宠物诊所","area":"","lng":113.554396,"lat":23.207269,"amap_id":"B0KK1RUF5K","order":36,"prev_distance_km":3.377,"cumulative_distance_km":55.892,"amap_marker_url":"https://uri.amap.com/marker?position=113.554396,23.207269&name=%E5%8B%A4%E5%AE%A0%E5%A0%82%E5%8A%A8%E7%89%A9%E8%AF%8A%E7%96%97%E4%B8%AD%E5%BF%83&src=vetmap&coordinate=gaode&callnative=1"},{"name":"纬济宠物医院24h急诊重诊治疗中心(黄埔店)","address":"龙湖街凤湖一路凤语湾s2-115","phone":"15099996614","category":"医疗保健服务;动物医疗场所;宠物诊所","area":"","lng":113.548281,"lat":23.319441,"amap_id":"B0J1LMSOG3","order":37,"prev_distance_km":12.489,"cumulative_distance_km":68.381,"amap_marker_url":"https://uri.amap.com/marker?position=113.548281,23.319441&name=%E7%BA%AC%E6%B5%8E%E5%AE%A0%E7%89%A9%E5%8C%BB%E9%99%A224h%E6%80%A5%E8%AF%8A%E9%87%8D%E8%AF%8A%E6%B2%BB%E7%96%97%E4%B8%AD%E5%BF%83%28%E9%BB%84%E5%9F%94%E5%BA%97%29&src=vetmap&coordinate=gaode&callnative=1"},{"name":"恒佑动物医院·急诊·犬猫专科","address":"(中新广州知识城)泊语街9号之111铺","phone":"15994967268","category":"医疗保健服务;动物医疗场所;宠物诊所","area":"","lng":113.551013,"lat":23.323097,"amap_id":"B0KKK9TM5S","order":38,"prev_distance_km":0.493,"cumulative_distance_km":68.874,"amap_marker_url":"https://uri.amap.com/marker?position=113.551013,23.323097&name=%E6%81%92%E4%BD%91%E5%8A%A8%E7%89%A9%E5%8C%BB%E9%99%A2%C2%B7%E6%80%A5%E8%AF%8A%C2%B7%E7%8A%AC%E7%8C%AB%E4%B8%93%E7%A7%91&src=vetmap&coordinate=gaode&callnative=1"},{"name":"广州恒佑宠物医院","address":"龙湖街道泊语街九号之一111房(近旺村A地铁口出口)","phone":"15994967268","category":"医疗保健服务;动物医疗场所;宠物诊所","area":"","lng":113.551232,"lat":23.323116,"amap_id":"B0K37RUSUC","order":39,"prev_distance_km":0.022,"cumulative_distance_km":68.896,"amap_marker_url":"https://uri.amap.com/marker?position=113.551232,23.323116&name=%E5%B9%BF%E5%B7%9E%E6%81%92%E4%BD%91%E5%AE%A0%E7%89%A9%E5%8C%BB%E9%99%A2&src=vetmap&coordinate=gaode&callnative=1"},{"name":"立康动物医院","address":"中新知识城合景天峻峻锦街10号107铺","phone":"18620579618","category":"医疗保健服务;动物医疗场所;宠物诊所","area":"","lng":113.553975,"lat":23.325494,"amap_id":"B0K3DMUVDD","order":40,"prev_distance_km":0.385,"cumulative_distance_km":69.281,"amap_marker_url":"https://uri.amap.com/marker?position=113.553975,23.325494&name=%E7%AB%8B%E5%BA%B7%E5%8A%A8%E7%89%A9%E5%8C%BB%E9%99%A2&src=vetmap&coordinate=gaode&callnative=1"},{"name":"白日梦宠宠物服务","address":"知新路与含英一路交叉口西北320米","phone":"18665678797","category":"医疗保健服务;动物医疗场所;宠物诊所","area":"","lng":113.530974,"lat":23.329412,"amap_id":"B0L6S5V7Y8","order":41,"prev_distance_km":2.389,"cumulative_distance_km":71.67,"amap_marker_url":"https://uri.amap.com/marker?position=113.530974,23.329412&name=%E7%99%BD%E6%97%A5%E6%A2%A6%E5%AE%A0%E5%AE%A0%E7%89%A9%E6%9C%8D%E5%8A%A1&src=vetmap&coordinate=gaode&callnative=1"}]}