{"summary":{"id":"d00558","province":"广东省","city":"云浮市","district":"郁南县","count":6,"total_distance_km":47.479,"coordinate_system":"GCJ-02 / Amap","generated_at":"2026-05-07 19:56:35"},"rows":[{"name":"大长兽药店","address":"吉祥路与477乡道交叉口西南140米","phone":"","category":"医疗保健服务;动物医疗场所;动物医疗场所","area":"","lng":111.719955,"lat":22.864093,"amap_id":"B0M6HRCRAP","order":1,"prev_distance_km":0.0,"cumulative_distance_km":0.0,"amap_marker_url":"https://uri.amap.com/marker?position=111.719955,22.864093&name=%E5%A4%A7%E9%95%BF%E5%85%BD%E8%8D%AF%E5%BA%97&src=vetmap&coordinate=gaode&callnative=1"},{"name":"如逸宠物诊所","address":"连滩镇","phone":"13532487018","category":"医疗保健服务;动物医疗场所;宠物诊所","area":"","lng":111.726132,"lat":22.926741,"amap_id":"B0FFLFGCDC","order":2,"prev_distance_km":6.995,"cumulative_distance_km":6.995,"amap_marker_url":"https://uri.amap.com/marker?position=111.726132,22.926741&name=%E5%A6%82%E9%80%B8%E5%AE%A0%E7%89%A9%E8%AF%8A%E6%89%80&src=vetmap&coordinate=gaode&callnative=1"},{"name":"连滩畜牧兽医水产站","address":"振兴路与振兴二路交叉口东20米","phone":"","category":"医疗保健服务;动物医疗场所;宠物诊所","area":"","lng":111.728225,"lat":22.931525,"amap_id":"B0JA61HISL","order":3,"prev_distance_km":0.574,"cumulative_distance_km":7.568,"amap_marker_url":"https://uri.amap.com/marker?position=111.728225,22.931525&name=%E8%BF%9E%E6%BB%A9%E7%95%9C%E7%89%A7%E5%85%BD%E5%8C%BB%E6%B0%B4%E4%BA%A7%E7%AB%99&src=vetmap&coordinate=gaode&callnative=1"},{"name":"宝珠畜牧兽医水产站","address":"279省道与532乡道交叉口北260米","phone":"","category":"医疗保健服务;动物医疗场所;兽医站","area":"","lng":111.607475,"lat":23.120975,"amap_id":"B0FFLPETB3","order":4,"prev_distance_km":24.423,"cumulative_distance_km":31.991,"amap_marker_url":"https://uri.amap.com/marker?position=111.607475,23.120975&name=%E5%AE%9D%E7%8F%A0%E7%95%9C%E7%89%A7%E5%85%BD%E5%8C%BB%E6%B0%B4%E4%BA%A7%E7%AB%99&src=vetmap&coordinate=gaode&callnative=1"},{"name":"都南畜牧兽医渔业","address":"江滨中路与工业大道交叉口西南160米","phone":"","category":"医疗保健服务;动物医疗场所;兽医站","area":"中山路","lng":111.536799,"lat":23.234244,"amap_id":"B0FFJ062BH","order":5,"prev_distance_km":14.52,"cumulative_distance_km":46.511,"amap_marker_url":"https://uri.amap.com/marker?position=111.536799,23.234244&name=%E9%83%BD%E5%8D%97%E7%95%9C%E7%89%A7%E5%85%BD%E5%8C%BB%E6%B8%94%E4%B8%9A&src=vetmap&coordinate=gaode&callnative=1"},{"name":"爱心宠物诊所","address":"都城镇一环中路21号","phone":"18307666464","category":"医疗保健服务;动物医疗场所;宠物诊所","area":"工业大道","lng":111.532757,"lat":23.242114,"amap_id":"B0JADZ6K3F","order":6,"prev_distance_km":0.968,"cumulative_distance_km":47.479,"amap_marker_url":"https://uri.amap.com/marker?position=111.532757,23.242114&name=%E7%88%B1%E5%BF%83%E5%AE%A0%E7%89%A9%E8%AF%8A%E6%89%80&src=vetmap&coordinate=gaode&callnative=1"}]}