{"summary":{"id":"d00552","province":"广东省","city":"东莞市","district":"东莞市","count":409,"total_distance_km":558.971,"coordinate_system":"GCJ-02 / Amap","generated_at":"2026-05-07 20:22:07"},"rows":[{"name":"瑞派宠物医院(东莞麻涌安可院)","address":"东城街道麻涌镇麻涌镇古梅路178号104室","phone":"0769-88289556;18938219556","category":"医疗保健服务;动物医疗场所;宠物诊所","area":"","lng":113.573767,"lat":23.053634,"amap_id":"B0JUACXB93","order":1,"prev_distance_km":0.0,"cumulative_distance_km":0.0,"amap_marker_url":"https://uri.amap.com/marker?position=113.573767,23.053634&name=%E7%91%9E%E6%B4%BE%E5%AE%A0%E7%89%A9%E5%8C%BB%E9%99%A2%28%E4%B8%9C%E8%8E%9E%E9%BA%BB%E6%B6%8C%E5%AE%89%E5%8F%AF%E9%99%A2%29&src=vetmap&coordinate=gaode&callnative=1"},{"name":"依伴动物医院","address":"麻涌镇麻涌大道271号102室","phone":"13640969500","category":"医疗保健服务;动物医疗场所;宠物诊所","area":"","lng":113.580926,"lat":23.048572,"amap_id":"B0HDZZZJH5","order":2,"prev_distance_km":0.924,"cumulative_distance_km":0.924,"amap_marker_url":"https://uri.amap.com/marker?position=113.580926,23.048572&name=%E4%BE%9D%E4%BC%B4%E5%8A%A8%E7%89%A9%E5%8C%BB%E9%99%A2&src=vetmap&coordinate=gaode&callnative=1"},{"name":"维妮宠物医院(东莞总院)","address":"麻涌镇麻涌大道202号整栋镇政府东南侧公交站近中国电信大楼","phone":"18938550482","category":"医疗保健服务;动物医疗场所;宠物诊所","area":"","lng":113.582332,"lat":23.050587,"amap_id":"B0JB5Z2P53","order":3,"prev_distance_km":0.266,"cumulative_distance_km":1.19,"amap_marker_url":"https://uri.amap.com/marker?position=113.582332,23.050587&name=%E7%BB%B4%E5%A6%AE%E5%AE%A0%E7%89%A9%E5%8C%BB%E9%99%A2%28%E4%B8%9C%E8%8E%9E%E6%80%BB%E9%99%A2%29&src=vetmap&coordinate=gaode&callnative=1"},{"name":"莞宠动物诊所","address":"麻涌镇大步东升大厦103室","phone":"13538551048","category":"医疗保健服务;动物医疗场所;动物医疗场所","area":"","lng":113.578363,"lat":23.044888,"amap_id":"B0I0CMEENK","order":4,"prev_distance_km":0.753,"cumulative_distance_km":1.943,"amap_marker_url":"https://uri.amap.com/marker?position=113.578363,23.044888&name=%E8%8E%9E%E5%AE%A0%E5%8A%A8%E7%89%A9%E8%AF%8A%E6%89%80&src=vetmap&coordinate=gaode&callnative=1"},{"name":"康优动物诊疗店","address":"麻涌镇八方酒店对面","phone":"0769-88289089;15362429893","category":"医疗保健服务;动物医疗场所;宠物诊所","area":"","lng":113.585777,"lat":23.057835,"amap_id":"B0FFGAWB5Z","order":5,"prev_distance_km":1.627,"cumulative_distance_km":3.57,"amap_marker_url":"https://uri.amap.com/marker?position=113.585777,23.057835&name=%E5%BA%B7%E4%BC%98%E5%8A%A8%E7%89%A9%E8%AF%8A%E7%96%97%E5%BA%97&src=vetmap&coordinate=gaode&callnative=1"},{"name":"东莞市望牛墩维妮宠物医院","address":"望牛墩镇镇中路38号112-113-115商铺","phone":"18925579553","category":"医疗保健服务;动物医疗场所;宠物诊所","area":"","lng":113.659358,"lat":23.053133,"amap_id":"B0HUKS8EEF","order":6,"prev_distance_km":7.546,"cumulative_distance_km":11.116,"amap_marker_url":"https://uri.amap.com/marker?position=113.659358,23.053133&name=%E4%B8%9C%E8%8E%9E%E5%B8%82%E6%9C%9B%E7%89%9B%E5%A2%A9%E7%BB%B4%E5%A6%AE%E5%AE%A0%E7%89%A9%E5%8C%BB%E9%99%A2&src=vetmap&coordinate=gaode&callnative=1"},{"name":"康隆动物诊所(望牛墩镇中路店)","address":"望牛墩镇镇中路彩虹楼6一7号铺","phone":"0769-88515455;15818204882","category":"医疗保健服务;动物医疗场所;宠物诊所","area":"","lng":113.661642,"lat":23.05436,"amap_id":"B0FFHHI8NG","order":7,"prev_distance_km":0.271,"cumulative_distance_km":11.387,"amap_marker_url":"https://uri.amap.com/marker?position=113.661642,23.054360&name=%E5%BA%B7%E9%9A%86%E5%8A%A8%E7%89%A9%E8%AF%8A%E6%89%80%28%E6%9C%9B%E7%89%9B%E5%A2%A9%E9%95%87%E4%B8%AD%E8%B7%AF%E5%BA%97%29&src=vetmap&coordinate=gaode&callnative=1"},{"name":"温暖先生宠物医院(中堂分院)","address":"中堂镇大新围路52号","phone":"13128080509;13128084670","category":"医疗保健服务;动物医疗场所;宠物诊所","area":"","lng":113.664646,"lat":23.090791,"amap_id":"B0K06U57FF","order":8,"prev_distance_km":4.063,"cumulative_distance_km":15.45,"amap_marker_url":"https://uri.amap.com/marker?position=113.664646,23.090791&name=%E6%B8%A9%E6%9A%96%E5%85%88%E7%94%9F%E5%AE%A0%E7%89%A9%E5%8C%BB%E9%99%A2%28%E4%B8%AD%E5%A0%82%E5%88%86%E9%99%A2%29&src=vetmap&coordinate=gaode&callnative=1"},{"name":"纬济宠物医院(东港城商业中心店)","address":"东港城商业中心东北2门旁","phone":"13556697403","category":"医疗保健服务;动物医疗场所;宠物诊所","area":"","lng":113.662311,"lat":23.09599,"amap_id":"B0JRPHERVD","order":9,"prev_distance_km":0.625,"cumulative_distance_km":16.075,"amap_marker_url":"https://uri.amap.com/marker?position=113.662311,23.095990&name=%E7%BA%AC%E6%B5%8E%E5%AE%A0%E7%89%A9%E5%8C%BB%E9%99%A2%28%E4%B8%9C%E6%B8%AF%E5%9F%8E%E5%95%86%E4%B8%9A%E4%B8%AD%E5%BF%83%E5%BA%97%29&src=vetmap&coordinate=gaode&callnative=1"},{"name":"维妮宠物医院(中堂分院)","address":"中堂振兴路与福华街交叉口东20米","phone":"15019138064","category":"医疗保健服务;动物医疗场所;宠物诊所","area":"","lng":113.654891,"lat":23.097438,"amap_id":"B0KGU51BI6","order":10,"prev_distance_km":0.776,"cumulative_distance_km":16.851,"amap_marker_url":"https://uri.amap.com/marker?position=113.654891,23.097438&name=%E7%BB%B4%E5%A6%AE%E5%AE%A0%E7%89%A9%E5%8C%BB%E9%99%A2%28%E4%B8%AD%E5%A0%82%E5%88%86%E9%99%A2%29&src=vetmap&coordinate=gaode&callnative=1"},{"name":"四叶草动物诊疗中心(中天·城市广场店)","address":"振兴路6号192四叶草动物诊疗中心","phone":"0769-88880121;13377730543","category":"医疗保健服务;动物医疗场所;宠物诊所","area":"","lng":113.653567,"lat":23.096914,"amap_id":"B0JGA5DR9Z","order":11,"prev_distance_km":0.147,"cumulative_distance_km":16.998,"amap_marker_url":"https://uri.amap.com/marker?position=113.653567,23.096914&name=%E5%9B%9B%E5%8F%B6%E8%8D%89%E5%8A%A8%E7%89%A9%E8%AF%8A%E7%96%97%E4%B8%AD%E5%BF%83%28%E4%B8%AD%E5%A4%A9%C2%B7%E5%9F%8E%E5%B8%82%E5%B9%BF%E5%9C%BA%E5%BA%97%29&src=vetmap&coordinate=gaode&callnative=1"},{"name":"星宠动物诊疗中心","address":"中堂镇莞都路1号106-107","phone":"18520229388","category":"医疗保健服务;动物医疗场所;宠物诊所","area":"","lng":113.650109,"lat":23.095428,"amap_id":"B0FFLG7ACG","order":12,"prev_distance_km":0.39,"cumulative_distance_km":17.389,"amap_marker_url":"https://uri.amap.com/marker?position=113.650109,23.095428&name=%E6%98%9F%E5%AE%A0%E5%8A%A8%E7%89%A9%E8%AF%8A%E7%96%97%E4%B8%AD%E5%BF%83&src=vetmap&coordinate=gaode&callnative=1"},{"name":"东莞市万江区畜牧兽医站","address":"万江街道汾溪路116、122","phone":"0769-22287063","category":"医疗保健服务;动物医疗场所;兽医站","area":"","lng":113.707118,"lat":23.058296,"amap_id":"B030104KLP","order":13,"prev_distance_km":7.146,"cumulative_distance_km":24.534,"amap_marker_url":"https://uri.amap.com/marker?position=113.707118,23.058296&name=%E4%B8%9C%E8%8E%9E%E5%B8%82%E4%B8%87%E6%B1%9F%E5%8C%BA%E7%95%9C%E7%89%A7%E5%85%BD%E5%8C%BB%E7%AB%99&src=vetmap&coordinate=gaode&callnative=1"},{"name":"希尔动物诊所","address":"万江街道莞穗路万江段76号1108室之一","phone":"18128553976","category":"医疗保健服务;动物医疗场所;宠物诊所","area":"","lng":113.714563,"lat":23.058986,"amap_id":"B0H14ZSZQ3","order":14,"prev_distance_km":0.766,"cumulative_distance_km":25.3,"amap_marker_url":"https://uri.amap.com/marker?position=113.714563,23.058986&name=%E5%B8%8C%E5%B0%94%E5%8A%A8%E7%89%A9%E8%AF%8A%E6%89%80&src=vetmap&coordinate=gaode&callnative=1"},{"name":"康盛动物诊所","address":"金鳌路贯诚花园","phone":"0769-22785902;13669893865;13713023081","category":"医疗保健服务;动物医疗场所;宠物诊所","area":"","lng":113.723501,"lat":23.04641,"amap_id":"B03017U40T","order":15,"prev_distance_km":1.671,"cumulative_distance_km":26.971,"amap_marker_url":"https://uri.amap.com/marker?position=113.723501,23.046410&name=%E5%BA%B7%E7%9B%9B%E5%8A%A8%E7%89%A9%E8%AF%8A%E6%89%80&src=vetmap&coordinate=gaode&callnative=1"},{"name":"野玛动物医院·牙科·中兽医(万江分院)","address":"万江街道泰新路8号106室","phone":"0769-28631120;13226210671","category":"医疗保健服务;动物医疗场所;宠物诊所","area":"","lng":113.723625,"lat":23.045625,"amap_id":"B0KDK1NE6J","order":16,"prev_distance_km":0.088,"cumulative_distance_km":27.059,"amap_marker_url":"https://uri.amap.com/marker?position=113.723625,23.045625&name=%E9%87%8E%E7%8E%9B%E5%8A%A8%E7%89%A9%E5%8C%BB%E9%99%A2%C2%B7%E7%89%99%E7%A7%91%C2%B7%E4%B8%AD%E5%85%BD%E5%8C%BB%28%E4%B8%87%E6%B1%9F%E5%88%86%E9%99%A2%29&src=vetmap&coordinate=gaode&callnative=1"},{"name":"瑞鹏宠物医院(万江分院)","address":"万江街道新城社区理想0769家园沁园北12-13号铺","phone":"0769-22286245","category":"医疗保健服务;动物医疗场所;宠物诊所","area":"","lng":113.720531,"lat":23.040176,"amap_id":"B0FFI78G86","order":17,"prev_distance_km":0.684,"cumulative_distance_km":27.743,"amap_marker_url":"https://uri.amap.com/marker?position=113.720531,23.040176&name=%E7%91%9E%E9%B9%8F%E5%AE%A0%E7%89%A9%E5%8C%BB%E9%99%A2%28%E4%B8%87%E6%B1%9F%E5%88%86%E9%99%A2%29&src=vetmap&coordinate=gaode&callnative=1"},{"name":"福懋动物医院(万江分院-24小时急诊)","address":"万江街道万道路盛世华南3号楼1层138号","phone":"18002675920","category":"医疗保健服务;动物医疗场所;宠物诊所","area":"华南摩尔","lng":113.724465,"lat":23.036846,"amap_id":"B0HR6P7VE5","order":18,"prev_distance_km":0.547,"cumulative_distance_km":28.289,"amap_marker_url":"https://uri.amap.com/marker?position=113.724465,23.036846&name=%E7%A6%8F%E6%87%8B%E5%8A%A8%E7%89%A9%E5%8C%BB%E9%99%A2%28%E4%B8%87%E6%B1%9F%E5%88%86%E9%99%A2-24%E5%B0%8F%E6%97%B6%E6%80%A5%E8%AF%8A%29&src=vetmap&coordinate=gaode&callnative=1"},{"name":"爱康动物医疗(万江路)","address":"江滨花园翠欣苑东门旁","phone":"","category":"医疗保健服务;动物医疗场所;宠物诊所","area":"华南MALL","lng":113.728974,"lat":23.038776,"amap_id":"B0FFM20F1Z","order":19,"prev_distance_km":0.509,"cumulative_distance_km":28.798,"amap_marker_url":"https://uri.amap.com/marker?position=113.728974,23.038776&name=%E7%88%B1%E5%BA%B7%E5%8A%A8%E7%89%A9%E5%8C%BB%E7%96%97%28%E4%B8%87%E6%B1%9F%E8%B7%AF%29&src=vetmap&coordinate=gaode&callnative=1"},{"name":"爱康动物医疗(万江路店)","address":"万江街道江滨花园7期A02号铺","phone":"","category":"医疗保健服务;动物医疗场所;宠物诊所","area":"华南摩尔","lng":113.72898,"lat":23.038799,"amap_id":"B0FFF2WSBO","order":20,"prev_distance_km":0.003,"cumulative_distance_km":28.801,"amap_marker_url":"https://uri.amap.com/marker?position=113.728980,23.038799&name=%E7%88%B1%E5%BA%B7%E5%8A%A8%E7%89%A9%E5%8C%BB%E7%96%97%28%E4%B8%87%E6%B1%9F%E8%B7%AF%E5%BA%97%29&src=vetmap&coordinate=gaode&callnative=1"},{"name":"启爱动物医院(万江分院)","address":"万道路万江段南10号101室","phone":"13416978836","category":"医疗保健服务;动物医疗场所;宠物诊所","area":"金鳌洲","lng":113.721791,"lat":23.031676,"amap_id":"B0K0XZ3EGH","order":21,"prev_distance_km":1.081,"cumulative_distance_km":29.882,"amap_marker_url":"https://uri.amap.com/marker?position=113.721791,23.031676&name=%E5%90%AF%E7%88%B1%E5%8A%A8%E7%89%A9%E5%8C%BB%E9%99%A2%28%E4%B8%87%E6%B1%9F%E5%88%86%E9%99%A2%29&src=vetmap&coordinate=gaode&callnative=1"},{"name":"维特佳宠物医院","address":"万江街道金鳌路16号1049-1050室","phone":"18928296069","category":"医疗保健服务;动物医疗场所;宠物诊所","area":"","lng":113.714614,"lat":23.037453,"amap_id":"B0LKM76Q74","order":22,"prev_distance_km":0.976,"cumulative_distance_km":30.858,"amap_marker_url":"https://uri.amap.com/marker?position=113.714614,23.037453&name=%E7%BB%B4%E7%89%B9%E4%BD%B3%E5%AE%A0%E7%89%A9%E5%8C%BB%E9%99%A2&src=vetmap&coordinate=gaode&callnative=1"},{"name":"贝贝动物诊所(万江路)","address":"万江街道古屋邨万道路万江段59号101","phone":"0769-28639262;13433661864","category":"医疗保健服务;动物医疗场所;宠物诊所","area":"","lng":113.708343,"lat":23.031809,"amap_id":"B0FFG4L99Z","order":23,"prev_distance_km":0.898,"cumulative_distance_km":31.755,"amap_marker_url":"https://uri.amap.com/marker?position=113.708343,23.031809&name=%E8%B4%9D%E8%B4%9D%E5%8A%A8%E7%89%A9%E8%AF%8A%E6%89%80%28%E4%B8%87%E6%B1%9F%E8%B7%AF%29&src=vetmap&coordinate=gaode&callnative=1"},{"name":"新纪元动物医院","address":"港口大道万江段尚书悦府113号","phone":"13580787762;17819090535","category":"医疗保健服务;动物医疗场所;宠物诊所","area":"南城","lng":113.720114,"lat":23.015606,"amap_id":"B0L35ADTX6","order":24,"prev_distance_km":2.167,"cumulative_distance_km":33.923,"amap_marker_url":"https://uri.amap.com/marker?position=113.720114,23.015606&name=%E6%96%B0%E7%BA%AA%E5%85%83%E5%8A%A8%E7%89%A9%E5%8C%BB%E9%99%A2&src=vetmap&coordinate=gaode&callnative=1"},{"name":"纬济宠物医院(南城店)","address":"金丰路1号江南世家A28-29","phone":"18929268610","category":"医疗保健服务;动物医疗场所;宠物诊所","area":"南城","lng":113.726247,"lat":23.017822,"amap_id":"B0IUUGIY7O","order":25,"prev_distance_km":0.674,"cumulative_distance_km":34.597,"amap_marker_url":"https://uri.amap.com/marker?position=113.726247,23.017822&name=%E7%BA%AC%E6%B5%8E%E5%AE%A0%E7%89%A9%E5%8C%BB%E9%99%A2%28%E5%8D%97%E5%9F%8E%E5%BA%97%29&src=vetmap&coordinate=gaode&callnative=1"},{"name":"欧帝文宠物诊疗中心(东莞南城店)","address":"南城街道金丰路5号139室","phone":"13177561281","category":"医疗保健服务;动物医疗场所;宠物诊所","area":"南城","lng":113.726275,"lat":23.012459,"amap_id":"B0H1ZA6C99","order":26,"prev_distance_km":0.596,"cumulative_distance_km":35.193,"amap_marker_url":"https://uri.amap.com/marker?position=113.726275,23.012459&name=%E6%AC%A7%E5%B8%9D%E6%96%87%E5%AE%A0%E7%89%A9%E8%AF%8A%E7%96%97%E4%B8%AD%E5%BF%83%28%E4%B8%9C%E8%8E%9E%E5%8D%97%E5%9F%8E%E5%BA%97%29&src=vetmap&coordinate=gaode&callnative=1"},{"name":"开心宠物医院(南城分院)","address":"宏远路12号","phone":"0769-22886262","category":"医疗保健服务;动物医疗场所;宠物诊所","area":"南城","lng":113.73429,"lat":23.010707,"amap_id":"B0FFIPW789","order":27,"prev_distance_km":0.843,"cumulative_distance_km":36.036,"amap_marker_url":"https://uri.amap.com/marker?position=113.734290,23.010707&name=%E5%BC%80%E5%BF%83%E5%AE%A0%E7%89%A9%E5%8C%BB%E9%99%A2%28%E5%8D%97%E5%9F%8E%E5%88%86%E9%99%A2%29&src=vetmap&coordinate=gaode&callnative=1"},{"name":"瑞派宠物医院(开心南城院)","address":"东城街道南城街道南城街道宏远社区宏远工业区2栋A19号","phone":"13356499513","category":"医疗保健服务;动物医疗场所;宠物诊所","area":"南城","lng":113.734287,"lat":23.010645,"amap_id":"B0FFMCDINJ","order":28,"prev_distance_km":0.007,"cumulative_distance_km":36.043,"amap_marker_url":"https://uri.amap.com/marker?position=113.734287,23.010645&name=%E7%91%9E%E6%B4%BE%E5%AE%A0%E7%89%A9%E5%8C%BB%E9%99%A2%28%E5%BC%80%E5%BF%83%E5%8D%97%E5%9F%8E%E9%99%A2%29&src=vetmap&coordinate=gaode&callnative=1"},{"name":"野玛动物医院(宏远总院)","address":"东城街道南城街道新基社区城市假日一期A05号","phone":"17322155686;18825843191","category":"医疗保健服务;动物医疗场所;宠物诊所","area":"南城","lng":113.735231,"lat":23.006116,"amap_id":"B0FFIZE0WF","order":29,"prev_distance_km":0.513,"cumulative_distance_km":36.556,"amap_marker_url":"https://uri.amap.com/marker?position=113.735231,23.006116&name=%E9%87%8E%E7%8E%9B%E5%8A%A8%E7%89%A9%E5%8C%BB%E9%99%A2%28%E5%AE%8F%E8%BF%9C%E6%80%BB%E9%99%A2%29&src=vetmap&coordinate=gaode&callnative=1"},{"name":"宠颐生酷赛宠物医院(东莞宏远分院)","address":"南城街道南莞太路鸿福路口三元里社区工贸大楼9-10号铺","phone":"0769-23220070","category":"医疗保健服务;动物医疗场所;宠物诊所","area":"南城","lng":113.739423,"lat":23.011267,"amap_id":"B0FFGOONB1","order":30,"prev_distance_km":0.716,"cumulative_distance_km":37.272,"amap_marker_url":"https://uri.amap.com/marker?position=113.739423,23.011267&name=%E5%AE%A0%E9%A2%90%E7%94%9F%E9%85%B7%E8%B5%9B%E5%AE%A0%E7%89%A9%E5%8C%BB%E9%99%A2%28%E4%B8%9C%E8%8E%9E%E5%AE%8F%E8%BF%9C%E5%88%86%E9%99%A2%29&src=vetmap&coordinate=gaode&callnative=1"},{"name":"瑞鹏宠物医院(鸿福分院)","address":"鸿福西路48号","phone":"0769-22888681","category":"医疗保健服务;动物医疗场所;宠物诊所","area":"南城","lng":113.739223,"lat":23.016703,"amap_id":"B0FFIFRD76","order":31,"prev_distance_km":0.605,"cumulative_distance_km":37.876,"amap_marker_url":"https://uri.amap.com/marker?position=113.739223,23.016703&name=%E7%91%9E%E9%B9%8F%E5%AE%A0%E7%89%A9%E5%8C%BB%E9%99%A2%28%E9%B8%BF%E7%A6%8F%E5%88%86%E9%99%A2%29&src=vetmap&coordinate=gaode&callnative=1"},{"name":"康宠动物医院·夜诊·犬猫专科(南城店)","address":"东城街道南城街道鸿福西路阳光大厦79号116室","phone":"15917697763","category":"医疗保健服务;动物医疗场所;宠物诊所","area":"南城","lng":113.739407,"lat":23.017575,"amap_id":"B0KRYUN3AT","order":32,"prev_distance_km":0.099,"cumulative_distance_km":37.975,"amap_marker_url":"https://uri.amap.com/marker?position=113.739407,23.017575&name=%E5%BA%B7%E5%AE%A0%E5%8A%A8%E7%89%A9%E5%8C%BB%E9%99%A2%C2%B7%E5%A4%9C%E8%AF%8A%C2%B7%E7%8A%AC%E7%8C%AB%E4%B8%93%E7%A7%91%28%E5%8D%97%E5%9F%8E%E5%BA%97%29&src=vetmap&coordinate=gaode&callnative=1"},{"name":"瑞派宠物医院(东莞南城联萌院)","address":"鸿福西路东园大厦70段103室","phone":"13360651070","category":"医疗保健服务;动物医疗场所;宠物诊所","area":"南城","lng":113.737032,"lat":23.01709,"amap_id":"B0JR75JR0H","order":33,"prev_distance_km":0.249,"cumulative_distance_km":38.224,"amap_marker_url":"https://uri.amap.com/marker?position=113.737032,23.017090&name=%E7%91%9E%E6%B4%BE%E5%AE%A0%E7%89%A9%E5%8C%BB%E9%99%A2%28%E4%B8%9C%E8%8E%9E%E5%8D%97%E5%9F%8E%E8%81%94%E8%90%8C%E9%99%A2%29&src=vetmap&coordinate=gaode&callnative=1"},{"name":"联萌动物医院夜诊·猫全科中心","address":"天诚国际西北门旁","phone":"","category":"医疗保健服务;动物医疗场所;宠物诊所","area":"南城","lng":113.737016,"lat":23.017078,"amap_id":"B0JG4S9E9W","order":34,"prev_distance_km":0.002,"cumulative_distance_km":38.226,"amap_marker_url":"https://uri.amap.com/marker?position=113.737016,23.017078&name=%E8%81%94%E8%90%8C%E5%8A%A8%E7%89%A9%E5%8C%BB%E9%99%A2%E5%A4%9C%E8%AF%8A%C2%B7%E7%8C%AB%E5%85%A8%E7%A7%91%E4%B8%AD%E5%BF%83&src=vetmap&coordinate=gaode&callnative=1"},{"name":"东莞市南城区畜牧兽医站","address":"莞太路49号","phone":"","category":"医疗保健服务;动物医疗场所;兽医站","area":"南城","lng":113.744629,"lat":23.019729,"amap_id":"B0301042R4","order":35,"prev_distance_km":0.833,"cumulative_distance_km":39.059,"amap_marker_url":"https://uri.amap.com/marker?position=113.744629,23.019729&name=%E4%B8%9C%E8%8E%9E%E5%B8%82%E5%8D%97%E5%9F%8E%E5%8C%BA%E7%95%9C%E7%89%A7%E5%85%BD%E5%8C%BB%E7%AB%99&src=vetmap&coordinate=gaode&callnative=1"},{"name":"东莞市爱派宠物医院(中兴大厦店)","address":"东莞市红山西路与莞太路交叉口北100米","phone":"13649875779","category":"医疗保健服务;动物医疗场所;宠物诊所","area":"南城","lng":113.745701,"lat":23.028172,"amap_id":"B0FFK68IZ0","order":36,"prev_distance_km":0.945,"cumulative_distance_km":40.005,"amap_marker_url":"https://uri.amap.com/marker?position=113.745701,23.028172&name=%E4%B8%9C%E8%8E%9E%E5%B8%82%E7%88%B1%E6%B4%BE%E5%AE%A0%E7%89%A9%E5%8C%BB%E9%99%A2%28%E4%B8%AD%E5%85%B4%E5%A4%A7%E5%8E%A6%E5%BA%97%29&src=vetmap&coordinate=gaode&callnative=1"},{"name":"帕维德动物医院(东莞总院)","address":"南城街道莞城街道运河东三路莞城段80号8号楼111室","phone":"13694971434","category":"医疗保健服务;动物医疗场所;宠物诊所","area":"南城","lng":113.739225,"lat":23.030725,"amap_id":"B0J265N0IM","order":37,"prev_distance_km":0.721,"cumulative_distance_km":40.725,"amap_marker_url":"https://uri.amap.com/marker?position=113.739225,23.030725&name=%E5%B8%95%E7%BB%B4%E5%BE%B7%E5%8A%A8%E7%89%A9%E5%8C%BB%E9%99%A2%28%E4%B8%9C%E8%8E%9E%E6%80%BB%E9%99%A2%29&src=vetmap&coordinate=gaode&callnative=1"},{"name":"这是一家动物诊疗中心","address":"运河东三路恒大华府商铺4栋128号","phone":"13128059255","category":"医疗保健服务;动物医疗场所;宠物诊所","area":"南城","lng":113.746599,"lat":23.039477,"amap_id":"B0HBOAL1Z1","order":38,"prev_distance_km":1.231,"cumulative_distance_km":41.957,"amap_marker_url":"https://uri.amap.com/marker?position=113.746599,23.039477&name=%E8%BF%99%E6%98%AF%E4%B8%80%E5%AE%B6%E5%8A%A8%E7%89%A9%E8%AF%8A%E7%96%97%E4%B8%AD%E5%BF%83&src=vetmap&coordinate=gaode&callnative=1"},{"name":"东莞市大嘉福宠物会所","address":"莞城街道澳南路九巷7号101室","phone":"18922900037","category":"医疗保健服务;动物医疗场所;动物医疗场所","area":"南城","lng":113.758825,"lat":23.032175,"amap_id":"B0JKSUUXE0","order":39,"prev_distance_km":1.491,"cumulative_distance_km":43.448,"amap_marker_url":"https://uri.amap.com/marker?position=113.758825,23.032175&name=%E4%B8%9C%E8%8E%9E%E5%B8%82%E5%A4%A7%E5%98%89%E7%A6%8F%E5%AE%A0%E7%89%A9%E4%BC%9A%E6%89%80&src=vetmap&coordinate=gaode&callnative=1"},{"name":"优艾佳动物诊所(莞城店)","address":"莞城街道东城大道123号聚福豪苑二期52铺","phone":"0769-22318606;18928204536","category":"医疗保健服务;动物医疗场所;宠物诊所","area":"东城西路","lng":113.765518,"lat":23.032226,"amap_id":"B0FFIAT11C","order":40,"prev_distance_km":0.685,"cumulative_distance_km":44.133,"amap_marker_url":"https://uri.amap.com/marker?position=113.765518,23.032226&name=%E4%BC%98%E8%89%BE%E4%BD%B3%E5%8A%A8%E7%89%A9%E8%AF%8A%E6%89%80%28%E8%8E%9E%E5%9F%8E%E5%BA%97%29&src=vetmap&coordinate=gaode&callnative=1"},{"name":"嘉嘉宠物","address":"莞城街道愉景新时代广场1栋106","phone":"17620073937","category":"医疗保健服务;动物医疗场所;宠物诊所","area":"旗峰广场","lng":113.769857,"lat":23.032177,"amap_id":"B0L67HOO7P","order":41,"prev_distance_km":0.444,"cumulative_distance_km":44.577,"amap_marker_url":"https://uri.amap.com/marker?position=113.769857,23.032177&name=%E5%98%89%E5%98%89%E5%AE%A0%E7%89%A9&src=vetmap&coordinate=gaode&callnative=1"},{"name":"安可动物医院·24小时急诊(东莞总院)","address":"东城街道东城路段4号105室","phone":"13377715851","category":"医疗保健服务;动物医疗场所;宠物诊所","area":"旗峰广场","lng":113.771668,"lat":23.03121,"amap_id":"B0FFKJIN3K","order":42,"prev_distance_km":0.214,"cumulative_distance_km":44.792,"amap_marker_url":"https://uri.amap.com/marker?position=113.771668,23.031210&name=%E5%AE%89%E5%8F%AF%E5%8A%A8%E7%89%A9%E5%8C%BB%E9%99%A2%C2%B724%E5%B0%8F%E6%97%B6%E6%80%A5%E8%AF%8A%28%E4%B8%9C%E8%8E%9E%E6%80%BB%E9%99%A2%29&src=vetmap&coordinate=gaode&callnative=1"},{"name":"瑞吉宠物医院24小时转诊中心医院","address":"东城街道东城中心还翠庭商铺东城路东城段284号1073室","phone":"18934139199","category":"医疗保健服务;动物医疗场所;宠物诊所","area":"","lng":113.774413,"lat":23.028203,"amap_id":"B0M66SA1GC","order":43,"prev_distance_km":0.437,"cumulative_distance_km":45.228,"amap_marker_url":"https://uri.amap.com/marker?position=113.774413,23.028203&name=%E7%91%9E%E5%90%89%E5%AE%A0%E7%89%A9%E5%8C%BB%E9%99%A224%E5%B0%8F%E6%97%B6%E8%BD%AC%E8%AF%8A%E4%B8%AD%E5%BF%83%E5%8C%BB%E9%99%A2&src=vetmap&coordinate=gaode&callnative=1"},{"name":"台湾福懋动物诊所(东城店)","address":"东城街道东城路东城中心A2区商城C2号商铺","phone":"0769-22880102","category":"医疗保健服务;动物医疗场所;宠物诊所","area":"金月湾","lng":113.77895,"lat":23.029346,"amap_id":"B0FFIQTHRU","order":44,"prev_distance_km":0.481,"cumulative_distance_km":45.71,"amap_marker_url":"https://uri.amap.com/marker?position=113.778950,23.029346&name=%E5%8F%B0%E6%B9%BE%E7%A6%8F%E6%87%8B%E5%8A%A8%E7%89%A9%E8%AF%8A%E6%89%80%28%E4%B8%9C%E5%9F%8E%E5%BA%97%29&src=vetmap&coordinate=gaode&callnative=1"},{"name":"瑞派宠物医院(东莞金月湾院)","address":"东城街道岗贝社区东城大道金月湾花园A21-22号商铺","phone":"18122904946","category":"医疗保健服务;动物医疗场所;宠物诊所","area":"东城西路","lng":113.779485,"lat":23.029742,"amap_id":"B0FFJBC76D","order":45,"prev_distance_km":0.07,"cumulative_distance_km":45.78,"amap_marker_url":"https://uri.amap.com/marker?position=113.779485,23.029742&name=%E7%91%9E%E6%B4%BE%E5%AE%A0%E7%89%A9%E5%8C%BB%E9%99%A2%28%E4%B8%9C%E8%8E%9E%E9%87%91%E6%9C%88%E6%B9%BE%E9%99%A2%29&src=vetmap&coordinate=gaode&callnative=1"},{"name":"瑞鹏宠物医院(东城中心分院)","address":"瑞鹏宠物医院东城中心","phone":"0769-26623566","category":"医疗保健服务;动物医疗场所;宠物诊所","area":"金月湾","lng":113.779578,"lat":23.028972,"amap_id":"B0FFI2PR5A","order":46,"prev_distance_km":0.086,"cumulative_distance_km":45.866,"amap_marker_url":"https://uri.amap.com/marker?position=113.779578,23.028972&name=%E7%91%9E%E9%B9%8F%E5%AE%A0%E7%89%A9%E5%8C%BB%E9%99%A2%28%E4%B8%9C%E5%9F%8E%E4%B8%AD%E5%BF%83%E5%88%86%E9%99%A2%29&src=vetmap&coordinate=gaode&callnative=1"},{"name":"汪达动物医院(东城总院)","address":"东城街道东纵路东城段208号东城万达广场金街2栋016-017室","phone":"13559743865","category":"医疗保健服务;动物医疗场所;宠物诊所","area":"东城西路","lng":113.779712,"lat":23.034318,"amap_id":"B0FFKYJVNJ","order":47,"prev_distance_km":0.595,"cumulative_distance_km":46.461,"amap_marker_url":"https://uri.amap.com/marker?position=113.779712,23.034318&name=%E6%B1%AA%E8%BE%BE%E5%8A%A8%E7%89%A9%E5%8C%BB%E9%99%A2%28%E4%B8%9C%E5%9F%8E%E6%80%BB%E9%99%A2%29&src=vetmap&coordinate=gaode&callnative=1"},{"name":"贝斯特宠物诊疗中心","address":"东纵路金明楼一楼2号铺","phone":"18680678252","category":"医疗保健服务;动物医疗场所;宠物诊所","area":"主山","lng":113.779073,"lat":23.037101,"amap_id":"B0LBTY1QOH","order":48,"prev_distance_km":0.316,"cumulative_distance_km":46.777,"amap_marker_url":"https://uri.amap.com/marker?position=113.779073,23.037101&name=%E8%B4%9D%E6%96%AF%E7%89%B9%E5%AE%A0%E7%89%A9%E8%AF%8A%E7%96%97%E4%B8%AD%E5%BF%83&src=vetmap&coordinate=gaode&callnative=1"},{"name":"乐贝宠物诊疗","address":"莞城街道东城中路恒泰大厦1单元104商铺乐贝宠物诊疗","phone":"13711920316","category":"医疗保健服务;动物医疗场所;宠物诊所","area":"","lng":113.778115,"lat":23.043464,"amap_id":"B0JAVMXJRT","order":49,"prev_distance_km":0.714,"cumulative_distance_km":47.491,"amap_marker_url":"https://uri.amap.com/marker?position=113.778115,23.043464&name=%E4%B9%90%E8%B4%9D%E5%AE%A0%E7%89%A9%E8%AF%8A%E7%96%97&src=vetmap&coordinate=gaode&callnative=1"},{"name":"芭斯特宠物会所","address":"格兰名筑东1门旁","phone":"18675586674","category":"医疗保健服务;动物医疗场所;宠物诊所","area":"东宝路","lng":113.781723,"lat":23.044178,"amap_id":"B0HBBZ2R8O","order":50,"prev_distance_km":0.378,"cumulative_distance_km":47.869,"amap_marker_url":"https://uri.amap.com/marker?position=113.781723,23.044178&name=%E8%8A%AD%E6%96%AF%E7%89%B9%E5%AE%A0%E7%89%A9%E4%BC%9A%E6%89%80&src=vetmap&coordinate=gaode&callnative=1"},{"name":"零启宠物医院(东城天宝院)","address":"东城中路580号107室(天宝地铁站D口旁)","phone":"13423282418;18824233352","category":"医疗保健服务;动物医疗场所;宠物诊所","area":"","lng":113.779159,"lat":23.048097,"amap_id":"B0KUP5ELHT","order":51,"prev_distance_km":0.509,"cumulative_distance_km":48.378,"amap_marker_url":"https://uri.amap.com/marker?position=113.779159,23.048097&name=%E9%9B%B6%E5%90%AF%E5%AE%A0%E7%89%A9%E5%8C%BB%E9%99%A2%28%E4%B8%9C%E5%9F%8E%E5%A4%A9%E5%AE%9D%E9%99%A2%29&src=vetmap&coordinate=gaode&callnative=1"},{"name":"相辉动物医院","address":"东城街道莞温路481号101室","phone":"13652566077","category":"医疗保健服务;动物医疗场所;宠物诊所","area":"主山","lng":113.790743,"lat":23.042618,"amap_id":"B0H2XUFPQP","order":52,"prev_distance_km":1.333,"cumulative_distance_km":49.71,"amap_marker_url":"https://uri.amap.com/marker?position=113.790743,23.042618&name=%E7%9B%B8%E8%BE%89%E5%8A%A8%E7%89%A9%E5%8C%BB%E9%99%A2&src=vetmap&coordinate=gaode&callnative=1"},{"name":"东莞宠物繁育中心","address":"未来之星幼儿园北门旁","phone":"","category":"医疗保健服务;动物医疗场所;宠物诊所","area":"主山","lng":113.796001,"lat":23.038731,"amap_id":"B0JD51EKQ3","order":53,"prev_distance_km":0.69,"cumulative_distance_km":50.4,"amap_marker_url":"https://uri.amap.com/marker?position=113.796001,23.038731&name=%E4%B8%9C%E8%8E%9E%E5%AE%A0%E7%89%A9%E7%B9%81%E8%82%B2%E4%B8%AD%E5%BF%83&src=vetmap&coordinate=gaode&callnative=1"},{"name":"福懋动物医院(华景分院)","address":"东城街道学前新街华景大厦1号123","phone":"0769-26626202;18002823556","category":"医疗保健服务;动物医疗场所;宠物诊所","area":"","lng":113.799925,"lat":23.034625,"amap_id":"B0LAXH1F7Q","order":54,"prev_distance_km":0.608,"cumulative_distance_km":51.008,"amap_marker_url":"https://uri.amap.com/marker?position=113.799925,23.034625&name=%E7%A6%8F%E6%87%8B%E5%8A%A8%E7%89%A9%E5%8C%BB%E9%99%A2%28%E5%8D%8E%E6%99%AF%E5%88%86%E9%99%A2%29&src=vetmap&coordinate=gaode&callnative=1"},{"name":"乐尚宠物诊疗(星城店)","address":"东城街道学星路新世纪星城43栋171铺","phone":"18676921317","category":"医疗保健服务;动物医疗场所;宠物诊所","area":"","lng":113.802905,"lat":23.039043,"amap_id":"B0FFGYZSOL","order":55,"prev_distance_km":0.578,"cumulative_distance_km":51.587,"amap_marker_url":"https://uri.amap.com/marker?position=113.802905,23.039043&name=%E4%B9%90%E5%B0%9A%E5%AE%A0%E7%89%A9%E8%AF%8A%E7%96%97%28%E6%98%9F%E5%9F%8E%E5%BA%97%29&src=vetmap&coordinate=gaode&callnative=1"},{"name":"宠医德动物医院","address":"东城温塘莞温路370号104室","phone":"13424847973","category":"医疗保健服务;动物医疗场所;宠物诊所","area":"","lng":113.801925,"lat":23.042256,"amap_id":"B0K11ZGU5E","order":56,"prev_distance_km":0.371,"cumulative_distance_km":51.958,"amap_marker_url":"https://uri.amap.com/marker?position=113.801925,23.042256&name=%E5%AE%A0%E5%8C%BB%E5%BE%B7%E5%8A%A8%E7%89%A9%E5%8C%BB%E9%99%A2&src=vetmap&coordinate=gaode&callnative=1"},{"name":"爱康动物诊所(大塘头东兴街)","address":"主山大圹头东兴街78号","phone":"13480069588","category":"医疗保健服务;动物医疗场所;宠物诊所","area":"","lng":113.792125,"lat":23.052909,"amap_id":"B0FFG1W5H4","order":57,"prev_distance_km":1.552,"cumulative_distance_km":53.51,"amap_marker_url":"https://uri.amap.com/marker?position=113.792125,23.052909&name=%E7%88%B1%E5%BA%B7%E5%8A%A8%E7%89%A9%E8%AF%8A%E6%89%80%28%E5%A4%A7%E5%A1%98%E5%A4%B4%E4%B8%9C%E5%85%B4%E8%A1%97%29&src=vetmap&coordinate=gaode&callnative=1"},{"name":"贝尔宠物医院·24小时急诊","address":"东城街道环城东路东城段1号1013室","phone":"13532767946","category":"医疗保健服务;动物医疗场所;宠物诊所","area":"","lng":113.795427,"lat":23.058681,"amap_id":"B0IDUU23SZ","order":58,"prev_distance_km":0.725,"cumulative_distance_km":54.235,"amap_marker_url":"https://uri.amap.com/marker?position=113.795427,23.058681&name=%E8%B4%9D%E5%B0%94%E5%AE%A0%E7%89%A9%E5%8C%BB%E9%99%A2%C2%B724%E5%B0%8F%E6%97%B6%E6%80%A5%E8%AF%8A&src=vetmap&coordinate=gaode&callnative=1"},{"name":"BECKY·零启宠物医院(石碣店)","address":"石碣镇北王路2号1号楼113号","phone":"15019075276","category":"医疗保健服务;动物医疗场所;宠物诊所","area":"","lng":113.770986,"lat":23.075891,"amap_id":"B0KURD1JXJ","order":59,"prev_distance_km":3.149,"cumulative_distance_km":57.384,"amap_marker_url":"https://uri.amap.com/marker?position=113.770986,23.075891&name=BECKY%C2%B7%E9%9B%B6%E5%90%AF%E5%AE%A0%E7%89%A9%E5%8C%BB%E9%99%A2%28%E7%9F%B3%E7%A2%A3%E5%BA%97%29&src=vetmap&coordinate=gaode&callnative=1"},{"name":"麦萌动物诊疗中心·24小时急诊(王洲店)","address":"石碣镇石碣裕田路1号之一173室","phone":"17503063528","category":"医疗保健服务;动物医疗场所;宠物诊所","area":"","lng":113.767312,"lat":23.0798,"amap_id":"B0FFKQNQQR","order":60,"prev_distance_km":0.575,"cumulative_distance_km":57.958,"amap_marker_url":"https://uri.amap.com/marker?position=113.767312,23.079800&name=%E9%BA%A6%E8%90%8C%E5%8A%A8%E7%89%A9%E8%AF%8A%E7%96%97%E4%B8%AD%E5%BF%83%C2%B724%E5%B0%8F%E6%97%B6%E6%80%A5%E8%AF%8A%28%E7%8E%8B%E6%B4%B2%E5%BA%97%29&src=vetmap&coordinate=gaode&callnative=1"},{"name":"康恒宠物诊所","address":"高埗镇高龙中路67号","phone":"18128000286","category":"医疗保健服务;动物医疗场所;宠物诊所","area":"","lng":113.751488,"lat":23.094421,"amap_id":"B0FFL5NESO","order":61,"prev_distance_km":2.294,"cumulative_distance_km":60.252,"amap_marker_url":"https://uri.amap.com/marker?position=113.751488,23.094421&name=%E5%BA%B7%E6%81%92%E5%AE%A0%E7%89%A9%E8%AF%8A%E6%89%80&src=vetmap&coordinate=gaode&callnative=1"},{"name":"东莞市高埗镇畜牧兽医站","address":"中心中路与莞潢中路交叉口西500米","phone":"","category":"医疗保健服务;动物医疗场所;兽医站","area":"","lng":113.735634,"lat":23.099667,"amap_id":"B0K2S53C3D","order":62,"prev_distance_km":1.723,"cumulative_distance_km":61.976,"amap_marker_url":"https://uri.amap.com/marker?position=113.735634,23.099667&name=%E4%B8%9C%E8%8E%9E%E5%B8%82%E9%AB%98%E5%9F%97%E9%95%87%E7%95%9C%E7%89%A7%E5%85%BD%E5%8C%BB%E7%AB%99&src=vetmap&coordinate=gaode&callnative=1"},{"name":"瑞祥宠物医院(高埗店)","address":"东城街道高埗镇高埗大道162号101室","phone":"0769-81309263;13712011595","category":"医疗保健服务;动物医疗场所;宠物诊所","area":"","lng":113.728729,"lat":23.080165,"amap_id":"B0HK0RMKHV","order":63,"prev_distance_km":2.281,"cumulative_distance_km":64.256,"amap_marker_url":"https://uri.amap.com/marker?position=113.728729,23.080165&name=%E7%91%9E%E7%A5%A5%E5%AE%A0%E7%89%A9%E5%8C%BB%E9%99%A2%28%E9%AB%98%E5%9F%97%E5%BA%97%29&src=vetmap&coordinate=gaode&callnative=1"},{"name":"维妮宠物诊所","address":"高埗镇振兴东四横路17号长腾商业大楼","phone":"18922960224","category":"医疗保健服务;动物医疗场所;宠物诊所","area":"","lng":113.725342,"lat":23.074471,"amap_id":"B0HRL52KPR","order":64,"prev_distance_km":0.722,"cumulative_distance_km":64.978,"amap_marker_url":"https://uri.amap.com/marker?position=113.725342,23.074471&name=%E7%BB%B4%E5%A6%AE%E5%AE%A0%E7%89%A9%E8%AF%8A%E6%89%80&src=vetmap&coordinate=gaode&callnative=1"},{"name":"康联动物医院(华宇大厦店)","address":"万江街道莞穗路华宇大厦首层一号铺","phone":"15016900202","category":"医疗保健服务;动物医疗场所;宠物诊所","area":"","lng":113.731707,"lat":23.049798,"amap_id":"B0FFJHC6B1","order":65,"prev_distance_km":2.82,"cumulative_distance_km":67.798,"amap_marker_url":"https://uri.amap.com/marker?position=113.731707,23.049798&name=%E5%BA%B7%E8%81%94%E5%8A%A8%E7%89%A9%E5%8C%BB%E9%99%A2%28%E5%8D%8E%E5%AE%87%E5%A4%A7%E5%8E%A6%E5%BA%97%29&src=vetmap&coordinate=gaode&callnative=1"},{"name":"爱宠动物诊疗中心","address":"万江街道莞穗路万江段22号103-104室","phone":"13929202418","category":"医疗保健服务;动物医疗场所;宠物诊所","area":"","lng":113.733798,"lat":23.047694,"amap_id":"B0JAT7U9BU","order":66,"prev_distance_km":0.317,"cumulative_distance_km":68.115,"amap_marker_url":"https://uri.amap.com/marker?position=113.733798,23.047694&name=%E7%88%B1%E5%AE%A0%E5%8A%A8%E7%89%A9%E8%AF%8A%E7%96%97%E4%B8%AD%E5%BF%83&src=vetmap&coordinate=gaode&callnative=1"},{"name":"瑞鹏宠物医院(新河北分院)","address":"东城街道新河北路54号","phone":"0769-22112761","category":"医疗保健服务;动物医疗场所;宠物诊所","area":"运河路","lng":113.755625,"lat":23.050475,"amap_id":"B0FFHYX8WG","order":67,"prev_distance_km":2.255,"cumulative_distance_km":70.37,"amap_marker_url":"https://uri.amap.com/marker?position=113.755625,23.050475&name=%E7%91%9E%E9%B9%8F%E5%AE%A0%E7%89%A9%E5%8C%BB%E9%99%A2%28%E6%96%B0%E6%B2%B3%E5%8C%97%E5%88%86%E9%99%A2%29&src=vetmap&coordinate=gaode&callnative=1"},{"name":"心诚宠物诊所(莞城店)","address":"莞城街道东正新河北路39号","phone":"15812864392","category":"医疗保健服务;动物医疗场所;宠物诊所","area":"运河路","lng":113.756634,"lat":23.049479,"amap_id":"B03018QO8H","order":68,"prev_distance_km":0.151,"cumulative_distance_km":70.521,"amap_marker_url":"https://uri.amap.com/marker?position=113.756634,23.049479&name=%E5%BF%83%E8%AF%9A%E5%AE%A0%E7%89%A9%E8%AF%8A%E6%89%80%28%E8%8E%9E%E5%9F%8E%E5%BA%97%29&src=vetmap&coordinate=gaode&callnative=1"},{"name":"辛宠安宠物医院·瘫痪康复·犬猫专科·骨科中心","address":"新河北路","phone":"13723585445","category":"医疗保健服务;动物医疗场所;宠物诊所","area":"","lng":113.757644,"lat":23.049546,"amap_id":"B0K35UC3FP","order":69,"prev_distance_km":0.104,"cumulative_distance_km":70.625,"amap_marker_url":"https://uri.amap.com/marker?position=113.757644,23.049546&name=%E8%BE%9B%E5%AE%A0%E5%AE%89%E5%AE%A0%E7%89%A9%E5%8C%BB%E9%99%A2%C2%B7%E7%98%AB%E7%97%AA%E5%BA%B7%E5%A4%8D%C2%B7%E7%8A%AC%E7%8C%AB%E4%B8%93%E7%A7%91%C2%B7%E9%AA%A8%E7%A7%91%E4%B8%AD%E5%BF%83&src=vetmap&coordinate=gaode&callnative=1"},{"name":"爱宝宠物医院","address":"新楼一街1号101","phone":"0769-22688225;13532880166","category":"医疗保健服务;动物医疗场所;宠物诊所","area":"运河路","lng":113.757625,"lat":23.051483,"amap_id":"B030101O2M","order":70,"prev_distance_km":0.215,"cumulative_distance_km":70.84,"amap_marker_url":"https://uri.amap.com/marker?position=113.757625,23.051483&name=%E7%88%B1%E5%AE%9D%E5%AE%A0%E7%89%A9%E5%8C%BB%E9%99%A2&src=vetmap&coordinate=gaode&callnative=1"},{"name":"修远动物诊疗中心(新世纪河畔蓝调国际店)","address":"东城街道运河东一路东城段48号河畔广场4栋102室","phone":"","category":"医疗保健服务;动物医疗场所;宠物诊所","area":"运河路","lng":113.757165,"lat":23.054453,"amap_id":"B0IGFAQC29","order":71,"prev_distance_km":0.334,"cumulative_distance_km":71.174,"amap_marker_url":"https://uri.amap.com/marker?position=113.757165,23.054453&name=%E4%BF%AE%E8%BF%9C%E5%8A%A8%E7%89%A9%E8%AF%8A%E7%96%97%E4%B8%AD%E5%BF%83%28%E6%96%B0%E4%B8%96%E7%BA%AA%E6%B2%B3%E7%95%94%E8%93%9D%E8%B0%83%E5%9B%BD%E9%99%85%E5%BA%97%29&src=vetmap&coordinate=gaode&callnative=1"},{"name":"邓惠群动物医院","address":"堑头堑兴路横街7号","phone":"13669837992;13712652673","category":"医疗保健服务;动物医疗场所;宠物诊所","area":"","lng":113.762203,"lat":23.052335,"amap_id":"B03017WKAX","order":72,"prev_distance_km":0.567,"cumulative_distance_km":71.74,"amap_marker_url":"https://uri.amap.com/marker?position=113.762203,23.052335&name=%E9%82%93%E6%83%A0%E7%BE%A4%E5%8A%A8%E7%89%A9%E5%8C%BB%E9%99%A2&src=vetmap&coordinate=gaode&callnative=1"},{"name":"瑞派东莞中心宠物医院·24小时转诊·异宠","address":"新风路横街3号","phone":"13925502775","category":"医疗保健服务;动物医疗场所;宠物诊所","area":"","lng":113.760143,"lat":23.048578,"amap_id":"B0FFJ278V0","order":73,"prev_distance_km":0.468,"cumulative_distance_km":72.208,"amap_marker_url":"https://uri.amap.com/marker?position=113.760143,23.048578&name=%E7%91%9E%E6%B4%BE%E4%B8%9C%E8%8E%9E%E4%B8%AD%E5%BF%83%E5%AE%A0%E7%89%A9%E5%8C%BB%E9%99%A2%C2%B724%E5%B0%8F%E6%97%B6%E8%BD%AC%E8%AF%8A%C2%B7%E5%BC%82%E5%AE%A0&src=vetmap&coordinate=gaode&callnative=1"},{"name":"联合宠物医院 (莞城分院)","address":"东城街道莞城街道旗峰路200号万科中心6栋2楼215底商","phone":"0769-22207876","category":"医疗保健服务;动物医疗场所;宠物诊所","area":"东城西路","lng":113.767165,"lat":23.025236,"amap_id":"B0H6SC1YUU","order":74,"prev_distance_km":2.693,"cumulative_distance_km":74.901,"amap_marker_url":"https://uri.amap.com/marker?position=113.767165,23.025236&name=%E8%81%94%E5%90%88%E5%AE%A0%E7%89%A9%E5%8C%BB%E9%99%A2%20%28%E8%8E%9E%E5%9F%8E%E5%88%86%E9%99%A2%29&src=vetmap&coordinate=gaode&callnative=1"},{"name":"健航宠物医院","address":"南城街道体育路36号111室","phone":"13377766051","category":"医疗保健服务;动物医疗场所;宠物诊所","area":"旗峰路","lng":113.75932,"lat":23.022169,"amap_id":"B0L6GZFIHM","order":75,"prev_distance_km":0.872,"cumulative_distance_km":75.774,"amap_marker_url":"https://uri.amap.com/marker?position=113.759320,23.022169&name=%E5%81%A5%E8%88%AA%E5%AE%A0%E7%89%A9%E5%8C%BB%E9%99%A2&src=vetmap&coordinate=gaode&callnative=1"},{"name":"东莞蔚莱宠物医院·猫专科·骨科中心","address":"体育路7号","phone":"0769-28057009;13377755278","category":"医疗保健服务;动物医疗场所;宠物诊所","area":"南城","lng":113.754922,"lat":23.022769,"amap_id":"B0HDA5XPQZ","order":76,"prev_distance_km":0.455,"cumulative_distance_km":76.229,"amap_marker_url":"https://uri.amap.com/marker?position=113.754922,23.022769&name=%E4%B8%9C%E8%8E%9E%E8%94%9A%E8%8E%B1%E5%AE%A0%E7%89%A9%E5%8C%BB%E9%99%A2%C2%B7%E7%8C%AB%E4%B8%93%E7%A7%91%C2%B7%E9%AA%A8%E7%A7%91%E4%B8%AD%E5%BF%83&src=vetmap&coordinate=gaode&callnative=1"},{"name":"汪达动物医院(南城总院)","address":"鸿福路108号中盛商务大厦114-115号商铺","phone":"15338382933","category":"医疗保健服务;动物医疗场所;宠物诊所","area":"南城","lng":113.756173,"lat":23.012348,"amap_id":"B0KRNHLOLC","order":77,"prev_distance_km":1.166,"cumulative_distance_km":77.394,"amap_marker_url":"https://uri.amap.com/marker?position=113.756173,23.012348&name=%E6%B1%AA%E8%BE%BE%E5%8A%A8%E7%89%A9%E5%8C%BB%E9%99%A2%28%E5%8D%97%E5%9F%8E%E6%80%BB%E9%99%A2%29&src=vetmap&coordinate=gaode&callnative=1"},{"name":"新世纪动物诊所","address":"金树路26号101室","phone":"13924344810","category":"医疗保健服务;动物医疗场所;宠物诊所","area":"旗峰路","lng":113.768404,"lat":23.010732,"amap_id":"B0HB2AW6SN","order":78,"prev_distance_km":1.265,"cumulative_distance_km":78.659,"amap_marker_url":"https://uri.amap.com/marker?position=113.768404,23.010732&name=%E6%96%B0%E4%B8%96%E7%BA%AA%E5%8A%A8%E7%89%A9%E8%AF%8A%E6%89%80&src=vetmap&coordinate=gaode&callnative=1"},{"name":"维塔动物医院","address":"东城街道立新新源路6号1004室","phone":"18028228269","category":"医疗保健服务;动物医疗场所;宠物诊所","area":"","lng":113.765899,"lat":23.003814,"amap_id":"B0L1YCF1IR","order":79,"prev_distance_km":0.811,"cumulative_distance_km":79.47,"amap_marker_url":"https://uri.amap.com/marker?position=113.765899,23.003814&name=%E7%BB%B4%E5%A1%94%E5%8A%A8%E7%89%A9%E5%8C%BB%E9%99%A2&src=vetmap&coordinate=gaode&callnative=1"},{"name":"乐琪宠物医院·急重症·神经外科·骨外科","address":"东城街道泰和商业街42号152室","phone":"13725812009","category":"医疗保健服务;动物医疗场所;宠物诊所","area":"","lng":113.762797,"lat":22.997385,"amap_id":"B0FFK0MN92","order":80,"prev_distance_km":0.782,"cumulative_distance_km":80.252,"amap_marker_url":"https://uri.amap.com/marker?position=113.762797,22.997385&name=%E4%B9%90%E7%90%AA%E5%AE%A0%E7%89%A9%E5%8C%BB%E9%99%A2%C2%B7%E6%80%A5%E9%87%8D%E7%97%87%C2%B7%E7%A5%9E%E7%BB%8F%E5%A4%96%E7%A7%91%C2%B7%E9%AA%A8%E5%A4%96%E7%A7%91&src=vetmap&coordinate=gaode&callnative=1"},{"name":"爱宠随到宠物药房(中信商业广场店)","address":"东城街道长泰路东城段470号中信商业广场3栋113室","phone":"18929163768","category":"医疗保健服务;动物医疗场所;动物医疗场所","area":"南城","lng":113.761745,"lat":22.997832,"amap_id":"B0LB4A2SO3","order":81,"prev_distance_km":0.119,"cumulative_distance_km":80.371,"amap_marker_url":"https://uri.amap.com/marker?position=113.761745,22.997832&name=%E7%88%B1%E5%AE%A0%E9%9A%8F%E5%88%B0%E5%AE%A0%E7%89%A9%E8%8D%AF%E6%88%BF%28%E4%B8%AD%E4%BF%A1%E5%95%86%E4%B8%9A%E5%B9%BF%E5%9C%BA%E5%BA%97%29&src=vetmap&coordinate=gaode&callnative=1"},{"name":"维特东莞中心动物医院·中兽医·CT·骨科·牙科·异宠","address":"东城街道汇贤阁1号-109(中信风云汇贤阁1层)","phone":"0769-22988486;15919970082","category":"医疗保健服务;动物医疗场所;宠物诊所","area":"南城","lng":113.758674,"lat":22.999045,"amap_id":"B0GRYHV3N2","order":82,"prev_distance_km":0.342,"cumulative_distance_km":80.713,"amap_marker_url":"https://uri.amap.com/marker?position=113.758674,22.999045&name=%E7%BB%B4%E7%89%B9%E4%B8%9C%E8%8E%9E%E4%B8%AD%E5%BF%83%E5%8A%A8%E7%89%A9%E5%8C%BB%E9%99%A2%C2%B7%E4%B8%AD%E5%85%BD%E5%8C%BB%C2%B7CT%C2%B7%E9%AA%A8%E7%A7%91%C2%B7%E7%89%99%E7%A7%91%C2%B7%E5%BC%82%E5%AE%A0&src=vetmap&coordinate=gaode&callnative=1"},{"name":"福懋动物医院(西平总院24小时急诊)","address":"宏伟二路景湖春晓50栋4号","phone":"0769-21666922;18126754388","category":"医疗保健服务;动物医疗场所;宠物诊所","area":"南城","lng":113.758036,"lat":22.99763,"amap_id":"B0FFM125UP","order":83,"prev_distance_km":0.17,"cumulative_distance_km":80.883,"amap_marker_url":"https://uri.amap.com/marker?position=113.758036,22.997630&name=%E7%A6%8F%E6%87%8B%E5%8A%A8%E7%89%A9%E5%8C%BB%E9%99%A2%28%E8%A5%BF%E5%B9%B3%E6%80%BB%E9%99%A224%E5%B0%8F%E6%97%B6%E6%80%A5%E8%AF%8A%29&src=vetmap&coordinate=gaode&callnative=1"},{"name":"卓越动物医院骨科牙科心超中心(景湖春晓店)","address":"宏伟二路景湖春晓49栋5号","phone":"0769-81877654;18122992317;18666943345","category":"医疗保健服务;动物医疗场所;宠物诊所","area":"南城","lng":113.757757,"lat":22.99732,"amap_id":"B0I1RAZ2KR","order":84,"prev_distance_km":0.045,"cumulative_distance_km":80.928,"amap_marker_url":"https://uri.amap.com/marker?position=113.757757,22.997320&name=%E5%8D%93%E8%B6%8A%E5%8A%A8%E7%89%A9%E5%8C%BB%E9%99%A2%E9%AA%A8%E7%A7%91%E7%89%99%E7%A7%91%E5%BF%83%E8%B6%85%E4%B8%AD%E5%BF%83%28%E6%99%AF%E6%B9%96%E6%98%A5%E6%99%93%E5%BA%97%29&src=vetmap&coordinate=gaode&callnative=1"},{"name":"领悦(东莞)动物医院","address":"东城街道长泰路东城段3号中信东泰花园富华苑2栋108室","phone":"0769-22119593;15322840057","category":"医疗保健服务;动物医疗场所;宠物诊所","area":"南城","lng":113.756277,"lat":22.999929,"amap_id":"B0JR5CS55X","order":85,"prev_distance_km":0.327,"cumulative_distance_km":81.255,"amap_marker_url":"https://uri.amap.com/marker?position=113.756277,22.999929&name=%E9%A2%86%E6%82%A6%28%E4%B8%9C%E8%8E%9E%29%E5%8A%A8%E7%89%A9%E5%8C%BB%E9%99%A2&src=vetmap&coordinate=gaode&callnative=1"},{"name":"合创本色","address":"宏伟路7号126室","phone":"13380178400","category":"医疗保健服务;动物医疗场所;宠物诊所","area":"南城","lng":113.75135,"lat":22.993427,"amap_id":"B0IKXSTGRE","order":86,"prev_distance_km":0.882,"cumulative_distance_km":82.137,"amap_marker_url":"https://uri.amap.com/marker?position=113.751350,22.993427&name=%E5%90%88%E5%88%9B%E6%9C%AC%E8%89%B2&src=vetmap&coordinate=gaode&callnative=1"},{"name":"精灵动物医院24h","address":"宏伟路与君熙路交叉口南120米","phone":"","category":"医疗保健服务;动物医疗场所;宠物诊所","area":"南城","lng":113.751425,"lat":22.993325,"amap_id":"B0L3VHIA32","order":87,"prev_distance_km":0.014,"cumulative_distance_km":82.15,"amap_marker_url":"https://uri.amap.com/marker?position=113.751425,22.993325&name=%E7%B2%BE%E7%81%B5%E5%8A%A8%E7%89%A9%E5%8C%BB%E9%99%A224h&src=vetmap&coordinate=gaode&callnative=1"},{"name":"蔚莱宠物医院(西平分院)","address":"宏伟路9号130室(西平地铁站F口步行450米)","phone":"","category":"医疗保健服务;动物医疗场所;宠物诊所","area":"南城","lng":113.750422,"lat":22.992163,"amap_id":"B0L2AR31W7","order":88,"prev_distance_km":0.165,"cumulative_distance_km":82.315,"amap_marker_url":"https://uri.amap.com/marker?position=113.750422,22.992163&name=%E8%94%9A%E8%8E%B1%E5%AE%A0%E7%89%A9%E5%8C%BB%E9%99%A2%28%E8%A5%BF%E5%B9%B3%E5%88%86%E9%99%A2%29&src=vetmap&coordinate=gaode&callnative=1"},{"name":"小伴侣宠物CT核磁影像转诊医院(东莞总院)","address":"三路与宏伟二路交叉口东80米","phone":"13316645509","category":"医疗保健服务;动物医疗场所;宠物诊所","area":"南城","lng":113.753125,"lat":22.990325,"amap_id":"B0LBZ9S385","order":89,"prev_distance_km":0.344,"cumulative_distance_km":82.659,"amap_marker_url":"https://uri.amap.com/marker?position=113.753125,22.990325&name=%E5%B0%8F%E4%BC%B4%E4%BE%A3%E5%AE%A0%E7%89%A9CT%E6%A0%B8%E7%A3%81%E5%BD%B1%E5%83%8F%E8%BD%AC%E8%AF%8A%E5%8C%BB%E9%99%A2%28%E4%B8%9C%E8%8E%9E%E6%80%BB%E9%99%A2%29&src=vetmap&coordinate=gaode&callnative=1"},{"name":"百宠堂(中熙·弥珍道店)","address":"南城街道西平弥珍道7栋104号","phone":"","category":"医疗保健服务;动物医疗场所;宠物诊所","area":"南城","lng":113.756122,"lat":22.991304,"amap_id":"B0FFHKEAQ3","order":90,"prev_distance_km":0.326,"cumulative_distance_km":82.985,"amap_marker_url":"https://uri.amap.com/marker?position=113.756122,22.991304&name=%E7%99%BE%E5%AE%A0%E5%A0%82%28%E4%B8%AD%E7%86%99%C2%B7%E5%BC%A5%E7%8F%8D%E9%81%93%E5%BA%97%29&src=vetmap&coordinate=gaode&callnative=1"},{"name":"健航宠物医院(西平店)","address":"东城街道东骏路与君熙路交叉口东南40米","phone":"","category":"医疗保健服务;动物医疗场所;宠物诊所","area":"南城","lng":113.757354,"lat":22.990513,"amap_id":"B0LKYC4BHJ","order":91,"prev_distance_km":0.154,"cumulative_distance_km":83.139,"amap_marker_url":"https://uri.amap.com/marker?position=113.757354,22.990513&name=%E5%81%A5%E8%88%AA%E5%AE%A0%E7%89%A9%E5%8C%BB%E9%99%A2%28%E8%A5%BF%E5%B9%B3%E5%BA%97%29&src=vetmap&coordinate=gaode&callnative=1"},{"name":"乐乐宠物","address":"上下手路与宏伟一路交叉口南100米","phone":"","category":"医疗保健服务;动物医疗场所;动物医疗场所|购物服务;专卖店;宠物用品店","area":"南城","lng":113.760125,"lat":22.990125,"amap_id":"B0LK5RTVJP","order":92,"prev_distance_km":0.287,"cumulative_distance_km":83.426,"amap_marker_url":"https://uri.amap.com/marker?position=113.760125,22.990125&name=%E4%B9%90%E4%B9%90%E5%AE%A0%E7%89%A9&src=vetmap&coordinate=gaode&callnative=1"},{"name":"野玛动物医院·犬猫全科·心脏科·骨科(西平分院)","address":"南城街道宏伟路33号中信凯旋公馆08号铺","phone":"0769-22403313;15816437263","category":"医疗保健服务;动物医疗场所;宠物诊所","area":"南城","lng":113.74703,"lat":22.98766,"amap_id":"B0LUT627O9","order":93,"prev_distance_km":1.368,"cumulative_distance_km":84.794,"amap_marker_url":"https://uri.amap.com/marker?position=113.747030,22.987660&name=%E9%87%8E%E7%8E%9B%E5%8A%A8%E7%89%A9%E5%8C%BB%E9%99%A2%C2%B7%E7%8A%AC%E7%8C%AB%E5%85%A8%E7%A7%91%C2%B7%E5%BF%83%E8%84%8F%E7%A7%91%C2%B7%E9%AA%A8%E7%A7%91%28%E8%A5%BF%E5%B9%B3%E5%88%86%E9%99%A2%29&src=vetmap&coordinate=gaode&callnative=1"},{"name":"宠颐生宠物医院 (西平分院)","address":"南城街道绿色路2号","phone":"0769-22000595","category":"医疗保健服务;动物医疗场所;宠物诊所","area":"南城","lng":113.745867,"lat":22.984112,"amap_id":"B03018J1WU","order":94,"prev_distance_km":0.412,"cumulative_distance_km":85.206,"amap_marker_url":"https://uri.amap.com/marker?position=113.745867,22.984112&name=%E5%AE%A0%E9%A2%90%E7%94%9F%E5%AE%A0%E7%89%A9%E5%8C%BB%E9%99%A2%20%28%E8%A5%BF%E5%B9%B3%E5%88%86%E9%99%A2%29&src=vetmap&coordinate=gaode&callnative=1"},{"name":"福懋动物医院(新兴大楼店)","address":"宏图路新兴大楼A102","phone":"0769-22988797","category":"医疗保健服务;动物医疗场所;宠物诊所","area":"南城","lng":113.739405,"lat":22.998818,"amap_id":"B0FFJXT2MO","order":95,"prev_distance_km":1.764,"cumulative_distance_km":86.97,"amap_marker_url":"https://uri.amap.com/marker?position=113.739405,22.998818&name=%E7%A6%8F%E6%87%8B%E5%8A%A8%E7%89%A9%E5%8C%BB%E9%99%A2%28%E6%96%B0%E5%85%B4%E5%A4%A7%E6%A5%BC%E5%BA%97%29&src=vetmap&coordinate=gaode&callnative=1"},{"name":"安然宠物医院","address":"宏图路与东启路交叉口东60米","phone":"17602098418","category":"医疗保健服务;动物医疗场所;宠物诊所","area":"南城","lng":113.740269,"lat":22.999708,"amap_id":"B0KKUHJQJJ","order":96,"prev_distance_km":0.133,"cumulative_distance_km":87.102,"amap_marker_url":"https://uri.amap.com/marker?position=113.740269,22.999708&name=%E5%AE%89%E7%84%B6%E5%AE%A0%E7%89%A9%E5%8C%BB%E9%99%A2&src=vetmap&coordinate=gaode&callnative=1"},{"name":"格林动物医疗中心(新基路店)","address":"南城街道新塘坊六巷109号之二","phone":"0769-86290578;13712935573","category":"医疗保健服务;动物医疗场所;宠物诊所","area":"南城","lng":113.727264,"lat":23.003377,"amap_id":"B0GR66VVW5","order":97,"prev_distance_km":1.392,"cumulative_distance_km":88.495,"amap_marker_url":"https://uri.amap.com/marker?position=113.727264,23.003377&name=%E6%A0%BC%E6%9E%97%E5%8A%A8%E7%89%A9%E5%8C%BB%E7%96%97%E4%B8%AD%E5%BF%83%28%E6%96%B0%E5%9F%BA%E8%B7%AF%E5%BA%97%29&src=vetmap&coordinate=gaode&callnative=1"},{"name":"宠爱仙缘 宠物善终服务","address":"南城街道莞太路南城段275号阳光天地商务中心1栋105-106室","phone":"18098245145","category":"医疗保健服务;动物医疗场所;动物医疗场所","area":"南城","lng":113.722554,"lat":22.994337,"amap_id":"B0L1SUQ7A7","order":98,"prev_distance_km":1.115,"cumulative_distance_km":89.61,"amap_marker_url":"https://uri.amap.com/marker?position=113.722554,22.994337&name=%E5%AE%A0%E7%88%B1%E4%BB%99%E7%BC%98%20%E5%AE%A0%E7%89%A9%E5%96%84%E7%BB%88%E6%9C%8D%E5%8A%A1&src=vetmap&coordinate=gaode&callnative=1"},{"name":"新创宠物医院(东莞总院)","address":"南城街道宏图路69号1001室","phone":"13925587676","category":"医疗保健服务;动物医疗场所;宠物诊所","area":"南城","lng":113.722174,"lat":22.984679,"amap_id":"B0JA5RM5IS","order":99,"prev_distance_km":1.075,"cumulative_distance_km":90.684,"amap_marker_url":"https://uri.amap.com/marker?position=113.722174,22.984679&name=%E6%96%B0%E5%88%9B%E5%AE%A0%E7%89%A9%E5%8C%BB%E9%99%A2%28%E4%B8%9C%E8%8E%9E%E6%80%BB%E9%99%A2%29&src=vetmap&coordinate=gaode&callnative=1"},{"name":"乐贝宠物医院(南城店)","address":"宏六路恒大雅苑44栋1312","phone":"17602099916","category":"医疗保健服务;动物医疗场所;宠物诊所","area":"南城","lng":113.72234,"lat":22.979393,"amap_id":"B0HD4RJYWV","order":100,"prev_distance_km":0.588,"cumulative_distance_km":91.272,"amap_marker_url":"https://uri.amap.com/marker?position=113.722340,22.979393&name=%E4%B9%90%E8%B4%9D%E5%AE%A0%E7%89%A9%E5%8C%BB%E9%99%A2%28%E5%8D%97%E5%9F%8E%E5%BA%97%29&src=vetmap&coordinate=gaode&callnative=1"},{"name":"东莞市动物疫病预防控制中心","address":"南城街道绿色路农业检测防疫综合大楼","phone":"","category":"医疗保健服务;动物医疗场所;动物医疗场所","area":"","lng":113.758224,"lat":22.948833,"amap_id":"B0FFH4Q9RD","order":101,"prev_distance_km":5.004,"cumulative_distance_km":96.277,"amap_marker_url":"https://uri.amap.com/marker?position=113.758224,22.948833&name=%E4%B8%9C%E8%8E%9E%E5%B8%82%E5%8A%A8%E7%89%A9%E7%96%AB%E7%97%85%E9%A2%84%E9%98%B2%E6%8E%A7%E5%88%B6%E4%B8%AD%E5%BF%83&src=vetmap&coordinate=gaode&callnative=1"},{"name":"圣佑宠物医院","address":"厚街镇环冈学府路5号海逸豪庭尚都109幢113室","phone":"13113148659;13360458585","category":"医疗保健服务;动物医疗场所;宠物诊所","area":"","lng":113.733521,"lat":22.932456,"amap_id":"B0L16RT01T","order":102,"prev_distance_km":3.117,"cumulative_distance_km":99.394,"amap_marker_url":"https://uri.amap.com/marker?position=113.733521,22.932456&name=%E5%9C%A3%E4%BD%91%E5%AE%A0%E7%89%A9%E5%8C%BB%E9%99%A2&src=vetmap&coordinate=gaode&callnative=1"},{"name":"千城宠物医院-汀山分院","address":"厚街镇汀环路东26号101","phone":"13592761680","category":"医疗保健服务;动物医疗场所;宠物诊所","area":"","lng":113.716292,"lat":22.929724,"amap_id":"B0LKLR9J3M","order":103,"prev_distance_km":1.79,"cumulative_distance_km":101.184,"amap_marker_url":"https://uri.amap.com/marker?position=113.716292,22.929724&name=%E5%8D%83%E5%9F%8E%E5%AE%A0%E7%89%A9%E5%8C%BB%E9%99%A2-%E6%B1%80%E5%B1%B1%E5%88%86%E9%99%A2&src=vetmap&coordinate=gaode&callnative=1"},{"name":"威萌宠物诊所","address":"厚街镇汀环路东42号102","phone":"13559725920","category":"医疗保健服务;动物医疗场所;宠物诊所","area":"","lng":113.715336,"lat":22.930206,"amap_id":"B0HDA7XY2Z","order":104,"prev_distance_km":0.112,"cumulative_distance_km":101.296,"amap_marker_url":"https://uri.amap.com/marker?position=113.715336,22.930206&name=%E5%A8%81%E8%90%8C%E5%AE%A0%E7%89%A9%E8%AF%8A%E6%89%80&src=vetmap&coordinate=gaode&callnative=1"},{"name":"安美宠物诊所(寮夏店)","address":"寮夏社区北环路315号","phone":"18688955715","category":"医疗保健服务;动物医疗场所;宠物诊所","area":"","lng":113.680926,"lat":22.9429,"amap_id":"B0FFILBJ9E","order":105,"prev_distance_km":3.796,"cumulative_distance_km":105.091,"amap_marker_url":"https://uri.amap.com/marker?position=113.680926,22.942900&name=%E5%AE%89%E7%BE%8E%E5%AE%A0%E7%89%A9%E8%AF%8A%E6%89%80%28%E5%AF%AE%E5%A4%8F%E5%BA%97%29&src=vetmap&coordinate=gaode&callnative=1"},{"name":"迈特宠物医院厚街店","address":"厚街镇莞太路厚街段203号101室","phone":"15818419909","category":"医疗保健服务;动物医疗场所;宠物诊所","area":"康乐北路","lng":113.675208,"lat":22.94221,"amap_id":"B0KR2DE9OI","order":106,"prev_distance_km":0.591,"cumulative_distance_km":105.682,"amap_marker_url":"https://uri.amap.com/marker?position=113.675208,22.942210&name=%E8%BF%88%E7%89%B9%E5%AE%A0%E7%89%A9%E5%8C%BB%E9%99%A2%E5%8E%9A%E8%A1%97%E5%BA%97&src=vetmap&coordinate=gaode&callnative=1"},{"name":"联萌动物医院(厚街万达广场店)","address":"万达御湖公馆东北门旁","phone":"","category":"医疗保健服务;动物医疗场所;宠物诊所","area":"康乐北路","lng":113.67442,"lat":22.946032,"amap_id":"B0JUUSJT1Z","order":107,"prev_distance_km":0.433,"cumulative_distance_km":106.115,"amap_marker_url":"https://uri.amap.com/marker?position=113.674420,22.946032&name=%E8%81%94%E8%90%8C%E5%8A%A8%E7%89%A9%E5%8C%BB%E9%99%A2%28%E5%8E%9A%E8%A1%97%E4%B8%87%E8%BE%BE%E5%B9%BF%E5%9C%BA%E5%BA%97%29&src=vetmap&coordinate=gaode&callnative=1"},{"name":"贝咛宠物医院(厚街万达广场店)","address":"厚街镇体育路12号103室","phone":"13556298656","category":"医疗保健服务;动物医疗场所;宠物诊所","area":"","lng":113.67109,"lat":22.943287,"amap_id":"B0IU6ZDZTS","order":108,"prev_distance_km":0.458,"cumulative_distance_km":106.572,"amap_marker_url":"https://uri.amap.com/marker?position=113.671090,22.943287&name=%E8%B4%9D%E5%92%9B%E5%AE%A0%E7%89%A9%E5%8C%BB%E9%99%A2%28%E5%8E%9A%E8%A1%97%E4%B8%87%E8%BE%BE%E5%B9%BF%E5%9C%BA%E5%BA%97%29&src=vetmap&coordinate=gaode&callnative=1"},{"name":"瑞鹏宠物医院(厚街分院)","address":"厚街镇厚街社区厚街大道东32号","phone":"0769-85890335","category":"医疗保健服务;动物医疗场所;宠物诊所","area":"康乐北路","lng":113.668713,"lat":22.939642,"amap_id":"B0FFIJM7C8","order":109,"prev_distance_km":0.473,"cumulative_distance_km":107.045,"amap_marker_url":"https://uri.amap.com/marker?position=113.668713,22.939642&name=%E7%91%9E%E9%B9%8F%E5%AE%A0%E7%89%A9%E5%8C%BB%E9%99%A2%28%E5%8E%9A%E8%A1%97%E5%88%86%E9%99%A2%29&src=vetmap&coordinate=gaode&callnative=1"},{"name":"瑞派宠物医院(宠友厚街院)","address":"东城街道厚街镇珊美社区康乐楼B座地铺31、32号铺","phone":"18002964113","category":"医疗保健服务;动物医疗场所;宠物诊所","area":"珊美路","lng":113.667784,"lat":22.937319,"amap_id":"B0FFL7SG51","order":110,"prev_distance_km":0.275,"cumulative_distance_km":107.32,"amap_marker_url":"https://uri.amap.com/marker?position=113.667784,22.937319&name=%E7%91%9E%E6%B4%BE%E5%AE%A0%E7%89%A9%E5%8C%BB%E9%99%A2%28%E5%AE%A0%E5%8F%8B%E5%8E%9A%E8%A1%97%E9%99%A2%29&src=vetmap&coordinate=gaode&callnative=1"},{"name":"宠物兽医诊所","address":"厚街镇康乐南路2巷五号荣华楼","phone":"18926819654","category":"医疗保健服务;动物医疗场所;宠物诊所","area":"珊美路","lng":113.667061,"lat":22.933348,"amap_id":"B0L0ODIDJH","order":111,"prev_distance_km":0.448,"cumulative_distance_km":107.768,"amap_marker_url":"https://uri.amap.com/marker?position=113.667061,22.933348&name=%E5%AE%A0%E7%89%A9%E5%85%BD%E5%8C%BB%E8%AF%8A%E6%89%80&src=vetmap&coordinate=gaode&callnative=1"},{"name":"永健动物诊所(厚街三和人才大厦店)","address":"厚街镇S256国道旁珊美2区(宝龙酒店侧)","phone":"0769-85056378","category":"医疗保健服务;动物医疗场所;宠物诊所","area":"珊美路","lng":113.666275,"lat":22.930944,"amap_id":"B03018JGOQ","order":112,"prev_distance_km":0.279,"cumulative_distance_km":108.047,"amap_marker_url":"https://uri.amap.com/marker?position=113.666275,22.930944&name=%E6%B0%B8%E5%81%A5%E5%8A%A8%E7%89%A9%E8%AF%8A%E6%89%80%28%E5%8E%9A%E8%A1%97%E4%B8%89%E5%92%8C%E4%BA%BA%E6%89%8D%E5%A4%A7%E5%8E%A6%E5%BA%97%29&src=vetmap&coordinate=gaode&callnative=1"},{"name":"爱尚宠物医院骨科中心猫专科(珊瑚路店)","address":"厚街镇珊瑚路107号","phone":"13326885320;13925804677","category":"医疗保健服务;动物医疗场所;宠物诊所","area":"珊美路","lng":113.661681,"lat":22.931375,"amap_id":"B0FFGAUD8D","order":113,"prev_distance_km":0.473,"cumulative_distance_km":108.52,"amap_marker_url":"https://uri.amap.com/marker?position=113.661681,22.931375&name=%E7%88%B1%E5%B0%9A%E5%AE%A0%E7%89%A9%E5%8C%BB%E9%99%A2%E9%AA%A8%E7%A7%91%E4%B8%AD%E5%BF%83%E7%8C%AB%E4%B8%93%E7%A7%91%28%E7%8F%8A%E7%91%9A%E8%B7%AF%E5%BA%97%29&src=vetmap&coordinate=gaode&callnative=1"},{"name":"福瑞堂动物医院·异宠专科·鼠鹦鹉龟蜥蜴蛇","address":"厚街镇厚街珊瑚路101号103室","phone":"18929418925","category":"医疗保健服务;动物医疗场所;宠物诊所","area":"珊瑚路","lng":113.661419,"lat":22.931746,"amap_id":"B0K2RHCIGJ","order":114,"prev_distance_km":0.049,"cumulative_distance_km":108.569,"amap_marker_url":"https://uri.amap.com/marker?position=113.661419,22.931746&name=%E7%A6%8F%E7%91%9E%E5%A0%82%E5%8A%A8%E7%89%A9%E5%8C%BB%E9%99%A2%C2%B7%E5%BC%82%E5%AE%A0%E4%B8%93%E7%A7%91%C2%B7%E9%BC%A0%E9%B9%A6%E9%B9%89%E9%BE%9F%E8%9C%A5%E8%9C%B4%E8%9B%87&src=vetmap&coordinate=gaode&callnative=1"},{"name":"爱农宠物医院(厚街店)","address":"珊瑚路110号","phone":"","category":"医疗保健服务;动物医疗场所;宠物诊所","area":"珊美路","lng":113.660388,"lat":22.932789,"amap_id":"B0LA2UONFR","order":115,"prev_distance_km":0.157,"cumulative_distance_km":108.726,"amap_marker_url":"https://uri.amap.com/marker?position=113.660388,22.932789&name=%E7%88%B1%E5%86%9C%E5%AE%A0%E7%89%A9%E5%8C%BB%E9%99%A2%28%E5%8E%9A%E8%A1%97%E5%BA%97%29&src=vetmap&coordinate=gaode&callnative=1"},{"name":"爱农宠物医院·24小时急诊(厚街店)","address":"厚街镇珊瑚路110号","phone":"17322110371","category":"医疗保健服务;动物医疗场所;宠物诊所","area":"珊瑚路","lng":113.660268,"lat":22.932779,"amap_id":"B0FFIS6MQU","order":116,"prev_distance_km":0.012,"cumulative_distance_km":108.738,"amap_marker_url":"https://uri.amap.com/marker?position=113.660268,22.932779&name=%E7%88%B1%E5%86%9C%E5%AE%A0%E7%89%A9%E5%8C%BB%E9%99%A2%C2%B724%E5%B0%8F%E6%97%B6%E6%80%A5%E8%AF%8A%28%E5%8E%9A%E8%A1%97%E5%BA%97%29&src=vetmap&coordinate=gaode&callnative=1"},{"name":"然牧动物诊所","address":"珊瑚路与永泰路交叉口南20米","phone":"","category":"医疗保健服务;动物医疗场所;宠物诊所","area":"珊瑚路","lng":113.659698,"lat":22.933635,"amap_id":"B0JDHOARFM","order":117,"prev_distance_km":0.112,"cumulative_distance_km":108.85,"amap_marker_url":"https://uri.amap.com/marker?position=113.659698,22.933635&name=%E7%84%B6%E7%89%A7%E5%8A%A8%E7%89%A9%E8%AF%8A%E6%89%80&src=vetmap&coordinate=gaode&callnative=1"},{"name":"领航宠物医院·微创绝育·骨科中心·夜诊(厚街店)","address":"厚沙路与康乐南路交叉口东南40米","phone":"13580723451","category":"医疗保健服务;动物医疗场所;宠物诊所","area":"","lng":113.660683,"lat":22.924739,"amap_id":"B0LGJRS0IP","order":118,"prev_distance_km":0.994,"cumulative_distance_km":109.844,"amap_marker_url":"https://uri.amap.com/marker?position=113.660683,22.924739&name=%E9%A2%86%E8%88%AA%E5%AE%A0%E7%89%A9%E5%8C%BB%E9%99%A2%C2%B7%E5%BE%AE%E5%88%9B%E7%BB%9D%E8%82%B2%C2%B7%E9%AA%A8%E7%A7%91%E4%B8%AD%E5%BF%83%C2%B7%E5%A4%9C%E8%AF%8A%28%E5%8E%9A%E8%A1%97%E5%BA%97%29&src=vetmap&coordinate=gaode&callnative=1"},{"name":"威联猫科动物医院","address":"莞太路与桥头祠一路交叉口西南120米","phone":"","category":"医疗保健服务;动物医疗场所;宠物诊所","area":"","lng":113.661869,"lat":22.920404,"amap_id":"B0L3JCE42N","order":119,"prev_distance_km":0.497,"cumulative_distance_km":110.341,"amap_marker_url":"https://uri.amap.com/marker?position=113.661869,22.920404&name=%E5%A8%81%E8%81%94%E7%8C%AB%E7%A7%91%E5%8A%A8%E7%89%A9%E5%8C%BB%E9%99%A2&src=vetmap&coordinate=gaode&callnative=1"},{"name":"威联猫专科医院(夜间急诊·无犬低压)","address":"厚街镇莞太路厚街段266号102室","phone":"13532832368;13925535550","category":"医疗保健服务;动物医疗场所;宠物诊所","area":"","lng":113.661852,"lat":22.920237,"amap_id":"B0JRGS12QB","order":120,"prev_distance_km":0.019,"cumulative_distance_km":110.36,"amap_marker_url":"https://uri.amap.com/marker?position=113.661852,22.920237&name=%E5%A8%81%E8%81%94%E7%8C%AB%E4%B8%93%E7%A7%91%E5%8C%BB%E9%99%A2%28%E5%A4%9C%E9%97%B4%E6%80%A5%E8%AF%8A%C2%B7%E6%97%A0%E7%8A%AC%E4%BD%8E%E5%8E%8B%29&src=vetmap&coordinate=gaode&callnative=1"},{"name":"上望动物医院(厚街店)","address":"厚街镇莞太路292号101室","phone":"13392318931","category":"医疗保健服务;动物医疗场所;宠物诊所","area":"","lng":113.661918,"lat":22.918884,"amap_id":"B0LBDZVIKA","order":121,"prev_distance_km":0.151,"cumulative_distance_km":110.511,"amap_marker_url":"https://uri.amap.com/marker?position=113.661918,22.918884&name=%E4%B8%8A%E6%9C%9B%E5%8A%A8%E7%89%A9%E5%8C%BB%E9%99%A2%28%E5%8E%9A%E8%A1%97%E5%BA%97%29&src=vetmap&coordinate=gaode&callnative=1"},{"name":"上望动物医院·24小时急诊(厚街店)","address":"莞太路与新兴路交叉口北100米","phone":"13392318931","category":"医疗保健服务;动物医疗场所;宠物诊所","area":"","lng":113.661905,"lat":22.918875,"amap_id":"B0G2M4VY8A","order":122,"prev_distance_km":0.002,"cumulative_distance_km":110.512,"amap_marker_url":"https://uri.amap.com/marker?position=113.661905,22.918875&name=%E4%B8%8A%E6%9C%9B%E5%8A%A8%E7%89%A9%E5%8C%BB%E9%99%A2%C2%B724%E5%B0%8F%E6%97%B6%E6%80%A5%E8%AF%8A%28%E5%8E%9A%E8%A1%97%E5%BA%97%29&src=vetmap&coordinate=gaode&callnative=1"},{"name":"千城康桥宠物医院·24小时急诊","address":"厚街镇莞太路厚街段503号","phone":"13712221830","category":"医疗保健服务;动物医疗场所;宠物诊所","area":"","lng":113.662574,"lat":22.908011,"amap_id":"B0FFKL5LC7","order":123,"prev_distance_km":1.21,"cumulative_distance_km":111.722,"amap_marker_url":"https://uri.amap.com/marker?position=113.662574,22.908011&name=%E5%8D%83%E5%9F%8E%E5%BA%B7%E6%A1%A5%E5%AE%A0%E7%89%A9%E5%8C%BB%E9%99%A2%C2%B724%E5%B0%8F%E6%97%B6%E6%80%A5%E8%AF%8A&src=vetmap&coordinate=gaode&callnative=1"},{"name":"宸诺宠物医院(24小时·微创绝育·骨科中心)","address":"厚街镇家具大道东17号103-104","phone":"13532523260;13543786781","category":"医疗保健服务;动物医疗场所;宠物诊所","area":"","lng":113.665627,"lat":22.901411,"amap_id":"B0HRH54BRM","order":124,"prev_distance_km":0.798,"cumulative_distance_km":112.52,"amap_marker_url":"https://uri.amap.com/marker?position=113.665627,22.901411&name=%E5%AE%B8%E8%AF%BA%E5%AE%A0%E7%89%A9%E5%8C%BB%E9%99%A2%2824%E5%B0%8F%E6%97%B6%C2%B7%E5%BE%AE%E5%88%9B%E7%BB%9D%E8%82%B2%C2%B7%E9%AA%A8%E7%A7%91%E4%B8%AD%E5%BF%83%29&src=vetmap&coordinate=gaode&callnative=1"},{"name":"康康宠物医院(家具大道店)","address":"厚街镇家具大道东39号102室","phone":"13827263835","category":"医疗保健服务;动物医疗场所;宠物诊所","area":"","lng":113.667728,"lat":22.901008,"amap_id":"B0KUP7AU0L","order":125,"prev_distance_km":0.22,"cumulative_distance_km":112.74,"amap_marker_url":"https://uri.amap.com/marker?position=113.667728,22.901008&name=%E5%BA%B7%E5%BA%B7%E5%AE%A0%E7%89%A9%E5%8C%BB%E9%99%A2%28%E5%AE%B6%E5%85%B7%E5%A4%A7%E9%81%93%E5%BA%97%29&src=vetmap&coordinate=gaode&callnative=1"},{"name":"祺祺宠物医院","address":"中恒创新园西侧130米","phone":"13713203566","category":"医疗保健服务;动物医疗场所;宠物诊所","area":"","lng":113.662925,"lat":22.870925,"amap_id":"B0LDTX98VO","order":126,"prev_distance_km":3.381,"cumulative_distance_km":116.121,"amap_marker_url":"https://uri.amap.com/marker?position=113.662925,22.870925&name=%E7%A5%BA%E7%A5%BA%E5%AE%A0%E7%89%A9%E5%8C%BB%E9%99%A2&src=vetmap&coordinate=gaode&callnative=1"},{"name":"动物医院(莞太路店)","address":"中恒创新园西侧120米","phone":"","category":"医疗保健服务;动物医疗场所;宠物诊所","area":"","lng":113.662963,"lat":22.870872,"amap_id":"B0L0JOGEYE","order":127,"prev_distance_km":0.007,"cumulative_distance_km":116.128,"amap_marker_url":"https://uri.amap.com/marker?position=113.662963,22.870872&name=%E5%8A%A8%E7%89%A9%E5%8C%BB%E9%99%A2%28%E8%8E%9E%E5%A4%AA%E8%B7%AF%E5%BA%97%29&src=vetmap&coordinate=gaode&callnative=1"},{"name":"米可动物医院","address":"虎门镇高科一路9号汇景湖畔华庭11号楼103室","phone":"13660672329","category":"医疗保健服务;动物医疗场所;宠物诊所","area":"","lng":113.697176,"lat":22.857168,"amap_id":"B0KB6U8XDV","order":128,"prev_distance_km":3.822,"cumulative_distance_km":119.95,"amap_marker_url":"https://uri.amap.com/marker?position=113.697176,22.857168&name=%E7%B1%B3%E5%8F%AF%E5%8A%A8%E7%89%A9%E5%8C%BB%E9%99%A2&src=vetmap&coordinate=gaode&callnative=1"},{"name":"米琪动物医院·骨科·猫科·异宠科中心","address":"高科三路与高科五路交叉口东南200米","phone":"","category":"医疗保健服务;动物医疗场所;宠物诊所","area":"","lng":113.697515,"lat":22.857094,"amap_id":"B0JDDUNRBO","order":129,"prev_distance_km":0.036,"cumulative_distance_km":119.986,"amap_marker_url":"https://uri.amap.com/marker?position=113.697515,22.857094&name=%E7%B1%B3%E7%90%AA%E5%8A%A8%E7%89%A9%E5%8C%BB%E9%99%A2%C2%B7%E9%AA%A8%E7%A7%91%C2%B7%E7%8C%AB%E7%A7%91%C2%B7%E5%BC%82%E5%AE%A0%E7%A7%91%E4%B8%AD%E5%BF%83&src=vetmap&coordinate=gaode&callnative=1"},{"name":"瑞欣宠物医院","address":"虎门镇龙眼10路52号宝毫店铺","phone":"","category":"医疗保健服务;动物医疗场所;宠物诊所","area":"","lng":113.701884,"lat":22.840725,"amap_id":"B0KKNA4BRI","order":130,"prev_distance_km":1.874,"cumulative_distance_km":121.86,"amap_marker_url":"https://uri.amap.com/marker?position=113.701884,22.840725&name=%E7%91%9E%E6%AC%A3%E5%AE%A0%E7%89%A9%E5%8C%BB%E9%99%A2&src=vetmap&coordinate=gaode&callnative=1"},{"name":"瑞祥动物医院(北栅店)","address":"虎门镇太安路虎门段221号108医院往西200米","phone":"13688913090","category":"医疗保健服务;动物医疗场所;宠物诊所","area":"","lng":113.71041,"lat":22.830895,"amap_id":"B0FFHFF04P","order":131,"prev_distance_km":1.399,"cumulative_distance_km":123.26,"amap_marker_url":"https://uri.amap.com/marker?position=113.710410,22.830895&name=%E7%91%9E%E7%A5%A5%E5%8A%A8%E7%89%A9%E5%8C%BB%E9%99%A2%28%E5%8C%97%E6%A0%85%E5%BA%97%29&src=vetmap&coordinate=gaode&callnative=1"},{"name":"纬济宠物医院(北栅店)","address":"虎门镇北栅凤凰东区一巷6号101室","phone":"18928265009","category":"医疗保健服务;动物医疗场所;宠物诊所","area":"","lng":113.721953,"lat":22.833683,"amap_id":"B0IU7ZKED5","order":132,"prev_distance_km":1.223,"cumulative_distance_km":124.483,"amap_marker_url":"https://uri.amap.com/marker?position=113.721953,22.833683&name=%E7%BA%AC%E6%B5%8E%E5%AE%A0%E7%89%A9%E5%8C%BB%E9%99%A2%28%E5%8C%97%E6%A0%85%E5%BA%97%29&src=vetmap&coordinate=gaode&callnative=1"},{"name":"莱莱宠物店","address":"北栅东坊路与北栅凤阳路交叉口南20米","phone":"18279697278","category":"医疗保健服务;动物医疗场所;宠物诊所","area":"","lng":113.721958,"lat":22.833785,"amap_id":"B0IR215WY4","order":133,"prev_distance_km":0.011,"cumulative_distance_km":124.494,"amap_marker_url":"https://uri.amap.com/marker?position=113.721958,22.833785&name=%E8%8E%B1%E8%8E%B1%E5%AE%A0%E7%89%A9%E5%BA%97&src=vetmap&coordinate=gaode&callnative=1"},{"name":"萌系宠物诊所(24小时急诊·只看犬猫)","address":"虎门镇怀德大禾荔园路十一巷1号","phone":"18875992727","category":"医疗保健服务;动物医疗场所;宠物诊所","area":"","lng":113.740059,"lat":22.833556,"amap_id":"B0IG1DD2NQ","order":134,"prev_distance_km":1.855,"cumulative_distance_km":126.349,"amap_marker_url":"https://uri.amap.com/marker?position=113.740059,22.833556&name=%E8%90%8C%E7%B3%BB%E5%AE%A0%E7%89%A9%E8%AF%8A%E6%89%80%2824%E5%B0%8F%E6%97%B6%E6%80%A5%E8%AF%8A%C2%B7%E5%8F%AA%E7%9C%8B%E7%8A%AC%E7%8C%AB%29&src=vetmap&coordinate=gaode&callnative=1"},{"name":"东东动物医院(南部湾店)","address":"虎门大宁南部湾万科城13栋113室","phone":"13215173266;13421943368","category":"医疗保健服务;动物医疗场所;宠物诊所","area":"","lng":113.710245,"lat":22.814933,"amap_id":"B0FFKQF8F8","order":135,"prev_distance_km":3.691,"cumulative_distance_km":130.04,"amap_marker_url":"https://uri.amap.com/marker?position=113.710245,22.814933&name=%E4%B8%9C%E4%B8%9C%E5%8A%A8%E7%89%A9%E5%8C%BB%E9%99%A2%28%E5%8D%97%E9%83%A8%E6%B9%BE%E5%BA%97%29&src=vetmap&coordinate=gaode&callnative=1"},{"name":"初心宠物医院·24小时急诊","address":"虎门镇金洲梁屋村前路七巷16号","phone":"16620654688","category":"医疗保健服务;动物医疗场所;宠物诊所","area":"","lng":113.691336,"lat":22.808297,"amap_id":"B0KAT7POPJ","order":136,"prev_distance_km":2.074,"cumulative_distance_km":132.114,"amap_marker_url":"https://uri.amap.com/marker?position=113.691336,22.808297&name=%E5%88%9D%E5%BF%83%E5%AE%A0%E7%89%A9%E5%8C%BB%E9%99%A2%C2%B724%E5%B0%8F%E6%97%B6%E6%80%A5%E8%AF%8A&src=vetmap&coordinate=gaode&callnative=1"},{"name":"安朗宠物医院","address":"东城街道虎门镇梁屋新区一巷1号101室","phone":"17322121110","category":"医疗保健服务;动物医疗场所;宠物诊所","area":"","lng":113.689984,"lat":22.810622,"amap_id":"B0IGFUW97D","order":137,"prev_distance_km":0.293,"cumulative_distance_km":132.408,"amap_marker_url":"https://uri.amap.com/marker?position=113.689984,22.810622&name=%E5%AE%89%E6%9C%97%E5%AE%A0%E7%89%A9%E5%8C%BB%E9%99%A2&src=vetmap&coordinate=gaode&callnative=1"},{"name":"安朗宠物医院","address":"虎门镇梁屋新区一巷1号101室","phone":"17322121110","category":"医疗保健服务;动物医疗场所;宠物诊所","area":"","lng":113.689984,"lat":22.810622,"amap_id":"B0LK7S3WAS","order":138,"prev_distance_km":0.0,"cumulative_distance_km":132.408,"amap_marker_url":"https://uri.amap.com/marker?position=113.689984,22.810622&name=%E5%AE%89%E6%9C%97%E5%AE%A0%E7%89%A9%E5%8C%BB%E9%99%A2&src=vetmap&coordinate=gaode&callnative=1"},{"name":"东东动物医院(金洲店)","address":"虎门镇太沙路122号5栋103室","phone":"13421943368","category":"医疗保健服务;动物医疗场所;宠物诊所","area":"","lng":113.681957,"lat":22.806327,"amap_id":"B0FFLIC5MG","order":139,"prev_distance_km":0.951,"cumulative_distance_km":133.359,"amap_marker_url":"https://uri.amap.com/marker?position=113.681957,22.806327&name=%E4%B8%9C%E4%B8%9C%E5%8A%A8%E7%89%A9%E5%8C%BB%E9%99%A2%28%E9%87%91%E6%B4%B2%E5%BA%97%29&src=vetmap&coordinate=gaode&callnative=1"},{"name":"喜康宠物医院·24小时急诊","address":"虎门镇太沙路112号103室","phone":"18820755508","category":"医疗保健服务;动物医疗场所;宠物诊所","area":"","lng":113.679203,"lat":22.807929,"amap_id":"B0L3XO1V30","order":140,"prev_distance_km":0.334,"cumulative_distance_km":133.693,"amap_marker_url":"https://uri.amap.com/marker?position=113.679203,22.807929&name=%E5%96%9C%E5%BA%B7%E5%AE%A0%E7%89%A9%E5%8C%BB%E9%99%A2%C2%B724%E5%B0%8F%E6%97%B6%E6%80%A5%E8%AF%8A&src=vetmap&coordinate=gaode&callnative=1"},{"name":"宠心动物医院","address":"虎门金洲永康街30号103室宠心动物医院","phone":"0769-85223166;13726453915","category":"医疗保健服务;动物医疗场所;宠物诊所","area":"虎门大道","lng":113.677239,"lat":22.814974,"amap_id":"B0G1YYQB7K","order":141,"prev_distance_km":0.809,"cumulative_distance_km":134.502,"amap_marker_url":"https://uri.amap.com/marker?position=113.677239,22.814974&name=%E5%AE%A0%E5%BF%83%E5%8A%A8%E7%89%A9%E5%8C%BB%E9%99%A2&src=vetmap&coordinate=gaode&callnative=1"},{"name":"亮点动物诊所","address":"虎门镇银龙南路东一巷恒基首层101-105号(黄河时装对面)","phone":"0769-87001861","category":"医疗保健服务;动物医疗场所;宠物诊所","area":"虎门大道","lng":113.676927,"lat":22.81622,"amap_id":"B0FFFC8S0J","order":142,"prev_distance_km":0.142,"cumulative_distance_km":134.644,"amap_marker_url":"https://uri.amap.com/marker?position=113.676927,22.816220&name=%E4%BA%AE%E7%82%B9%E5%8A%A8%E7%89%A9%E8%AF%8A%E6%89%80&src=vetmap&coordinate=gaode&callnative=1"},{"name":"宠颐生宠物医院(亮点分院)","address":"涌头朗河边路与虎门大道交叉口南80米","phone":"0769-87001861","category":"医疗保健服务;动物医疗场所;宠物诊所","area":"虎门大道","lng":113.6769,"lat":22.816242,"amap_id":"B0IALGNJAK","order":143,"prev_distance_km":0.004,"cumulative_distance_km":134.647,"amap_marker_url":"https://uri.amap.com/marker?position=113.676900,22.816242&name=%E5%AE%A0%E9%A2%90%E7%94%9F%E5%AE%A0%E7%89%A9%E5%8C%BB%E9%99%A2%28%E4%BA%AE%E7%82%B9%E5%88%86%E9%99%A2%29&src=vetmap&coordinate=gaode&callnative=1"},{"name":"联萌动物医院·24小时急诊(东莞总院)","address":"虎门镇虎门大道联萌动物医院134号107","phone":"19907690760","category":"医疗保健服务;动物医疗场所;宠物诊所","area":"虎门大道","lng":113.682979,"lat":22.819426,"amap_id":"B0IUHSNHM8","order":144,"prev_distance_km":0.717,"cumulative_distance_km":135.364,"amap_marker_url":"https://uri.amap.com/marker?position=113.682979,22.819426&name=%E8%81%94%E8%90%8C%E5%8A%A8%E7%89%A9%E5%8C%BB%E9%99%A2%C2%B724%E5%B0%8F%E6%97%B6%E6%80%A5%E8%AF%8A%28%E4%B8%9C%E8%8E%9E%E6%80%BB%E9%99%A2%29&src=vetmap&coordinate=gaode&callnative=1"},{"name":"康宠动物医院(虎门店)","address":"虎门镇虎门大道113号116室","phone":"17688816544","category":"医疗保健服务;动物医疗场所;宠物诊所","area":"虎门大道","lng":113.683215,"lat":22.820847,"amap_id":"B0K2L1IMSS","order":145,"prev_distance_km":0.16,"cumulative_distance_km":135.524,"amap_marker_url":"https://uri.amap.com/marker?position=113.683215,22.820847&name=%E5%BA%B7%E5%AE%A0%E5%8A%A8%E7%89%A9%E5%8C%BB%E9%99%A2%28%E8%99%8E%E9%97%A8%E5%BA%97%29&src=vetmap&coordinate=gaode&callnative=1"},{"name":"安可动物医院(虎门店)","address":"连升路606号平苑小区乐淘B02号铺","phone":"0769-82269923;18002612630","category":"医疗保健服务;动物医疗场所;宠物诊所","area":"","lng":113.682995,"lat":22.823673,"amap_id":"B0G0ASV3KO","order":146,"prev_distance_km":0.315,"cumulative_distance_km":135.839,"amap_marker_url":"https://uri.amap.com/marker?position=113.682995,22.823673&name=%E5%AE%89%E5%8F%AF%E5%8A%A8%E7%89%A9%E5%8C%BB%E9%99%A2%28%E8%99%8E%E9%97%A8%E5%BA%97%29&src=vetmap&coordinate=gaode&callnative=1"},{"name":"瑞派宠物医院(东莞虎门安可院)","address":"东城街道虎门镇虎门镇连升路56号38栋112室","phone":"0769-82269923;18002612630","category":"医疗保健服务;动物医疗场所;宠物诊所","area":"","lng":113.682965,"lat":22.823748,"amap_id":"B0JRKH1Z3A","order":147,"prev_distance_km":0.009,"cumulative_distance_km":135.848,"amap_marker_url":"https://uri.amap.com/marker?position=113.682965,22.823748&name=%E7%91%9E%E6%B4%BE%E5%AE%A0%E7%89%A9%E5%8C%BB%E9%99%A2%28%E4%B8%9C%E8%8E%9E%E8%99%8E%E9%97%A8%E5%AE%89%E5%8F%AF%E9%99%A2%29&src=vetmap&coordinate=gaode&callnative=1"},{"name":"启航动物医院","address":"虎门寨锦绣路4号103室","phone":"15220357228","category":"医疗保健服务;动物医疗场所;宠物诊所","area":"","lng":113.681616,"lat":22.823657,"amap_id":"B0KKS9460U","order":148,"prev_distance_km":0.139,"cumulative_distance_km":135.986,"amap_marker_url":"https://uri.amap.com/marker?position=113.681616,22.823657&name=%E5%90%AF%E8%88%AA%E5%8A%A8%E7%89%A9%E5%8C%BB%E9%99%A2&src=vetmap&coordinate=gaode&callnative=1"},{"name":"咏乐动物诊所","address":"虎门镇虎门寨锦绣路4号102-104","phone":"15220357228","category":"医疗保健服务;动物医疗场所;宠物诊所","area":"","lng":113.681612,"lat":22.823668,"amap_id":"B0FFFQ5MIV","order":149,"prev_distance_km":0.001,"cumulative_distance_km":135.988,"amap_marker_url":"https://uri.amap.com/marker?position=113.681612,22.823668&name=%E5%92%8F%E4%B9%90%E5%8A%A8%E7%89%A9%E8%AF%8A%E6%89%80&src=vetmap&coordinate=gaode&callnative=1"},{"name":"新创宠物医院(虎门分院)","address":"虎门镇连升路62号105室","phone":"18944794988","category":"医疗保健服务;动物医疗场所;宠物诊所","area":"","lng":113.682924,"lat":22.827224,"amap_id":"B0J1B7P0VU","order":150,"prev_distance_km":0.418,"cumulative_distance_km":136.405,"amap_marker_url":"https://uri.amap.com/marker?position=113.682924,22.827224&name=%E6%96%B0%E5%88%9B%E5%AE%A0%E7%89%A9%E5%8C%BB%E9%99%A2%28%E8%99%8E%E9%97%A8%E5%88%86%E9%99%A2%29&src=vetmap&coordinate=gaode&callnative=1"},{"name":"春田动物医院","address":"虎门镇连升路99号109室","phone":"0769-89339965;18925425576","category":"医疗保健服务;动物医疗场所;宠物诊所","area":"","lng":113.682445,"lat":22.828472,"amap_id":"B0L1TD3O8H","order":151,"prev_distance_km":0.147,"cumulative_distance_km":136.553,"amap_marker_url":"https://uri.amap.com/marker?position=113.682445,22.828472&name=%E6%98%A5%E7%94%B0%E5%8A%A8%E7%89%A9%E5%8C%BB%E9%99%A2&src=vetmap&coordinate=gaode&callnative=1"},{"name":"艾嘉宠物医院24H骨科·微创绝育(连升店)","address":"东城街道虎门镇连升路119号101室","phone":"0769-89191991;13650002599;13713007105","category":"医疗保健服务;动物医疗场所;宠物诊所","area":"","lng":113.682454,"lat":22.830004,"amap_id":"B0FFHUXL0U","order":152,"prev_distance_km":0.17,"cumulative_distance_km":136.723,"amap_marker_url":"https://uri.amap.com/marker?position=113.682454,22.830004&name=%E8%89%BE%E5%98%89%E5%AE%A0%E7%89%A9%E5%8C%BB%E9%99%A224H%E9%AA%A8%E7%A7%91%C2%B7%E5%BE%AE%E5%88%9B%E7%BB%9D%E8%82%B2%28%E8%BF%9E%E5%8D%87%E5%BA%97%29&src=vetmap&coordinate=gaode&callnative=1"},{"name":"爱乔宠物医院·24H急诊","address":"东城街道科达路与体育路交叉口西北100米","phone":"18098281787","category":"医疗保健服务;动物医疗场所;宠物诊所","area":"","lng":113.686325,"lat":22.832925,"amap_id":"B0L3JPCRKP","order":153,"prev_distance_km":0.513,"cumulative_distance_km":137.236,"amap_marker_url":"https://uri.amap.com/marker?position=113.686325,22.832925&name=%E7%88%B1%E4%B9%94%E5%AE%A0%E7%89%A9%E5%8C%BB%E9%99%A2%C2%B724H%E6%80%A5%E8%AF%8A&src=vetmap&coordinate=gaode&callnative=1"},{"name":"联萌动物医院(万科·云城店)","address":"虎门镇体育路555号万科云广场四区七号125商铺","phone":"15014757159","category":"医疗保健服务;动物医疗场所;宠物诊所","area":"","lng":113.687453,"lat":22.835761,"amap_id":"B0FFLHQKBW","order":154,"prev_distance_km":0.336,"cumulative_distance_km":137.572,"amap_marker_url":"https://uri.amap.com/marker?position=113.687453,22.835761&name=%E8%81%94%E8%90%8C%E5%8A%A8%E7%89%A9%E5%8C%BB%E9%99%A2%28%E4%B8%87%E7%A7%91%C2%B7%E4%BA%91%E5%9F%8E%E5%BA%97%29&src=vetmap&coordinate=gaode&callnative=1"},{"name":"瑞派宠物医院(虎门联萌院)","address":"东城街道虎门镇虎门镇虎门体育路199号万科云广场38栋125室","phone":"15014757159","category":"医疗保健服务;动物医疗场所;宠物诊所","area":"","lng":113.687431,"lat":22.835838,"amap_id":"B0JR347WRN","order":155,"prev_distance_km":0.009,"cumulative_distance_km":137.58,"amap_marker_url":"https://uri.amap.com/marker?position=113.687431,22.835838&name=%E7%91%9E%E6%B4%BE%E5%AE%A0%E7%89%A9%E5%8C%BB%E9%99%A2%28%E8%99%8E%E9%97%A8%E8%81%94%E8%90%8C%E9%99%A2%29&src=vetmap&coordinate=gaode&callnative=1"},{"name":"联合宠物医院(虎门分院)","address":"东城街道社岗南路1号","phone":"18824332168","category":"医疗保健服务;动物医疗场所;宠物诊所","area":"","lng":113.684401,"lat":22.83583,"amap_id":"B0I2VS413U","order":156,"prev_distance_km":0.311,"cumulative_distance_km":137.891,"amap_marker_url":"https://uri.amap.com/marker?position=113.684401,22.835830&name=%E8%81%94%E5%90%88%E5%AE%A0%E7%89%A9%E5%8C%BB%E9%99%A2%28%E8%99%8E%E9%97%A8%E5%88%86%E9%99%A2%29&src=vetmap&coordinate=gaode&callnative=1"},{"name":"仁爱动物医院(万科·金色里程店)","address":"虎门镇虎门大道旁万科金色里程4栋105号","phone":"0769-85552256;18002759866","category":"医疗保健服务;动物医疗场所;宠物诊所","area":"虎门大道","lng":113.689209,"lat":22.822771,"amap_id":"B0FFJBNICA","order":157,"prev_distance_km":1.533,"cumulative_distance_km":139.424,"amap_marker_url":"https://uri.amap.com/marker?position=113.689209,22.822771&name=%E4%BB%81%E7%88%B1%E5%8A%A8%E7%89%A9%E5%8C%BB%E9%99%A2%28%E4%B8%87%E7%A7%91%C2%B7%E9%87%91%E8%89%B2%E9%87%8C%E7%A8%8B%E5%BA%97%29&src=vetmap&coordinate=gaode&callnative=1"},{"name":"虎门贝琪宠物医院","address":"虎门镇虎门人民中路172号109中辉大厦","phone":"18370253514;18588671102","category":"医疗保健服务;动物医疗场所;宠物诊所","area":"","lng":113.67313,"lat":22.822239,"amap_id":"B0LURU4ZBS","order":158,"prev_distance_km":1.649,"cumulative_distance_km":141.073,"amap_marker_url":"https://uri.amap.com/marker?position=113.673130,22.822239&name=%E8%99%8E%E9%97%A8%E8%B4%9D%E7%90%AA%E5%AE%A0%E7%89%A9%E5%8C%BB%E9%99%A2&src=vetmap&coordinate=gaode&callnative=1"},{"name":"宠物医院24小时急诊","address":"柏丽邨东南门旁","phone":"","category":"医疗保健服务;动物医疗场所;宠物诊所","area":"","lng":113.663025,"lat":22.819875,"amap_id":"B0KDULG4CC","order":159,"prev_distance_km":1.069,"cumulative_distance_km":142.142,"amap_marker_url":"https://uri.amap.com/marker?position=113.663025,22.819875&name=%E5%AE%A0%E7%89%A9%E5%8C%BB%E9%99%A224%E5%B0%8F%E6%97%B6%E6%80%A5%E8%AF%8A&src=vetmap&coordinate=gaode&callnative=1"},{"name":"晴天动物医院","address":"虎门镇解放路81号2号楼112室","phone":"15112576583","category":"医疗保健服务;动物医疗场所;宠物诊所","area":"","lng":113.662702,"lat":22.820161,"amap_id":"B0FFJRGJMG","order":160,"prev_distance_km":0.046,"cumulative_distance_km":142.188,"amap_marker_url":"https://uri.amap.com/marker?position=113.662702,22.820161&name=%E6%99%B4%E5%A4%A9%E5%8A%A8%E7%89%A9%E5%8C%BB%E9%99%A2&src=vetmap&coordinate=gaode&callnative=1"},{"name":"艾嘉宠物医院24h骨科·微创绝育(稔洲店)","address":"东城街道沙田镇稔洲路277号102室","phone":"13537231131","category":"医疗保健服务;动物医疗场所;宠物诊所","area":"","lng":113.64984,"lat":22.826919,"amap_id":"B0H2GSU4AL","order":161,"prev_distance_km":1.517,"cumulative_distance_km":143.705,"amap_marker_url":"https://uri.amap.com/marker?position=113.649840,22.826919&name=%E8%89%BE%E5%98%89%E5%AE%A0%E7%89%A9%E5%8C%BB%E9%99%A224h%E9%AA%A8%E7%A7%91%C2%B7%E5%BE%AE%E5%88%9B%E7%BB%9D%E8%82%B2%28%E7%A8%94%E6%B4%B2%E5%BA%97%29&src=vetmap&coordinate=gaode&callnative=1"},{"name":"裕和动物诊所","address":"大泥村金和小组1号","phone":"13829213112","category":"医疗保健服务;动物医疗场所;宠物诊所","area":"","lng":113.62923,"lat":22.844048,"amap_id":"B0FFKMA6GF","order":162,"prev_distance_km":2.844,"cumulative_distance_km":146.549,"amap_marker_url":"https://uri.amap.com/marker?position=113.629230,22.844048&name=%E8%A3%95%E5%92%8C%E5%8A%A8%E7%89%A9%E8%AF%8A%E6%89%80&src=vetmap&coordinate=gaode&callnative=1"},{"name":"贝拉宠物医院","address":"沙田镇临港路120号1095室","phone":"18575424300","category":"医疗保健服务;动物医疗场所;宠物诊所","area":"","lng":113.618946,"lat":22.820866,"amap_id":"B0L2H7AUQD","order":163,"prev_distance_km":2.785,"cumulative_distance_km":149.334,"amap_marker_url":"https://uri.amap.com/marker?position=113.618946,22.820866&name=%E8%B4%9D%E6%8B%89%E5%AE%A0%E7%89%A9%E5%8C%BB%E9%99%A2&src=vetmap&coordinate=gaode&callnative=1"},{"name":"宠颐生动物医院·内科·牙科·影像科(酷赛虎门分院)","address":"虎门镇连升路36号万科紫台26栋110室111","phone":"0769-88894918","category":"医疗保健服务;动物医疗场所;宠物诊所","area":"华池","lng":113.689991,"lat":22.801906,"amap_id":"B0J1DPUZMW","order":164,"prev_distance_km":7.581,"cumulative_distance_km":156.915,"amap_marker_url":"https://uri.amap.com/marker?position=113.689991,22.801906&name=%E5%AE%A0%E9%A2%90%E7%94%9F%E5%8A%A8%E7%89%A9%E5%8C%BB%E9%99%A2%C2%B7%E5%86%85%E7%A7%91%C2%B7%E7%89%99%E7%A7%91%C2%B7%E5%BD%B1%E5%83%8F%E7%A7%91%28%E9%85%B7%E8%B5%9B%E8%99%8E%E9%97%A8%E5%88%86%E9%99%A2%29&src=vetmap&coordinate=gaode&callnative=1"},{"name":"纬济宠物医院(南栅店)24小时急诊","address":"太沙路289号106","phone":"18028982056","category":"医疗保健服务;动物医疗场所;宠物诊所","area":"南栅","lng":113.687389,"lat":22.790236,"amap_id":"B0KBPH6FMP","order":165,"prev_distance_km":1.325,"cumulative_distance_km":158.24,"amap_marker_url":"https://uri.amap.com/marker?position=113.687389,22.790236&name=%E7%BA%AC%E6%B5%8E%E5%AE%A0%E7%89%A9%E5%8C%BB%E9%99%A2%28%E5%8D%97%E6%A0%85%E5%BA%97%2924%E5%B0%8F%E6%97%B6%E6%80%A5%E8%AF%8A&src=vetmap&coordinate=gaode&callnative=1"},{"name":"大雄动物医院","address":"长安镇厦边大街324号124室","phone":"13549403940","category":"医疗保健服务;动物医疗场所;宠物诊所","area":"","lng":113.72714,"lat":22.796622,"amap_id":"B0J2YCPJUY","order":166,"prev_distance_km":4.136,"cumulative_distance_km":162.376,"amap_marker_url":"https://uri.amap.com/marker?position=113.727140,22.796622&name=%E5%A4%A7%E9%9B%84%E5%8A%A8%E7%89%A9%E5%8C%BB%E9%99%A2&src=vetmap&coordinate=gaode&callnative=1"},{"name":"心诺宠物医院","address":"长安镇厦边七龙路216号104","phone":"13798890215","category":"医疗保健服务;动物医疗场所;宠物诊所","area":"","lng":113.727804,"lat":22.788668,"amap_id":"B0G3JZ44DX","order":167,"prev_distance_km":0.887,"cumulative_distance_km":163.263,"amap_marker_url":"https://uri.amap.com/marker?position=113.727804,22.788668&name=%E5%BF%83%E8%AF%BA%E5%AE%A0%E7%89%A9%E5%8C%BB%E9%99%A2&src=vetmap&coordinate=gaode&callnative=1"},{"name":"泰乐宠物服务中心(长安厦岗店)","address":"长安镇厦岗福海路112号","phone":"13538335686","category":"医疗保健服务;动物医疗场所;宠物诊所","area":"","lng":113.737348,"lat":22.775092,"amap_id":"B0FFL94ZS7","order":168,"prev_distance_km":1.799,"cumulative_distance_km":165.062,"amap_marker_url":"https://uri.amap.com/marker?position=113.737348,22.775092&name=%E6%B3%B0%E4%B9%90%E5%AE%A0%E7%89%A9%E6%9C%8D%E5%8A%A1%E4%B8%AD%E5%BF%83%28%E9%95%BF%E5%AE%89%E5%8E%A6%E5%B2%97%E5%BA%97%29&src=vetmap&coordinate=gaode&callnative=1"},{"name":"小脚印动物医院","address":"长安镇振安中路362号富安名苑102号","phone":"13434038202;19927367607","category":"医疗保健服务;动物医疗场所;宠物诊所","area":"","lng":113.757948,"lat":22.78043,"amap_id":"B0L21CTU46","order":169,"prev_distance_km":2.194,"cumulative_distance_km":167.256,"amap_marker_url":"https://uri.amap.com/marker?position=113.757948,22.780430&name=%E5%B0%8F%E8%84%9A%E5%8D%B0%E5%8A%A8%E7%89%A9%E5%8C%BB%E9%99%A2&src=vetmap&coordinate=gaode&callnative=1"},{"name":"康贝动物诊所(振安中路)","address":"振安中路326号","phone":"0769-86066340","category":"医疗保健服务;动物医疗场所;宠物诊所","area":"沙头","lng":113.761066,"lat":22.779913,"amap_id":"B0FFGFQ7G7","order":170,"prev_distance_km":0.325,"cumulative_distance_km":167.581,"amap_marker_url":"https://uri.amap.com/marker?position=113.761066,22.779913&name=%E5%BA%B7%E8%B4%9D%E5%8A%A8%E7%89%A9%E8%AF%8A%E6%89%80%28%E6%8C%AF%E5%AE%89%E4%B8%AD%E8%B7%AF%29&src=vetmap&coordinate=gaode&callnative=1"},{"name":"长安爱心动物医院","address":"东城街道长安镇沙头靖海西路3号靖海商务中心一楼店铺","phone":"13318442068","category":"医疗保健服务;动物医疗场所;宠物诊所","area":"沙头","lng":113.765675,"lat":22.785571,"amap_id":"B0LAUU788P","order":171,"prev_distance_km":0.787,"cumulative_distance_km":168.368,"amap_marker_url":"https://uri.amap.com/marker?position=113.765675,22.785571&name=%E9%95%BF%E5%AE%89%E7%88%B1%E5%BF%83%E5%8A%A8%E7%89%A9%E5%8C%BB%E9%99%A2&src=vetmap&coordinate=gaode&callnative=1"},{"name":"锦宠一生宠物服务店","address":"长安镇沙头大园东街二巷6号101室","phone":"19977522058","category":"医疗保健服务;动物医疗场所;动物医疗场所","area":"沙头","lng":113.770036,"lat":22.790629,"amap_id":"B0K3FDJ8AE","order":172,"prev_distance_km":0.718,"cumulative_distance_km":169.086,"amap_marker_url":"https://uri.amap.com/marker?position=113.770036,22.790629&name=%E9%94%A6%E5%AE%A0%E4%B8%80%E7%94%9F%E5%AE%A0%E7%89%A9%E6%9C%8D%E5%8A%A1%E5%BA%97&src=vetmap&coordinate=gaode&callnative=1"},{"name":"大拇指宠物医院","address":"沙头桥头东街南一巷7号109","phone":"18027079881;18929259881","category":"医疗保健服务;动物医疗场所;宠物诊所","area":"沙头","lng":113.774588,"lat":22.786013,"amap_id":"B0IB2SUNYJ","order":173,"prev_distance_km":0.694,"cumulative_distance_km":169.78,"amap_marker_url":"https://uri.amap.com/marker?position=113.774588,22.786013&name=%E5%A4%A7%E6%8B%87%E6%8C%87%E5%AE%A0%E7%89%A9%E5%8C%BB%E9%99%A2&src=vetmap&coordinate=gaode&callnative=1"},{"name":"佑宁动物医院","address":"乌沙环西路61号","phone":"13710771806","category":"医疗保健服务;动物医疗场所;宠物诊所","area":"","lng":113.778108,"lat":22.784942,"amap_id":"B0IR55WCDD","order":174,"prev_distance_km":0.38,"cumulative_distance_km":170.16,"amap_marker_url":"https://uri.amap.com/marker?position=113.778108,22.784942&name=%E4%BD%91%E5%AE%81%E5%8A%A8%E7%89%A9%E5%8C%BB%E9%99%A2&src=vetmap&coordinate=gaode&callnative=1"},{"name":"彩羽宠物洗护","address":"长安镇乌沙社区振荣南路3号114室","phone":"13168448904","category":"医疗保健服务;动物医疗场所;动物医疗场所","area":"","lng":113.79449,"lat":22.785362,"amap_id":"B0L6792EW5","order":175,"prev_distance_km":1.68,"cumulative_distance_km":171.84,"amap_marker_url":"https://uri.amap.com/marker?position=113.794490,22.785362&name=%E5%BD%A9%E7%BE%BD%E5%AE%A0%E7%89%A9%E6%B4%97%E6%8A%A4&src=vetmap&coordinate=gaode&callnative=1"},{"name":"云霁动物诊所·猫科·骨科·牙科(长安店)","address":"沙埔头路35号101-102长安","phone":"13790666298","category":"医疗保健服务;动物医疗场所;宠物诊所","area":"长青路","lng":113.802824,"lat":22.805166,"amap_id":"B0IKLAO7O5","order":176,"prev_distance_km":2.362,"cumulative_distance_km":174.202,"amap_marker_url":"https://uri.amap.com/marker?position=113.802824,22.805166&name=%E4%BA%91%E9%9C%81%E5%8A%A8%E7%89%A9%E8%AF%8A%E6%89%80%C2%B7%E7%8C%AB%E7%A7%91%C2%B7%E9%AA%A8%E7%A7%91%C2%B7%E7%89%99%E7%A7%91%28%E9%95%BF%E5%AE%89%E5%BA%97%29&src=vetmap&coordinate=gaode&callnative=1"},{"name":"宠颐生宠物医院(长安分院)","address":"长盛西路88号","phone":"0769-85380139","category":"医疗保健服务;动物医疗场所;宠物诊所","area":"长青路","lng":113.799725,"lat":22.807775,"amap_id":"B0H6SBV6SL","order":177,"prev_distance_km":0.43,"cumulative_distance_km":174.632,"amap_marker_url":"https://uri.amap.com/marker?position=113.799725,22.807775&name=%E5%AE%A0%E9%A2%90%E7%94%9F%E5%AE%A0%E7%89%A9%E5%8C%BB%E9%99%A2%28%E9%95%BF%E5%AE%89%E5%88%86%E9%99%A2%29&src=vetmap&coordinate=gaode&callnative=1"},{"name":"宠佳仁动物医院","address":"长安镇长盛西路102号","phone":"13631703454;13798767915","category":"医疗保健服务;动物医疗场所;宠物诊所","area":"长青路","lng":113.799052,"lat":22.807931,"amap_id":"B0HK6Z5D22","order":178,"prev_distance_km":0.071,"cumulative_distance_km":174.703,"amap_marker_url":"https://uri.amap.com/marker?position=113.799052,22.807931&name=%E5%AE%A0%E4%BD%B3%E4%BB%81%E5%8A%A8%E7%89%A9%E5%8C%BB%E9%99%A2&src=vetmap&coordinate=gaode&callnative=1"},{"name":"福懋动物医院(长安分院)","address":"长安镇德政西路361号(近金唐宫公交站)","phone":"0769-81505355","category":"医疗保健服务;动物医疗场所;宠物诊所","area":"长青路","lng":113.797869,"lat":22.807267,"amap_id":"B0FFG6WVSX","order":179,"prev_distance_km":0.142,"cumulative_distance_km":174.845,"amap_marker_url":"https://uri.amap.com/marker?position=113.797869,22.807267&name=%E7%A6%8F%E6%87%8B%E5%8A%A8%E7%89%A9%E5%8C%BB%E9%99%A2%28%E9%95%BF%E5%AE%89%E5%88%86%E9%99%A2%29&src=vetmap&coordinate=gaode&callnative=1"},{"name":"宠爱宠物","address":"东城街道长安镇长安锦绣路241号8栋103室","phone":"13294280658","category":"医疗保健服务;动物医疗场所;动物医疗场所","area":"","lng":113.79723,"lat":22.812914,"amap_id":"B0M6HZ9VAE","order":180,"prev_distance_km":0.631,"cumulative_distance_km":175.476,"amap_marker_url":"https://uri.amap.com/marker?position=113.797230,22.812914&name=%E5%AE%A0%E7%88%B1%E5%AE%A0%E7%89%A9&src=vetmap&coordinate=gaode&callnative=1"},{"name":"卡曼宠物医院","address":"桃李花园锦绣路北门旁","phone":"18925837701","category":"医疗保健服务;动物医疗场所;宠物诊所","area":"","lng":113.797399,"lat":22.812998,"amap_id":"B0J6BMNBIZ","order":181,"prev_distance_km":0.02,"cumulative_distance_km":175.496,"amap_marker_url":"https://uri.amap.com/marker?position=113.797399,22.812998&name=%E5%8D%A1%E6%9B%BC%E5%AE%A0%E7%89%A9%E5%8C%BB%E9%99%A2&src=vetmap&coordinate=gaode&callnative=1"},{"name":"康为宠物诊所","address":"长安镇横增路41号","phone":"18944700020","category":"医疗保健服务;动物医疗场所;宠物诊所","area":"","lng":113.790716,"lat":22.813054,"amap_id":"B0FFJH7CV1","order":182,"prev_distance_km":0.685,"cumulative_distance_km":176.181,"amap_marker_url":"https://uri.amap.com/marker?position=113.790716,22.813054&name=%E5%BA%B7%E4%B8%BA%E5%AE%A0%E7%89%A9%E8%AF%8A%E6%89%80&src=vetmap&coordinate=gaode&callnative=1"},{"name":"千城动物医院·24H犬猫·异宠专科转诊中心(长安总院)","address":"长安镇长安德政中路188号","phone":"0769-81550158","category":"医疗保健服务;动物医疗场所;宠物诊所","area":"","lng":113.806761,"lat":22.814507,"amap_id":"B0H2PRSV4I","order":183,"prev_distance_km":1.652,"cumulative_distance_km":177.834,"amap_marker_url":"https://uri.amap.com/marker?position=113.806761,22.814507&name=%E5%8D%83%E5%9F%8E%E5%8A%A8%E7%89%A9%E5%8C%BB%E9%99%A2%C2%B724H%E7%8A%AC%E7%8C%AB%C2%B7%E5%BC%82%E5%AE%A0%E4%B8%93%E7%A7%91%E8%BD%AC%E8%AF%8A%E4%B8%AD%E5%BF%83%28%E9%95%BF%E5%AE%89%E6%80%BB%E9%99%A2%29&src=vetmap&coordinate=gaode&callnative=1"},{"name":"康鸿宠物医院(派特分院)骨科中心","address":"东城街道长安镇莲峰北路22号","phone":"18903039551","category":"医疗保健服务;动物医疗场所;宠物诊所","area":"","lng":113.808926,"lat":22.813268,"amap_id":"B0LKJL2UA5","order":184,"prev_distance_km":0.261,"cumulative_distance_km":178.095,"amap_marker_url":"https://uri.amap.com/marker?position=113.808926,22.813268&name=%E5%BA%B7%E9%B8%BF%E5%AE%A0%E7%89%A9%E5%8C%BB%E9%99%A2%28%E6%B4%BE%E7%89%B9%E5%88%86%E9%99%A2%29%E9%AA%A8%E7%A7%91%E4%B8%AD%E5%BF%83&src=vetmap&coordinate=gaode&callnative=1"},{"name":"派特宠物医院(金禧楼店)","address":"长安镇莲峰北路22号","phone":"0769-81582219","category":"医疗保健服务;动物医疗场所;宠物诊所","area":"","lng":113.808926,"lat":22.813268,"amap_id":"B0HKLLX8BL","order":185,"prev_distance_km":0.0,"cumulative_distance_km":178.095,"amap_marker_url":"https://uri.amap.com/marker?position=113.808926,22.813268&name=%E6%B4%BE%E7%89%B9%E5%AE%A0%E7%89%A9%E5%8C%BB%E9%99%A2%28%E9%87%91%E7%A6%A7%E6%A5%BC%E5%BA%97%29&src=vetmap&coordinate=gaode&callnative=1"},{"name":"安心动物医院·骨科·猫科·异宠科中心","address":"东门中路与发展路交叉口南220米","phone":"18128005353","category":"医疗保健服务;动物医疗场所;宠物诊所","area":"霄边","lng":113.812675,"lat":22.809725,"amap_id":"B0FFLIU0R2","order":186,"prev_distance_km":0.55,"cumulative_distance_km":178.645,"amap_marker_url":"https://uri.amap.com/marker?position=113.812675,22.809725&name=%E5%AE%89%E5%BF%83%E5%8A%A8%E7%89%A9%E5%8C%BB%E9%99%A2%C2%B7%E9%AA%A8%E7%A7%91%C2%B7%E7%8C%AB%E7%A7%91%C2%B7%E5%BC%82%E5%AE%A0%E7%A7%91%E4%B8%AD%E5%BF%83&src=vetmap&coordinate=gaode&callnative=1"},{"name":"宠医生知行宠物医院","address":"长安镇上洋路18号1036室","phone":"0769-81884556;18145885556","category":"医疗保健服务;动物医疗场所;宠物诊所","area":"霄边","lng":113.812329,"lat":22.808755,"amap_id":"B0G1CMRQ7A","order":187,"prev_distance_km":0.114,"cumulative_distance_km":178.759,"amap_marker_url":"https://uri.amap.com/marker?position=113.812329,22.808755&name=%E5%AE%A0%E5%8C%BB%E7%94%9F%E7%9F%A5%E8%A1%8C%E5%AE%A0%E7%89%A9%E5%8C%BB%E9%99%A2&src=vetmap&coordinate=gaode&callnative=1"},{"name":"瑞派宠物医院(开心长安院)","address":"东城街道长安镇霄边社区东门中路29号碧桂园长安名府3幢商铺127号","phone":"18002772759","category":"医疗保健服务;动物医疗场所;宠物诊所","area":"霄边","lng":113.811943,"lat":22.808664,"amap_id":"B0FFMCN4TR","order":188,"prev_distance_km":0.041,"cumulative_distance_km":178.8,"amap_marker_url":"https://uri.amap.com/marker?position=113.811943,22.808664&name=%E7%91%9E%E6%B4%BE%E5%AE%A0%E7%89%A9%E5%8C%BB%E9%99%A2%28%E5%BC%80%E5%BF%83%E9%95%BF%E5%AE%89%E9%99%A2%29&src=vetmap&coordinate=gaode&callnative=1"},{"name":"爱农宠物医院·24小时急诊(长安店)","address":"长安镇霄边大街45号104室","phone":"15622500175","category":"医疗保健服务;动物医疗场所;宠物诊所","area":"霄边","lng":113.817658,"lat":22.804828,"amap_id":"B0J3GRW2W8","order":189,"prev_distance_km":0.725,"cumulative_distance_km":179.524,"amap_marker_url":"https://uri.amap.com/marker?position=113.817658,22.804828&name=%E7%88%B1%E5%86%9C%E5%AE%A0%E7%89%A9%E5%8C%BB%E9%99%A2%C2%B724%E5%B0%8F%E6%97%B6%E6%80%A5%E8%AF%8A%28%E9%95%BF%E5%AE%89%E5%BA%97%29&src=vetmap&coordinate=gaode&callnative=1"},{"name":"爱农宠物医院·猫科特色·骨专科中心","address":"霄边大街与全兴街交叉口西南20米","phone":"","category":"医疗保健服务;动物医疗场所;宠物诊所","area":"霄边","lng":113.817687,"lat":22.80482,"amap_id":"B0K3ZM7Z8P","order":190,"prev_distance_km":0.003,"cumulative_distance_km":179.527,"amap_marker_url":"https://uri.amap.com/marker?position=113.817687,22.804820&name=%E7%88%B1%E5%86%9C%E5%AE%A0%E7%89%A9%E5%8C%BB%E9%99%A2%C2%B7%E7%8C%AB%E7%A7%91%E7%89%B9%E8%89%B2%C2%B7%E9%AA%A8%E4%B8%93%E7%A7%91%E4%B8%AD%E5%BF%83&src=vetmap&coordinate=gaode&callnative=1"},{"name":"致远宠物医院.犬猫专科医院(24小时急诊)","address":"长安镇下洋路7号201","phone":"15814333446","category":"医疗保健服务;动物医疗场所;宠物诊所","area":"霄边","lng":113.820999,"lat":22.806026,"amap_id":"B0KDP94PDD","order":191,"prev_distance_km":0.365,"cumulative_distance_km":179.892,"amap_marker_url":"https://uri.amap.com/marker?position=113.820999,22.806026&name=%E8%87%B4%E8%BF%9C%E5%AE%A0%E7%89%A9%E5%8C%BB%E9%99%A2.%E7%8A%AC%E7%8C%AB%E4%B8%93%E7%A7%91%E5%8C%BB%E9%99%A2%2824%E5%B0%8F%E6%97%B6%E6%80%A5%E8%AF%8A%29&src=vetmap&coordinate=gaode&callnative=1"},{"name":"一心宠物医院.骨科.猫狗全科.长安万达店","address":"长安镇长安东门中路1号12栋1138室","phone":"0769-81661011;18929403219","category":"医疗保健服务;动物医疗场所;宠物诊所","area":"霄边","lng":113.822768,"lat":22.807557,"amap_id":"B0JKDU27ZE","order":192,"prev_distance_km":0.249,"cumulative_distance_km":180.141,"amap_marker_url":"https://uri.amap.com/marker?position=113.822768,22.807557&name=%E4%B8%80%E5%BF%83%E5%AE%A0%E7%89%A9%E5%8C%BB%E9%99%A2.%E9%AA%A8%E7%A7%91.%E7%8C%AB%E7%8B%97%E5%85%A8%E7%A7%91.%E9%95%BF%E5%AE%89%E4%B8%87%E8%BE%BE%E5%BA%97&src=vetmap&coordinate=gaode&callnative=1"},{"name":"飞翔动物诊所(长安分店)","address":"长安镇霄边358省道76号","phone":"0769-85078257;13688950453","category":"医疗保健服务;动物医疗场所;宠物诊所","area":"霄边","lng":113.817845,"lat":22.799986,"amap_id":"B0FFFD4SZX","order":193,"prev_distance_km":0.982,"cumulative_distance_km":181.123,"amap_marker_url":"https://uri.amap.com/marker?position=113.817845,22.799986&name=%E9%A3%9E%E7%BF%94%E5%8A%A8%E7%89%A9%E8%AF%8A%E6%89%80%28%E9%95%BF%E5%AE%89%E5%88%86%E5%BA%97%29&src=vetmap&coordinate=gaode&callnative=1"},{"name":"莱莱宠物医院·骨科·微创绝育·体外碎石","address":"长安镇乌沙兴发中路138号174房","phone":"18675076702","category":"医疗保健服务;动物医疗场所;宠物诊所","area":"","lng":113.773427,"lat":22.769368,"amap_id":"B0FFKMP13W","order":194,"prev_distance_km":5.686,"cumulative_distance_km":186.808,"amap_marker_url":"https://uri.amap.com/marker?position=113.773427,22.769368&name=%E8%8E%B1%E8%8E%B1%E5%AE%A0%E7%89%A9%E5%8C%BB%E9%99%A2%C2%B7%E9%AA%A8%E7%A7%91%C2%B7%E5%BE%AE%E5%88%9B%E7%BB%9D%E8%82%B2%C2%B7%E4%BD%93%E5%A4%96%E7%A2%8E%E7%9F%B3&src=vetmap&coordinate=gaode&callnative=1"},{"name":"宠康宠物诊所(上沙店)","address":"长安镇上沙湖景路34号","phone":"13729994416","category":"医疗保健服务;动物医疗场所;宠物诊所","area":"","lng":113.757275,"lat":22.791175,"amap_id":"B0LA5LV408","order":195,"prev_distance_km":2.936,"cumulative_distance_km":189.745,"amap_marker_url":"https://uri.amap.com/marker?position=113.757275,22.791175&name=%E5%AE%A0%E5%BA%B7%E5%AE%A0%E7%89%A9%E8%AF%8A%E6%89%80%28%E4%B8%8A%E6%B2%99%E5%BA%97%29&src=vetmap&coordinate=gaode&callnative=1"},{"name":"长安爱心动物诊所","address":"358省道1258号","phone":"13318442068","category":"医疗保健服务;动物医疗场所;宠物诊所","area":"","lng":113.756232,"lat":22.795467,"amap_id":"B0FFG39N9M","order":196,"prev_distance_km":0.489,"cumulative_distance_km":190.234,"amap_marker_url":"https://uri.amap.com/marker?position=113.756232,22.795467&name=%E9%95%BF%E5%AE%89%E7%88%B1%E5%BF%83%E5%8A%A8%E7%89%A9%E8%AF%8A%E6%89%80&src=vetmap&coordinate=gaode&callnative=1"},{"name":"瑞派宠物医院(东莞康贝松湖院)","address":"东城街道松山湖园区青田路7号30栋103室","phone":"18820759818","category":"医疗保健服务;动物医疗场所;宠物诊所","area":"","lng":113.865398,"lat":22.86568,"amap_id":"B0J02U5RHX","order":197,"prev_distance_km":13.643,"cumulative_distance_km":203.876,"amap_marker_url":"https://uri.amap.com/marker?position=113.865398,22.865680&name=%E7%91%9E%E6%B4%BE%E5%AE%A0%E7%89%A9%E5%8C%BB%E9%99%A2%28%E4%B8%9C%E8%8E%9E%E5%BA%B7%E8%B4%9D%E6%9D%BE%E6%B9%96%E9%99%A2%29&src=vetmap&coordinate=gaode&callnative=1"},{"name":"宠爱动物医院","address":"青田路7号盛世山湖名居30栋118室(紫檀山东门向南50米)","phone":"13360640303","category":"医疗保健服务;动物医疗场所;宠物诊所","area":"","lng":113.865383,"lat":22.866295,"amap_id":"B0L14R2MCJ","order":198,"prev_distance_km":0.068,"cumulative_distance_km":203.945,"amap_marker_url":"https://uri.amap.com/marker?position=113.865383,22.866295&name=%E5%AE%A0%E7%88%B1%E5%8A%A8%E7%89%A9%E5%8C%BB%E9%99%A2&src=vetmap&coordinate=gaode&callnative=1"},{"name":"康悦宠物诊所","address":"大朗镇美景西路1458号康悦宠物诊所","phone":"0769-82220339;13360674866","category":"医疗保健服务;动物医疗场所;宠物诊所","area":"","lng":113.873543,"lat":22.866219,"amap_id":"B0I17UPHLJ","order":199,"prev_distance_km":0.836,"cumulative_distance_km":204.781,"amap_marker_url":"https://uri.amap.com/marker?position=113.873543,22.866219&name=%E5%BA%B7%E6%82%A6%E5%AE%A0%E7%89%A9%E8%AF%8A%E6%89%80&src=vetmap&coordinate=gaode&callnative=1"},{"name":"乐狗荟宠物生活馆(万科里店)","address":"大朗镇犀牛陂元岗路190号108室","phone":"13128003046","category":"医疗保健服务;动物医疗场所;宠物诊所","area":"","lng":113.877537,"lat":22.872319,"amap_id":"B0IRAHWTIS","order":200,"prev_distance_km":0.792,"cumulative_distance_km":205.573,"amap_marker_url":"https://uri.amap.com/marker?position=113.877537,22.872319&name=%E4%B9%90%E7%8B%97%E8%8D%9F%E5%AE%A0%E7%89%A9%E7%94%9F%E6%B4%BB%E9%A6%86%28%E4%B8%87%E7%A7%91%E9%87%8C%E5%BA%97%29&src=vetmap&coordinate=gaode&callnative=1"},{"name":"瑞宁宠物医院","address":"大朗镇水平村松水路201号106室","phone":"15362432889;15362445889","category":"医疗保健服务;动物医疗场所;宠物诊所","area":"","lng":113.917992,"lat":22.877799,"amap_id":"B0I1YC5ZY9","order":201,"prev_distance_km":4.189,"cumulative_distance_km":209.762,"amap_marker_url":"https://uri.amap.com/marker?position=113.917992,22.877799&name=%E7%91%9E%E5%AE%81%E5%AE%A0%E7%89%A9%E5%8C%BB%E9%99%A2&src=vetmap&coordinate=gaode&callnative=1"},{"name":"小伴侣宠物连锁医疗(大朗分院)","address":"富民中路338号1017号","phone":"15322963658","category":"医疗保健服务;动物医疗场所;宠物诊所","area":"美景中路","lng":113.930608,"lat":22.928708,"amap_id":"B0IA370U84","order":202,"prev_distance_km":5.806,"cumulative_distance_km":215.568,"amap_marker_url":"https://uri.amap.com/marker?position=113.930608,22.928708&name=%E5%B0%8F%E4%BC%B4%E4%BE%A3%E5%AE%A0%E7%89%A9%E8%BF%9E%E9%94%81%E5%8C%BB%E7%96%97%28%E5%A4%A7%E6%9C%97%E5%88%86%E9%99%A2%29&src=vetmap&coordinate=gaode&callnative=1"},{"name":"和瑞宠物医院(大朗店)","address":"大朗镇长塘社区长盛南路69号","phone":"13613048583","category":"医疗保健服务;动物医疗场所;宠物诊所","area":"美景中路","lng":113.931424,"lat":22.934433,"amap_id":"B0J39B9IDX","order":203,"prev_distance_km":0.642,"cumulative_distance_km":216.21,"amap_marker_url":"https://uri.amap.com/marker?position=113.931424,22.934433&name=%E5%92%8C%E7%91%9E%E5%AE%A0%E7%89%A9%E5%8C%BB%E9%99%A2%28%E5%A4%A7%E6%9C%97%E5%BA%97%29&src=vetmap&coordinate=gaode&callnative=1"},{"name":"瑞宠宠物医院","address":"大朗镇长盛南路111号101室","phone":"18944767766","category":"医疗保健服务;动物医疗场所;宠物诊所","area":"","lng":113.930517,"lat":22.93529,"amap_id":"B0LURH4YKH","order":204,"prev_distance_km":0.133,"cumulative_distance_km":216.344,"amap_marker_url":"https://uri.amap.com/marker?position=113.930517,22.935290&name=%E7%91%9E%E5%AE%A0%E5%AE%A0%E7%89%A9%E5%8C%BB%E9%99%A2&src=vetmap&coordinate=gaode&callnative=1"},{"name":"康鸿动物医院-CT影像-24H门诊-大朗中心医院","address":"长盛南路135号101室","phone":"18145883711","category":"医疗保健服务;动物医疗场所;宠物诊所","area":"","lng":113.930106,"lat":22.935657,"amap_id":"B0LRBCOGW5","order":205,"prev_distance_km":0.059,"cumulative_distance_km":216.402,"amap_marker_url":"https://uri.amap.com/marker?position=113.930106,22.935657&name=%E5%BA%B7%E9%B8%BF%E5%8A%A8%E7%89%A9%E5%8C%BB%E9%99%A2-CT%E5%BD%B1%E5%83%8F-24H%E9%97%A8%E8%AF%8A-%E5%A4%A7%E6%9C%97%E4%B8%AD%E5%BF%83%E5%8C%BB%E9%99%A2&src=vetmap&coordinate=gaode&callnative=1"},{"name":"龙翔动物诊所大朗分所","address":"长盛南路153号","phone":"13924350076","category":"医疗保健服务;动物医疗场所;宠物诊所","area":"","lng":113.92981,"lat":22.935982,"amap_id":"B03018QMV9","order":206,"prev_distance_km":0.047,"cumulative_distance_km":216.449,"amap_marker_url":"https://uri.amap.com/marker?position=113.929810,22.935982&name=%E9%BE%99%E7%BF%94%E5%8A%A8%E7%89%A9%E8%AF%8A%E6%89%80%E5%A4%A7%E6%9C%97%E5%88%86%E6%89%80&src=vetmap&coordinate=gaode&callnative=1"},{"name":"亿合宠物诊疗中心","address":"长盛南路153号","phone":"13357280504","category":"医疗保健服务;动物医疗场所;宠物诊所","area":"","lng":113.929746,"lat":22.93605,"amap_id":"B0LDYL0WAI","order":207,"prev_distance_km":0.01,"cumulative_distance_km":216.459,"amap_marker_url":"https://uri.amap.com/marker?position=113.929746,22.936050&name=%E4%BA%BF%E5%90%88%E5%AE%A0%E7%89%A9%E8%AF%8A%E7%96%97%E4%B8%AD%E5%BF%83&src=vetmap&coordinate=gaode&callnative=1"},{"name":"唯宠动物医院(长盛南路店)","address":"万科·中央公园1期4号门东170米","phone":"18922545007;18938545807","category":"医疗保健服务;动物医疗场所;宠物诊所","area":"","lng":113.929308,"lat":22.936839,"amap_id":"B0H1UCY6UW","order":208,"prev_distance_km":0.099,"cumulative_distance_km":216.558,"amap_marker_url":"https://uri.amap.com/marker?position=113.929308,22.936839&name=%E5%94%AF%E5%AE%A0%E5%8A%A8%E7%89%A9%E5%8C%BB%E9%99%A2%28%E9%95%BF%E7%9B%9B%E5%8D%97%E8%B7%AF%E5%BA%97%29&src=vetmap&coordinate=gaode&callnative=1"},{"name":"爱德茂宠物医院·CT核磁·异宠·疑难内科(总院)","address":"东城街道大朗镇长塘社区长盛南路116号2室","phone":"18025253175","category":"医疗保健服务;动物医疗场所;宠物诊所","area":"","lng":113.930687,"lat":22.935834,"amap_id":"B0FFIP5LXL","order":209,"prev_distance_km":0.18,"cumulative_distance_km":216.738,"amap_marker_url":"https://uri.amap.com/marker?position=113.930687,22.935834&name=%E7%88%B1%E5%BE%B7%E8%8C%82%E5%AE%A0%E7%89%A9%E5%8C%BB%E9%99%A2%C2%B7CT%E6%A0%B8%E7%A3%81%C2%B7%E5%BC%82%E5%AE%A0%C2%B7%E7%96%91%E9%9A%BE%E5%86%85%E7%A7%91%28%E6%80%BB%E9%99%A2%29&src=vetmap&coordinate=gaode&callnative=1"},{"name":"尚阳动物医院","address":"大朗镇富民中路碧桂园首座18栋102铺","phone":"13380165234","category":"医疗保健服务;动物医疗场所;宠物诊所","area":"","lng":113.925326,"lat":22.936451,"amap_id":"B0IKAALK2L","order":210,"prev_distance_km":0.553,"cumulative_distance_km":217.291,"amap_marker_url":"https://uri.amap.com/marker?position=113.925326,22.936451&name=%E5%B0%9A%E9%98%B3%E5%8A%A8%E7%89%A9%E5%8C%BB%E9%99%A2&src=vetmap&coordinate=gaode&callnative=1"},{"name":"精灵城堡宠物诊疗中心","address":"大朗镇富民中路188号","phone":"13322605095","category":"医疗保健服务;动物医疗场所;宠物诊所","area":"","lng":113.924246,"lat":22.933606,"amap_id":"B0IKR7MOY2","order":211,"prev_distance_km":0.335,"cumulative_distance_km":217.626,"amap_marker_url":"https://uri.amap.com/marker?position=113.924246,22.933606&name=%E7%B2%BE%E7%81%B5%E5%9F%8E%E5%A0%A1%E5%AE%A0%E7%89%A9%E8%AF%8A%E7%96%97%E4%B8%AD%E5%BF%83&src=vetmap&coordinate=gaode&callnative=1"},{"name":"鹏爱宠物医院","address":"东城街道松佛路与大新路交叉口东80米","phone":"15307695562","category":"医疗保健服务;动物医疗场所;宠物诊所","area":"松佛路","lng":113.922001,"lat":22.930231,"amap_id":"B0JGCRQMO5","order":212,"prev_distance_km":0.44,"cumulative_distance_km":218.066,"amap_marker_url":"https://uri.amap.com/marker?position=113.922001,22.930231&name=%E9%B9%8F%E7%88%B1%E5%AE%A0%E7%89%A9%E5%8C%BB%E9%99%A2&src=vetmap&coordinate=gaode&callnative=1"},