{"summary":{"id":"d00530","province":"山西省","city":"运城市","district":"永济市","count":6,"total_distance_km":12.03,"coordinate_system":"GCJ-02 / Amap","generated_at":"2026-05-07 20:22:05"},"rows":[{"name":"民合兽药店","address":"任阳街道","phone":"","category":"医疗保健服务;动物医疗场所;动物医疗场所","area":"","lng":110.401306,"lat":34.84483,"amap_id":"B0M60DMAWZ","order":1,"prev_distance_km":0.0,"cumulative_distance_km":0.0,"amap_marker_url":"https://uri.amap.com/marker?position=110.401306,34.844830&name=%E6%B0%91%E5%90%88%E5%85%BD%E8%8D%AF%E5%BA%97&src=vetmap&coordinate=gaode&callnative=1"},{"name":"宠维宠物诊所","address":"城西街道蒲金苑1号楼一层10号门面房","phone":"16634089767","category":"医疗保健服务;动物医疗场所;宠物诊所","area":"","lng":110.439091,"lat":34.850619,"amap_id":"B0L1RUB8HY","order":2,"prev_distance_km":3.508,"cumulative_distance_km":3.508,"amap_marker_url":"https://uri.amap.com/marker?position=110.439091,34.850619&name=%E5%AE%A0%E7%BB%B4%E5%AE%A0%E7%89%A9%E8%AF%8A%E6%89%80&src=vetmap&coordinate=gaode&callnative=1"},{"name":"宠乐鑫宠物诊所","address":"城西街道河东大道圣泽苑小区圣泽西楼一单元5号门面房","phone":"15835968248","category":"医疗保健服务;动物医疗场所;宠物诊所","area":"","lng":110.436127,"lat":34.858464,"amap_id":"B0JRASKY7H","order":3,"prev_distance_km":0.913,"cumulative_distance_km":4.421,"amap_marker_url":"https://uri.amap.com/marker?position=110.436127,34.858464&name=%E5%AE%A0%E4%B9%90%E9%91%AB%E5%AE%A0%E7%89%A9%E8%AF%8A%E6%89%80&src=vetmap&coordinate=gaode&callnative=1"},{"name":"赛优宠物诊所(银杏东街)","address":"银杏东街158号","phone":"13934873737","category":"医疗保健服务;动物医疗场所;宠物诊所","area":"银杏街","lng":110.460717,"lat":34.862869,"amap_id":"B0FFHEPNMK","order":4,"prev_distance_km":2.296,"cumulative_distance_km":6.717,"amap_marker_url":"https://uri.amap.com/marker?position=110.460717,34.862869&name=%E8%B5%9B%E4%BC%98%E5%AE%A0%E7%89%A9%E8%AF%8A%E6%89%80%28%E9%93%B6%E6%9D%8F%E4%B8%9C%E8%A1%97%29&src=vetmap&coordinate=gaode&callnative=1"},{"name":"九戒畜牧服务部","address":"舜都大道510室","phone":"","category":"医疗保健服务;动物医疗场所;兽医站","area":"","lng":110.444298,"lat":34.887245,"amap_id":"B0LUOAKE0E","order":5,"prev_distance_km":3.097,"cumulative_distance_km":9.814,"amap_marker_url":"https://uri.amap.com/marker?position=110.444298,34.887245&name=%E4%B9%9D%E6%88%92%E7%95%9C%E7%89%A7%E6%9C%8D%E5%8A%A1%E9%83%A8&src=vetmap&coordinate=gaode&callnative=1"},{"name":"畜禽服务部","address":"职业中学斜对面第三第四门面","phone":"15235677070","category":"医疗保健服务;动物医疗场所;兽医站","area":"","lng":110.421638,"lat":34.880058,"amap_id":"B0K3JHCHG8","order":6,"prev_distance_km":2.216,"cumulative_distance_km":12.03,"amap_marker_url":"https://uri.amap.com/marker?position=110.421638,34.880058&name=%E7%95%9C%E7%A6%BD%E6%9C%8D%E5%8A%A1%E9%83%A8&src=vetmap&coordinate=gaode&callnative=1"}]}