{"summary":{"id":"d00523","province":"山西省","city":"朔州市","district":"朔城区","count":9,"route_count":1,"max_route_clinics":9,"total_distance_km":9.884,"coordinate_system":"GCJ-02 / Amap","generated_at":"2026-05-08 19:42:42"},"routes":[{"id":"r1","name":"第1段","count":9,"total_distance_km":9.884,"rows":[{"name":"宠禾动物诊所","address":"朔神路165号","phone":"","category":"医疗保健服务;动物医疗场所;宠物诊所","area":"","lng":112.468105,"lat":39.339036,"amap_id":"B0LKXGIQN7","order":1,"prev_distance_km":0.0,"cumulative_distance_km":0.0,"amap_marker_url":"https://uri.amap.com/marker?position=112.468105,39.339036&name=%E5%AE%A0%E7%A6%BE%E5%8A%A8%E7%89%A9%E8%AF%8A%E6%89%80&src=vetmap&coordinate=gaode&callnative=1","route_id":"r1","route_name":"第1段"},{"name":"爱宠宠物诊所","address":"佳和枫景小区西2门北130米","phone":"15035218905;15721611693","category":"医疗保健服务;动物医疗场所;宠物诊所","area":"朔州经济开发区","lng":112.455034,"lat":39.346571,"amap_id":"B0FFH9HN5L","order":2,"prev_distance_km":1.402,"cumulative_distance_km":1.402,"amap_marker_url":"https://uri.amap.com/marker?position=112.455034,39.346571&name=%E7%88%B1%E5%AE%A0%E5%AE%A0%E7%89%A9%E8%AF%8A%E6%89%80&src=vetmap&coordinate=gaode&callnative=1","route_id":"r1","route_name":"第1段"},{"name":"新小伙伴宠物医院(招远路店)","address":"招远路 8 号","phone":"15634931473","category":"医疗保健服务;动物医疗场所;宠物诊所","area":"文远路","lng":112.455074,"lat":39.344437,"amap_id":"B0FFGO7LCZ","order":3,"prev_distance_km":0.237,"cumulative_distance_km":1.639,"amap_marker_url":"https://uri.amap.com/marker?position=112.455074,39.344437&name=%E6%96%B0%E5%B0%8F%E4%BC%99%E4%BC%B4%E5%AE%A0%E7%89%A9%E5%8C%BB%E9%99%A2%28%E6%8B%9B%E8%BF%9C%E8%B7%AF%E5%BA%97%29&src=vetmap&coordinate=gaode&callnative=1","route_id":"r1","route_name":"第1段"},{"name":"德众联合宠物医院","address":"古北街文化活动中心西侧(中国人民银行正对面)","phone":"0349-8881577;15634910267","category":"医疗保健服务;动物医疗场所;宠物诊所","area":"古北街","lng":112.434269,"lat":39.326444,"amap_id":"B0K1BZN9BG","order":4,"prev_distance_km":2.684,"cumulative_distance_km":4.323,"amap_marker_url":"https://uri.amap.com/marker?position=112.434269,39.326444&name=%E5%BE%B7%E4%BC%97%E8%81%94%E5%90%88%E5%AE%A0%E7%89%A9%E5%8C%BB%E9%99%A2&src=vetmap&coordinate=gaode&callnative=1","route_id":"r1","route_name":"第1段"},{"name":"亲情宠物医院","address":"建新巷与操场街交叉口西100米","phone":"15234926682","category":"医疗保健服务;动物医疗场所;宠物诊所","area":"","lng":112.432648,"lat":39.316439,"amap_id":"B0FFJ2ECNV","order":5,"prev_distance_km":1.121,"cumulative_distance_km":5.445,"amap_marker_url":"https://uri.amap.com/marker?position=112.432648,39.316439&name=%E4%BA%B2%E6%83%85%E5%AE%A0%E7%89%A9%E5%8C%BB%E9%99%A2&src=vetmap&coordinate=gaode&callnative=1","route_id":"r1","route_name":"第1段"},{"name":"惠牧兽药中心","address":"雁门街与建设南路交叉口西260米","phone":"15834325987","category":"医疗保健服务;动物医疗场所;动物医疗场所","area":"建设路","lng":112.439275,"lat":39.309125,"amap_id":"B0LKBDT6R6","order":6,"prev_distance_km":0.993,"cumulative_distance_km":6.438,"amap_marker_url":"https://uri.amap.com/marker?position=112.439275,39.309125&name=%E6%83%A0%E7%89%A7%E5%85%BD%E8%8D%AF%E4%B8%AD%E5%BF%83&src=vetmap&coordinate=gaode&callnative=1","route_id":"r1","route_name":"第1段"},{"name":"牧康兽药店","address":"西门口城区二中往南","phone":"","category":"医疗保健服务;动物医疗场所;动物医疗场所","area":"马邑南路","lng":112.42249,"lat":39.311938,"amap_id":"B0J3M6ASV9","order":7,"prev_distance_km":1.478,"cumulative_distance_km":7.915,"amap_marker_url":"https://uri.amap.com/marker?position=112.422490,39.311938&name=%E7%89%A7%E5%BA%B7%E5%85%BD%E8%8D%AF%E5%BA%97&src=vetmap&coordinate=gaode&callnative=1","route_id":"r1","route_name":"第1段"},{"name":"伴旅宠物医院(名都店)","address":"伴旅宠物医院","phone":"15734989882","category":"医疗保健服务;动物医疗场所;宠物诊所","area":"","lng":112.417189,"lat":39.314573,"amap_id":"B0J0LLPECS","order":8,"prev_distance_km":0.542,"cumulative_distance_km":8.457,"amap_marker_url":"https://uri.amap.com/marker?position=112.417189,39.314573&name=%E4%BC%B4%E6%97%85%E5%AE%A0%E7%89%A9%E5%8C%BB%E9%99%A2%28%E5%90%8D%E9%83%BD%E5%BA%97%29&src=vetmap&coordinate=gaode&callnative=1","route_id":"r1","route_name":"第1段"},{"name":"朔职小精灵教学动物医院","address":"张辽路农校平房区二巷西5排1号","phone":"19311318877","category":"医疗保健服务;动物医疗场所;宠物诊所","area":"","lng":112.406491,"lat":39.304767,"amap_id":"B0L04HXB3Y","order":9,"prev_distance_km":1.427,"cumulative_distance_km":9.884,"amap_marker_url":"https://uri.amap.com/marker?position=112.406491,39.304767&name=%E6%9C%94%E8%81%8C%E5%B0%8F%E7%B2%BE%E7%81%B5%E6%95%99%E5%AD%A6%E5%8A%A8%E7%89%A9%E5%8C%BB%E9%99%A2&src=vetmap&coordinate=gaode&callnative=1","route_id":"r1","route_name":"第1段"}]}],"rows":[{"name":"宠禾动物诊所","address":"朔神路165号","phone":"","category":"医疗保健服务;动物医疗场所;宠物诊所","area":"","lng":112.468105,"lat":39.339036,"amap_id":"B0LKXGIQN7","order":1,"prev_distance_km":0.0,"cumulative_distance_km":0.0,"amap_marker_url":"https://uri.amap.com/marker?position=112.468105,39.339036&name=%E5%AE%A0%E7%A6%BE%E5%8A%A8%E7%89%A9%E8%AF%8A%E6%89%80&src=vetmap&coordinate=gaode&callnative=1","route_id":"r1","route_name":"第1段","global_order":1},{"name":"爱宠宠物诊所","address":"佳和枫景小区西2门北130米","phone":"15035218905;15721611693","category":"医疗保健服务;动物医疗场所;宠物诊所","area":"朔州经济开发区","lng":112.455034,"lat":39.346571,"amap_id":"B0FFH9HN5L","order":2,"prev_distance_km":1.402,"cumulative_distance_km":1.402,"amap_marker_url":"https://uri.amap.com/marker?position=112.455034,39.346571&name=%E7%88%B1%E5%AE%A0%E5%AE%A0%E7%89%A9%E8%AF%8A%E6%89%80&src=vetmap&coordinate=gaode&callnative=1","route_id":"r1","route_name":"第1段","global_order":2},{"name":"新小伙伴宠物医院(招远路店)","address":"招远路 8 号","phone":"15634931473","category":"医疗保健服务;动物医疗场所;宠物诊所","area":"文远路","lng":112.455074,"lat":39.344437,"amap_id":"B0FFGO7LCZ","order":3,"prev_distance_km":0.237,"cumulative_distance_km":1.639,"amap_marker_url":"https://uri.amap.com/marker?position=112.455074,39.344437&name=%E6%96%B0%E5%B0%8F%E4%BC%99%E4%BC%B4%E5%AE%A0%E7%89%A9%E5%8C%BB%E9%99%A2%28%E6%8B%9B%E8%BF%9C%E8%B7%AF%E5%BA%97%29&src=vetmap&coordinate=gaode&callnative=1","route_id":"r1","route_name":"第1段","global_order":3},{"name":"德众联合宠物医院","address":"古北街文化活动中心西侧(中国人民银行正对面)","phone":"0349-8881577;15634910267","category":"医疗保健服务;动物医疗场所;宠物诊所","area":"古北街","lng":112.434269,"lat":39.326444,"amap_id":"B0K1BZN9BG","order":4,"prev_distance_km":2.684,"cumulative_distance_km":4.323,"amap_marker_url":"https://uri.amap.com/marker?position=112.434269,39.326444&name=%E5%BE%B7%E4%BC%97%E8%81%94%E5%90%88%E5%AE%A0%E7%89%A9%E5%8C%BB%E9%99%A2&src=vetmap&coordinate=gaode&callnative=1","route_id":"r1","route_name":"第1段","global_order":4},{"name":"亲情宠物医院","address":"建新巷与操场街交叉口西100米","phone":"15234926682","category":"医疗保健服务;动物医疗场所;宠物诊所","area":"","lng":112.432648,"lat":39.316439,"amap_id":"B0FFJ2ECNV","order":5,"prev_distance_km":1.121,"cumulative_distance_km":5.445,"amap_marker_url":"https://uri.amap.com/marker?position=112.432648,39.316439&name=%E4%BA%B2%E6%83%85%E5%AE%A0%E7%89%A9%E5%8C%BB%E9%99%A2&src=vetmap&coordinate=gaode&callnative=1","route_id":"r1","route_name":"第1段","global_order":5},{"name":"惠牧兽药中心","address":"雁门街与建设南路交叉口西260米","phone":"15834325987","category":"医疗保健服务;动物医疗场所;动物医疗场所","area":"建设路","lng":112.439275,"lat":39.309125,"amap_id":"B0LKBDT6R6","order":6,"prev_distance_km":0.993,"cumulative_distance_km":6.438,"amap_marker_url":"https://uri.amap.com/marker?position=112.439275,39.309125&name=%E6%83%A0%E7%89%A7%E5%85%BD%E8%8D%AF%E4%B8%AD%E5%BF%83&src=vetmap&coordinate=gaode&callnative=1","route_id":"r1","route_name":"第1段","global_order":6},{"name":"牧康兽药店","address":"西门口城区二中往南","phone":"","category":"医疗保健服务;动物医疗场所;动物医疗场所","area":"马邑南路","lng":112.42249,"lat":39.311938,"amap_id":"B0J3M6ASV9","order":7,"prev_distance_km":1.478,"cumulative_distance_km":7.915,"amap_marker_url":"https://uri.amap.com/marker?position=112.422490,39.311938&name=%E7%89%A7%E5%BA%B7%E5%85%BD%E8%8D%AF%E5%BA%97&src=vetmap&coordinate=gaode&callnative=1","route_id":"r1","route_name":"第1段","global_order":7},{"name":"伴旅宠物医院(名都店)","address":"伴旅宠物医院","phone":"15734989882","category":"医疗保健服务;动物医疗场所;宠物诊所","area":"","lng":112.417189,"lat":39.314573,"amap_id":"B0J0LLPECS","order":8,"prev_distance_km":0.542,"cumulative_distance_km":8.457,"amap_marker_url":"https://uri.amap.com/marker?position=112.417189,39.314573&name=%E4%BC%B4%E6%97%85%E5%AE%A0%E7%89%A9%E5%8C%BB%E9%99%A2%28%E5%90%8D%E9%83%BD%E5%BA%97%29&src=vetmap&coordinate=gaode&callnative=1","route_id":"r1","route_name":"第1段","global_order":8},{"name":"朔职小精灵教学动物医院","address":"张辽路农校平房区二巷西5排1号","phone":"19311318877","category":"医疗保健服务;动物医疗场所;宠物诊所","area":"","lng":112.406491,"lat":39.304767,"amap_id":"B0L04HXB3Y","order":9,"prev_distance_km":1.427,"cumulative_distance_km":9.884,"amap_marker_url":"https://uri.amap.com/marker?position=112.406491,39.304767&name=%E6%9C%94%E8%81%8C%E5%B0%8F%E7%B2%BE%E7%81%B5%E6%95%99%E5%AD%A6%E5%8A%A8%E7%89%A9%E5%8C%BB%E9%99%A2&src=vetmap&coordinate=gaode&callnative=1","route_id":"r1","route_name":"第1段","global_order":9}]}