{"summary":{"id":"d00587","province":"广东省","city":"梅州市","district":"兴宁市","count":9,"total_distance_km":24.011,"coordinate_system":"GCJ-02 / Amap","generated_at":"2026-05-07 19:56:40"},"rows":[{"name":"兴宁市叶塘畜牧兽医站","address":"叶塘镇","phone":"","category":"医疗保健服务;动物医疗场所;兽医站","area":"","lng":115.668582,"lat":24.19053,"amap_id":"B02F103GPV","order":1,"prev_distance_km":0.0,"cumulative_distance_km":0.0,"amap_marker_url":"https://uri.amap.com/marker?position=115.668582,24.190530&name=%E5%85%B4%E5%AE%81%E5%B8%82%E5%8F%B6%E5%A1%98%E7%95%9C%E7%89%A7%E5%85%BD%E5%8C%BB%E7%AB%99&src=vetmap&coordinate=gaode&callnative=1"},{"name":"梅州市金绿动物保健有限公司","address":"016县道与270乡道交叉口南280米","phone":"","category":"医疗保健服务;动物医疗场所;动物医疗场所","area":"","lng":115.719057,"lat":24.193585,"amap_id":"B0K3MCL5PR","order":2,"prev_distance_km":5.131,"cumulative_distance_km":5.131,"amap_marker_url":"https://uri.amap.com/marker?position=115.719057,24.193585&name=%E6%A2%85%E5%B7%9E%E5%B8%82%E9%87%91%E7%BB%BF%E5%8A%A8%E7%89%A9%E4%BF%9D%E5%81%A5%E6%9C%89%E9%99%90%E5%85%AC%E5%8F%B8&src=vetmap&coordinate=gaode&callnative=1"},{"name":"兴宁市畜牧服务部","address":"新盛路与兴田二路交叉口东南20米","phone":"0753-3393541","category":"医疗保健服务;动物医疗场所;兽医站","area":"新兴大道","lng":115.726364,"lat":24.152649,"amap_id":"B0FFIZXQIL","order":3,"prev_distance_km":4.612,"cumulative_distance_km":9.743,"amap_marker_url":"https://uri.amap.com/marker?position=115.726364,24.152649&name=%E5%85%B4%E5%AE%81%E5%B8%82%E7%95%9C%E7%89%A7%E6%9C%8D%E5%8A%A1%E9%83%A8&src=vetmap&coordinate=gaode&callnative=1"},{"name":"兴宁市裕兴畜禽服务部","address":"官汕四路54号","phone":"0753-3383321;13923003258","category":"医疗保健服务;动物医疗场所;兽医站","area":"东城","lng":115.737755,"lat":24.147076,"amap_id":"B0FFFDT6JC","order":4,"prev_distance_km":1.311,"cumulative_distance_km":11.054,"amap_marker_url":"https://uri.amap.com/marker?position=115.737755,24.147076&name=%E5%85%B4%E5%AE%81%E5%B8%82%E8%A3%95%E5%85%B4%E7%95%9C%E7%A6%BD%E6%9C%8D%E5%8A%A1%E9%83%A8&src=vetmap&coordinate=gaode&callnative=1"},{"name":"兴宁市畜牧兽医技术推广站","address":"南门坛路202号","phone":"0753-3256675","category":"医疗保健服务;动物医疗场所;兽医站","area":"兴田","lng":115.736761,"lat":24.131306,"amap_id":"B0FFG7WN1D","order":5,"prev_distance_km":1.756,"cumulative_distance_km":12.811,"amap_marker_url":"https://uri.amap.com/marker?position=115.736761,24.131306&name=%E5%85%B4%E5%AE%81%E5%B8%82%E7%95%9C%E7%89%A7%E5%85%BD%E5%8C%BB%E6%8A%80%E6%9C%AF%E6%8E%A8%E5%B9%BF%E7%AB%99&src=vetmap&coordinate=gaode&callnative=1"},{"name":"宠驿宠物诊所","address":"兴南大道北176-178","phone":"15876705090","category":"医疗保健服务;动物医疗场所;宠物诊所","area":"兴田","lng":115.732408,"lat":24.131113,"amap_id":"B0IAMZJQ83","order":6,"prev_distance_km":0.442,"cumulative_distance_km":13.253,"amap_marker_url":"https://uri.amap.com/marker?position=115.732408,24.131113&name=%E5%AE%A0%E9%A9%BF%E5%AE%A0%E7%89%A9%E8%AF%8A%E6%89%80&src=vetmap&coordinate=gaode&callnative=1"},{"name":"宠心邻宠物诊疗中心-24小时急诊","address":"丽园二路丽都新园A栋25卡门店","phone":"0753-3338806;13332708806","category":"医疗保健服务;动物医疗场所;宠物诊所","area":"","lng":115.732025,"lat":24.127575,"amap_id":"B0HGKDGVSF","order":7,"prev_distance_km":0.395,"cumulative_distance_km":13.648,"amap_marker_url":"https://uri.amap.com/marker?position=115.732025,24.127575&name=%E5%AE%A0%E5%BF%83%E9%82%BB%E5%AE%A0%E7%89%A9%E8%AF%8A%E7%96%97%E4%B8%AD%E5%BF%83-24%E5%B0%8F%E6%97%B6%E6%80%A5%E8%AF%8A&src=vetmap&coordinate=gaode&callnative=1"},{"name":"同盟宠物医院.急重症.心脏彩超","address":"宁江新城五期第三幢6号门店","phone":"13035770512;18023542032","category":"医疗保健服务;动物医疗场所;宠物诊所","area":"","lng":115.737585,"lat":24.116225,"amap_id":"B0JAK5KPA0","order":8,"prev_distance_km":1.382,"cumulative_distance_km":15.031,"amap_marker_url":"https://uri.amap.com/marker?position=115.737585,24.116225&name=%E5%90%8C%E7%9B%9F%E5%AE%A0%E7%89%A9%E5%8C%BB%E9%99%A2.%E6%80%A5%E9%87%8D%E7%97%87.%E5%BF%83%E8%84%8F%E5%BD%A9%E8%B6%85&src=vetmap&coordinate=gaode&callnative=1"},{"name":"畜牧服务部","address":"市场路与陂坊西路交叉口南20米","phone":"","category":"医疗保健服务;动物医疗场所;兽医站","area":"","lng":115.816844,"lat":24.080336,"amap_id":"B0J1JKL3MR","order":9,"prev_distance_km":8.98,"cumulative_distance_km":24.011,"amap_marker_url":"https://uri.amap.com/marker?position=115.816844,24.080336&name=%E7%95%9C%E7%89%A7%E6%9C%8D%E5%8A%A1%E9%83%A8&src=vetmap&coordinate=gaode&callnative=1"}]}