{"summary":{"id":"d00544","province":"山西省","city":"长治市","district":"潞州区","count":33,"total_distance_km":44.162,"coordinate_system":"GCJ-02 / Amap","generated_at":"2026-05-07 19:56:35"},"rows":[{"name":"顾宠动物诊疗中心(柏后店)","address":"柏后小区-南区北门旁","phone":"","category":"医疗保健服务;动物医疗场所;宠物诊所","area":"","lng":113.14532,"lat":36.202474,"amap_id":"B0J2PM6993","order":1,"prev_distance_km":0.0,"cumulative_distance_km":0.0,"amap_marker_url":"https://uri.amap.com/marker?position=113.145320,36.202474&name=%E9%A1%BE%E5%AE%A0%E5%8A%A8%E7%89%A9%E8%AF%8A%E7%96%97%E4%B8%AD%E5%BF%83%28%E6%9F%8F%E5%90%8E%E5%BA%97%29&src=vetmap&coordinate=gaode&callnative=1"},{"name":"艺博宠物医院","address":"云步街1号楼","phone":"15703455557","category":"医疗保健服务;动物医疗场所;宠物诊所","area":"云步街","lng":113.125949,"lat":36.1949,"amap_id":"B0JK9UFH51","order":2,"prev_distance_km":1.931,"cumulative_distance_km":1.931,"amap_marker_url":"https://uri.amap.com/marker?position=113.125949,36.194900&name=%E8%89%BA%E5%8D%9A%E5%AE%A0%E7%89%A9%E5%8C%BB%E9%99%A2&src=vetmap&coordinate=gaode&callnative=1"},{"name":"宠信动物诊疗中心","address":"云步街6号楼20号商铺","phone":"18635563080","category":"医疗保健服务;动物医疗场所;宠物诊所","area":"紫金西街","lng":113.126862,"lat":36.193761,"amap_id":"B0FFKYDVSX","order":3,"prev_distance_km":0.151,"cumulative_distance_km":2.082,"amap_marker_url":"https://uri.amap.com/marker?position=113.126862,36.193761&name=%E5%AE%A0%E4%BF%A1%E5%8A%A8%E7%89%A9%E8%AF%8A%E7%96%97%E4%B8%AD%E5%BF%83&src=vetmap&coordinate=gaode&callnative=1"},{"name":"南方宠物医院","address":"八一家苑北区南门旁","phone":"0355-2171202;17636369828","category":"医疗保健服务;动物医疗场所;宠物诊所","area":"府后东街","lng":113.12682,"lat":36.185817,"amap_id":"B0FFGOUDSR","order":4,"prev_distance_km":0.883,"cumulative_distance_km":2.966,"amap_marker_url":"https://uri.amap.com/marker?position=113.126820,36.185817&name=%E5%8D%97%E6%96%B9%E5%AE%A0%E7%89%A9%E5%8C%BB%E9%99%A2&src=vetmap&coordinate=gaode&callnative=1"},{"name":"南方鹏云宠物洗护","address":"府后东街八一佳苑南区五号商铺","phone":"15513111726;18534117505","category":"医疗保健服务;动物医疗场所;宠物诊所","area":"府后东街","lng":113.125184,"lat":36.185796,"amap_id":"B0J0VHQEXQ","order":5,"prev_distance_km":0.147,"cumulative_distance_km":3.112,"amap_marker_url":"https://uri.amap.com/marker?position=113.125184,36.185796&name=%E5%8D%97%E6%96%B9%E9%B9%8F%E4%BA%91%E5%AE%A0%E7%89%A9%E6%B4%97%E6%8A%A4&src=vetmap&coordinate=gaode&callnative=1"},{"name":"金宠园动物门诊","address":"英雄中路街道府后东街丰裕苑小区","phone":"18534032221","category":"医疗保健服务;动物医疗场所;宠物诊所","area":"延安中路","lng":113.124482,"lat":36.186579,"amap_id":"B0FFJRRYGO","order":6,"prev_distance_km":0.107,"cumulative_distance_km":3.22,"amap_marker_url":"https://uri.amap.com/marker?position=113.124482,36.186579&name=%E9%87%91%E5%AE%A0%E5%9B%AD%E5%8A%A8%E7%89%A9%E9%97%A8%E8%AF%8A&src=vetmap&coordinate=gaode&callnative=1"},{"name":"太行宠物门诊","address":"府后东街畜牧小区楼下241号","phone":"13509754823;13994603708","category":"医疗保健服务;动物医疗场所;宠物诊所","area":"府后东街","lng":113.124358,"lat":36.186619,"amap_id":"B0FFFRCNQF","order":7,"prev_distance_km":0.012,"cumulative_distance_km":3.232,"amap_marker_url":"https://uri.amap.com/marker?position=113.124358,36.186619&name=%E5%A4%AA%E8%A1%8C%E5%AE%A0%E7%89%A9%E9%97%A8%E8%AF%8A&src=vetmap&coordinate=gaode&callnative=1"},{"name":"长新农牧","address":"府后东街与延安中路交叉口东220米","phone":"","category":"医疗保健服务;动物医疗场所;动物医疗场所","area":"延安中路","lng":113.124209,"lat":36.186751,"amap_id":"B0J6PAWIKP","order":8,"prev_distance_km":0.02,"cumulative_distance_km":3.252,"amap_marker_url":"https://uri.amap.com/marker?position=113.124209,36.186751&name=%E9%95%BF%E6%96%B0%E5%86%9C%E7%89%A7&src=vetmap&coordinate=gaode&callnative=1"},{"name":"益康宠物店","address":"府后东街172号","phone":"13111259282","category":"医疗保健服务;动物医疗场所;宠物诊所","area":"延安中路","lng":113.12222,"lat":36.186802,"amap_id":"B0FFG2ALP1","order":9,"prev_distance_km":0.179,"cumulative_distance_km":3.43,"amap_marker_url":"https://uri.amap.com/marker?position=113.122220,36.186802&name=%E7%9B%8A%E5%BA%B7%E5%AE%A0%E7%89%A9%E5%BA%97&src=vetmap&coordinate=gaode&callnative=1"},{"name":"小布丁宠物门诊","address":"英雄南路街道炉房小区16b号楼1层1-2房","phone":"17535450088","category":"医疗保健服务;动物医疗场所;宠物诊所","area":"英雄中路沿线","lng":113.113553,"lat":36.180722,"amap_id":"B0LAPCADC2","order":10,"prev_distance_km":1.031,"cumulative_distance_km":4.461,"amap_marker_url":"https://uri.amap.com/marker?position=113.113553,36.180722&name=%E5%B0%8F%E5%B8%83%E4%B8%81%E5%AE%A0%E7%89%A9%E9%97%A8%E8%AF%8A&src=vetmap&coordinate=gaode&callnative=1"},{"name":"南方动物门诊(石头街店)","address":"石头街都市骏景小区3号楼西B单元1-2层B5-6号","phone":"13015460355","category":"医疗保健服务;动物医疗场所;宠物诊所","area":"长兴中路","lng":113.109721,"lat":36.179149,"amap_id":"B0FFJIAUWO","order":11,"prev_distance_km":0.386,"cumulative_distance_km":4.847,"amap_marker_url":"https://uri.amap.com/marker?position=113.109721,36.179149&name=%E5%8D%97%E6%96%B9%E5%8A%A8%E7%89%A9%E9%97%A8%E8%AF%8A%28%E7%9F%B3%E5%A4%B4%E8%A1%97%E5%BA%97%29&src=vetmap&coordinate=gaode&callnative=1"},{"name":"康美宠物医院(南街店)","address":"英雄南路街道解放东街华东小区2号楼","phone":"0355-2082040","category":"医疗保健服务;动物医疗场所;宠物诊所","area":"解放东街","lng":113.108389,"lat":36.174362,"amap_id":"B0FFK1QQN5","order":12,"prev_distance_km":0.546,"cumulative_distance_km":5.392,"amap_marker_url":"https://uri.amap.com/marker?position=113.108389,36.174362&name=%E5%BA%B7%E7%BE%8E%E5%AE%A0%E7%89%A9%E5%8C%BB%E9%99%A2%28%E5%8D%97%E8%A1%97%E5%BA%97%29&src=vetmap&coordinate=gaode&callnative=1"},{"name":"宠爱有佳动物诊疗中心","address":"延安南路街道淮海七院14号楼22号商铺","phone":"13068068998;13097568908","category":"医疗保健服务;动物医疗场所;宠物诊所","area":"延安南路","lng":113.109857,"lat":36.160692,"amap_id":"B0J6MMBKAQ","order":13,"prev_distance_km":1.526,"cumulative_distance_km":6.918,"amap_marker_url":"https://uri.amap.com/marker?position=113.109857,36.160692&name=%E5%AE%A0%E7%88%B1%E6%9C%89%E4%BD%B3%E5%8A%A8%E7%89%A9%E8%AF%8A%E7%96%97%E4%B8%AD%E5%BF%83&src=vetmap&coordinate=gaode&callnative=1"},{"name":"南方宠物(淮海街店)","address":"淮海街淮海三院","phone":"18903451669","category":"医疗保健服务;动物医疗场所;宠物诊所","area":"淮海","lng":113.110299,"lat":36.160174,"amap_id":"B0FFF4CVJU","order":14,"prev_distance_km":0.07,"cumulative_distance_km":6.988,"amap_marker_url":"https://uri.amap.com/marker?position=113.110299,36.160174&name=%E5%8D%97%E6%96%B9%E5%AE%A0%E7%89%A9%28%E6%B7%AE%E6%B5%B7%E8%A1%97%E5%BA%97%29&src=vetmap&coordinate=gaode&callnative=1"},{"name":"卢氏动物诊所","address":"潞阳门南路与清华街交叉口西南100米","phone":"","category":"医疗保健服务;动物医疗场所;宠物诊所","area":"清华","lng":113.12228,"lat":36.154936,"amap_id":"B0J3J1YT2F","order":15,"prev_distance_km":1.223,"cumulative_distance_km":8.211,"amap_marker_url":"https://uri.amap.com/marker?position=113.122280,36.154936&name=%E5%8D%A2%E6%B0%8F%E5%8A%A8%E7%89%A9%E8%AF%8A%E6%89%80&src=vetmap&coordinate=gaode&callnative=1"},{"name":"长治市宠福星动物医院有限公司","address":"潞阳门南路焦家庄村东86号","phone":"15535587581;17560655453","category":"医疗保健服务;动物医疗场所;宠物诊所","area":"","lng":113.122989,"lat":36.149366,"amap_id":"B0LAAMEZDU","order":16,"prev_distance_km":0.623,"cumulative_distance_km":8.834,"amap_marker_url":"https://uri.amap.com/marker?position=113.122989,36.149366&name=%E9%95%BF%E6%B2%BB%E5%B8%82%E5%AE%A0%E7%A6%8F%E6%98%9F%E5%8A%A8%E7%89%A9%E5%8C%BB%E9%99%A2%E6%9C%89%E9%99%90%E5%85%AC%E5%8F%B8&src=vetmap&coordinate=gaode&callnative=1"},{"name":"精灵宠物门诊","address":"清华街富力尚悦居A5-110商铺","phone":"17663736171","category":"医疗保健服务;动物医疗场所;宠物诊所","area":"","lng":113.106912,"lat":36.155719,"amap_id":"B0I0CSE7V1","order":17,"prev_distance_km":1.607,"cumulative_distance_km":10.441,"amap_marker_url":"https://uri.amap.com/marker?position=113.106912,36.155719&name=%E7%B2%BE%E7%81%B5%E5%AE%A0%E7%89%A9%E9%97%A8%E8%AF%8A&src=vetmap&coordinate=gaode&callnative=1"},{"name":"叮叮愈宠社动物门诊","address":"富力尚悦居B区北门5-117号","phone":"17634058170;17636398780","category":"医疗保健服务;动物医疗场所;宠物诊所","area":"","lng":113.104789,"lat":36.155868,"amap_id":"B0LDG9DNC4","order":18,"prev_distance_km":0.191,"cumulative_distance_km":10.632,"amap_marker_url":"https://uri.amap.com/marker?position=113.104789,36.155868&name=%E5%8F%AE%E5%8F%AE%E6%84%88%E5%AE%A0%E7%A4%BE%E5%8A%A8%E7%89%A9%E9%97%A8%E8%AF%8A&src=vetmap&coordinate=gaode&callnative=1"},{"name":"长治宠物大院","address":"西义街1号","phone":"15935896964","category":"医疗保健服务;动物医疗场所;宠物诊所","area":"","lng":113.075967,"lat":36.167558,"amap_id":"B0LROZWACL","order":19,"prev_distance_km":2.896,"cumulative_distance_km":13.528,"amap_marker_url":"https://uri.amap.com/marker?position=113.075967,36.167558&name=%E9%95%BF%E6%B2%BB%E5%AE%A0%E7%89%A9%E5%A4%A7%E9%99%A2&src=vetmap&coordinate=gaode&callnative=1"},{"name":"宠物自助洗护","address":"天晚集南路与解放西街交叉口南180米","phone":"","category":"医疗保健服务;动物医疗场所;动物医疗场所","area":"和平","lng":113.100186,"lat":36.17543,"amap_id":"B0L0JXGNVX","order":20,"prev_distance_km":2.344,"cumulative_distance_km":15.871,"amap_marker_url":"https://uri.amap.com/marker?position=113.100186,36.175430&name=%E5%AE%A0%E7%89%A9%E8%87%AA%E5%8A%A9%E6%B4%97%E6%8A%A4&src=vetmap&coordinate=gaode&callnative=1"},{"name":"沅心宠物药店","address":"中港广场近水楼台路北商铺2号房","phone":"18635524355","category":"医疗保健服务;动物医疗场所;宠物诊所","area":"城西路沿线","lng":113.102147,"lat":36.192716,"amap_id":"B0LKUHYIZC","order":21,"prev_distance_km":1.93,"cumulative_distance_km":17.802,"amap_marker_url":"https://uri.amap.com/marker?position=113.102147,36.192716&name=%E6%B2%85%E5%BF%83%E5%AE%A0%E7%89%A9%E8%8D%AF%E5%BA%97&src=vetmap&coordinate=gaode&callnative=1"},{"name":"永康动物医院","address":"邱村口紫金城1号楼底商","phone":"13015468089","category":"医疗保健服务;动物医疗场所;宠物诊所","area":"紫金西街","lng":113.087735,"lat":36.202452,"amap_id":"B0GKX9HG43","order":22,"prev_distance_km":1.687,"cumulative_distance_km":19.488,"amap_marker_url":"https://uri.amap.com/marker?position=113.087735,36.202452&name=%E6%B0%B8%E5%BA%B7%E5%8A%A8%E7%89%A9%E5%8C%BB%E9%99%A2&src=vetmap&coordinate=gaode&callnative=1"},{"name":"逸宠宠物","address":"西环路与保宁门西街交叉口西300米","phone":"","category":"医疗保健服务;动物医疗场所;动物医疗场所","area":"","lng":113.089675,"lat":36.216275,"amap_id":"B0LDTO4DO4","order":23,"prev_distance_km":1.547,"cumulative_distance_km":21.035,"amap_marker_url":"https://uri.amap.com/marker?position=113.089675,36.216275&name=%E9%80%B8%E5%AE%A0%E5%AE%A0%E7%89%A9&src=vetmap&coordinate=gaode&callnative=1"},{"name":"悠米动物诊疗中心","address":"保宁门西街世纪嘉园B1号楼1层270号","phone":"13134655988","category":"医疗保健服务;动物医疗场所;宠物诊所","area":"","lng":113.0957,"lat":36.21558,"amap_id":"B0HD0MWR90","order":24,"prev_distance_km":0.546,"cumulative_distance_km":21.581,"amap_marker_url":"https://uri.amap.com/marker?position=113.095700,36.215580&name=%E6%82%A0%E7%B1%B3%E5%8A%A8%E7%89%A9%E8%AF%8A%E7%96%97%E4%B8%AD%E5%BF%83&src=vetmap&coordinate=gaode&callnative=1"},{"name":"贝康动物诊疗中心","address":"保宁门西街南侧世纪嘉园北门商铺246号","phone":"15934050554","category":"医疗保健服务;动物医疗场所;宠物诊所","area":"","lng":113.096418,"lat":36.215515,"amap_id":"B0HGRAO2FJ","order":25,"prev_distance_km":0.065,"cumulative_distance_km":21.646,"amap_marker_url":"https://uri.amap.com/marker?position=113.096418,36.215515&name=%E8%B4%9D%E5%BA%B7%E5%8A%A8%E7%89%A9%E8%AF%8A%E7%96%97%E4%B8%AD%E5%BF%83&src=vetmap&coordinate=gaode&callnative=1"},{"name":"嘉可宠物医院","address":"双创女人街159号","phone":"19106751887","category":"医疗保健服务;动物医疗场所;宠物诊所","area":"城西北路","lng":113.102204,"lat":36.211853,"amap_id":"B0J1YAGWVG","order":26,"prev_distance_km":0.66,"cumulative_distance_km":22.306,"amap_marker_url":"https://uri.amap.com/marker?position=113.102204,36.211853&name=%E5%98%89%E5%8F%AF%E5%AE%A0%E7%89%A9%E5%8C%BB%E9%99%A2&src=vetmap&coordinate=gaode&callnative=1"},{"name":"南方动物诊所(佳美绿洲店)","address":"佳美绿洲北2门旁","phone":"15333556496","category":"医疗保健服务;动物医疗场所;宠物诊所","area":"飞龙","lng":113.115627,"lat":36.212367,"amap_id":"B0FFJRBJCH","order":27,"prev_distance_km":1.206,"cumulative_distance_km":23.511,"amap_marker_url":"https://uri.amap.com/marker?position=113.115627,36.212367&name=%E5%8D%97%E6%96%B9%E5%8A%A8%E7%89%A9%E8%AF%8A%E6%89%80%28%E4%BD%B3%E7%BE%8E%E7%BB%BF%E6%B4%B2%E5%BA%97%29&src=vetmap&coordinate=gaode&callnative=1"},{"name":"爱垚动物医院","address":"保宁门西街中心血站东300米佳美绿洲对面","phone":"","category":"医疗保健服务;动物医疗场所;宠物诊所","area":"","lng":113.115945,"lat":36.213155,"amap_id":"B0JRMOMTON","order":28,"prev_distance_km":0.092,"cumulative_distance_km":23.603,"amap_marker_url":"https://uri.amap.com/marker?position=113.115945,36.213155&name=%E7%88%B1%E5%9E%9A%E5%8A%A8%E7%89%A9%E5%8C%BB%E9%99%A2&src=vetmap&coordinate=gaode&callnative=1"},{"name":"康美宠物诊疗中心","address":"潞州区高新区捉马西大街日新家园北区18号","phone":"13152951327","category":"医疗保健服务;动物医疗场所;宠物诊所","area":"","lng":113.120119,"lat":36.217331,"amap_id":"B0G2NS22S4","order":29,"prev_distance_km":0.597,"cumulative_distance_km":24.2,"amap_marker_url":"https://uri.amap.com/marker?position=113.120119,36.217331&name=%E5%BA%B7%E7%BE%8E%E5%AE%A0%E7%89%A9%E8%AF%8A%E7%96%97%E4%B8%AD%E5%BF%83&src=vetmap&coordinate=gaode&callnative=1"},{"name":"安馨宠物诊所","address":"裕警苑10号楼车库","phone":"","category":"医疗保健服务;动物医疗场所;宠物诊所","area":"","lng":113.133308,"lat":36.224541,"amap_id":"B0KDG7JG6B","order":30,"prev_distance_km":1.429,"cumulative_distance_km":25.629,"amap_marker_url":"https://uri.amap.com/marker?position=113.133308,36.224541&name=%E5%AE%89%E9%A6%A8%E5%AE%A0%E7%89%A9%E8%AF%8A%E6%89%80&src=vetmap&coordinate=gaode&callnative=1"},{"name":"小伙伴宠物医院(沁芳苑北门店)","address":"沁芳苑小区北门23号商铺","phone":"0355-2090120;13028079975","category":"医疗保健服务;动物医疗场所;宠物诊所","area":"","lng":113.116758,"lat":36.222482,"amap_id":"B0FFLEKLJI","order":31,"prev_distance_km":1.502,"cumulative_distance_km":27.131,"amap_marker_url":"https://uri.amap.com/marker?position=113.116758,36.222482&name=%E5%B0%8F%E4%BC%99%E4%BC%B4%E5%AE%A0%E7%89%A9%E5%8C%BB%E9%99%A2%28%E6%B2%81%E8%8A%B3%E8%8B%91%E5%8C%97%E9%97%A8%E5%BA%97%29&src=vetmap&coordinate=gaode&callnative=1"},{"name":"长治恒爱动物诊所","address":"锦鑫苑一号楼7号商铺","phone":"18235534681","category":"医疗保健服务;动物医疗场所;宠物诊所","area":"城西北路","lng":113.111751,"lat":36.223887,"amap_id":"B0FFLK0C8X","order":32,"prev_distance_km":0.476,"cumulative_distance_km":27.607,"amap_marker_url":"https://uri.amap.com/marker?position=113.111751,36.223887&name=%E9%95%BF%E6%B2%BB%E6%81%92%E7%88%B1%E5%8A%A8%E7%89%A9%E8%AF%8A%E6%89%80&src=vetmap&coordinate=gaode&callnative=1"},{"name":"宠物诊所","address":"钢城大街85号奇奇宠物店旁边","phone":"18636515637","category":"医疗保健服务;动物医疗场所;宠物诊所","area":"","lng":113.044228,"lat":36.362464,"amap_id":"B0KDRD13UK","order":33,"prev_distance_km":16.555,"cumulative_distance_km":44.162,"amap_marker_url":"https://uri.amap.com/marker?position=113.044228,36.362464&name=%E5%AE%A0%E7%89%A9%E8%AF%8A%E6%89%80&src=vetmap&coordinate=gaode&callnative=1"}]}