{"summary":{"id":"d00525","province":"山西省","city":"运城市","district":"临猗县","count":9,"total_distance_km":32.415,"coordinate_system":"GCJ-02 / Amap","generated_at":"2026-05-07 20:22:05"},"rows":[{"name":"动物门诊","address":"临晋汽车站往东10米","phone":"13834481775;15835994848","category":"医疗保健服务;动物医疗场所;宠物诊所","area":"","lng":110.557247,"lat":35.092092,"amap_id":"B0FFJ4LLSZ","order":1,"prev_distance_km":0.0,"cumulative_distance_km":0.0,"amap_marker_url":"https://uri.amap.com/marker?position=110.557247,35.092092&name=%E5%8A%A8%E7%89%A9%E9%97%A8%E8%AF%8A&src=vetmap&coordinate=gaode&callnative=1"},{"name":"临晋兽医站","address":"日凤线与王开线交叉口东220米","phone":"0359-4322372;13503591765","category":"医疗保健服务;动物医疗场所;兽医站","area":"","lng":110.558498,"lat":35.092075,"amap_id":"B0FFFV9KNK","order":2,"prev_distance_km":0.114,"cumulative_distance_km":0.114,"amap_marker_url":"https://uri.amap.com/marker?position=110.558498,35.092075&name=%E4%B8%B4%E6%99%8B%E5%85%BD%E5%8C%BB%E7%AB%99&src=vetmap&coordinate=gaode&callnative=1"},{"name":"德尚动物医院","address":"南环西路1050号畜牧大楼临猗县畜牧兽医局附近","phone":"13834730867","category":"医疗保健服务;动物医疗场所;宠物诊所","area":"","lng":110.765451,"lat":35.135845,"amap_id":"B0FFIML96D","order":3,"prev_distance_km":19.443,"cumulative_distance_km":19.557,"amap_marker_url":"https://uri.amap.com/marker?position=110.765451,35.135845&name=%E5%BE%B7%E5%B0%9A%E5%8A%A8%E7%89%A9%E5%8C%BB%E9%99%A2&src=vetmap&coordinate=gaode&callnative=1"},{"name":"张霞博爱动物诊所","address":"南环西路1050号畜牧大楼临猗县畜牧兽医局附近","phone":"13603592180","category":"医疗保健服务;动物医疗场所;宠物诊所","area":"","lng":110.766275,"lat":35.135825,"amap_id":"B01670M4QF","order":4,"prev_distance_km":0.075,"cumulative_distance_km":19.632,"amap_marker_url":"https://uri.amap.com/marker?position=110.766275,35.135825&name=%E5%BC%A0%E9%9C%9E%E5%8D%9A%E7%88%B1%E5%8A%A8%E7%89%A9%E8%AF%8A%E6%89%80&src=vetmap&coordinate=gaode&callnative=1"},{"name":"波波兽药饲料门市部","address":"五一南路与合欢西街交叉口东南160米","phone":"0359-2330539;15735372063","category":"医疗保健服务;动物医疗场所;兽医站","area":"","lng":110.773716,"lat":35.1325,"amap_id":"B0FFGXR9FK","order":5,"prev_distance_km":0.771,"cumulative_distance_km":20.403,"amap_marker_url":"https://uri.amap.com/marker?position=110.773716,35.132500&name=%E6%B3%A2%E6%B3%A2%E5%85%BD%E8%8D%AF%E9%A5%B2%E6%96%99%E9%97%A8%E5%B8%82%E9%83%A8&src=vetmap&coordinate=gaode&callnative=1"},{"name":"临猗县猗氏兽医中心站","address":"五一南路68号","phone":"13834468853;13834481155","category":"医疗保健服务;动物医疗场所;兽医站","area":"","lng":110.769686,"lat":35.141412,"amap_id":"B01670M407","order":6,"prev_distance_km":1.057,"cumulative_distance_km":21.46,"amap_marker_url":"https://uri.amap.com/marker?position=110.769686,35.141412&name=%E4%B8%B4%E7%8C%97%E5%8E%BF%E7%8C%97%E6%B0%8F%E5%85%BD%E5%8C%BB%E4%B8%AD%E5%BF%83%E7%AB%99&src=vetmap&coordinate=gaode&callnative=1"},{"name":"爱它宠医","address":"鑫东方绿城6号门面房爱它宠医","phone":"","category":"医疗保健服务;动物医疗场所;宠物诊所","area":"","lng":110.79565,"lat":35.14793,"amap_id":"B0J1FC97LH","order":7,"prev_distance_km":2.47,"cumulative_distance_km":23.929,"amap_marker_url":"https://uri.amap.com/marker?position=110.795650,35.147930&name=%E7%88%B1%E5%AE%83%E5%AE%A0%E5%8C%BB&src=vetmap&coordinate=gaode&callnative=1"},{"name":"狗爸狗妈宠物美容中心","address":"山西思诺电气有限公司东南侧260米","phone":"","category":"医疗保健服务;动物医疗场所;宠物诊所","area":"","lng":110.790949,"lat":35.150584,"amap_id":"B0FFHTRKJ6","order":8,"prev_distance_km":0.519,"cumulative_distance_km":24.449,"amap_marker_url":"https://uri.amap.com/marker?position=110.790949,35.150584&name=%E7%8B%97%E7%88%B8%E7%8B%97%E5%A6%88%E5%AE%A0%E7%89%A9%E7%BE%8E%E5%AE%B9%E4%B8%AD%E5%BF%83&src=vetmap&coordinate=gaode&callnative=1"},{"name":"北景乡畜牧兽医站","address":"苏北线与816县道交叉口北120米","phone":"","category":"医疗保健服务;动物医疗场所;兽医站","area":"","lng":110.744383,"lat":35.211286,"amap_id":"B01670MAUJ","order":9,"prev_distance_km":7.967,"cumulative_distance_km":32.415,"amap_marker_url":"https://uri.amap.com/marker?position=110.744383,35.211286&name=%E5%8C%97%E6%99%AF%E4%B9%A1%E7%95%9C%E7%89%A7%E5%85%BD%E5%8C%BB%E7%AB%99&src=vetmap&coordinate=gaode&callnative=1"}]}