{"summary":{"id":"d00594","province":"广东省","city":"汕头市","district":"潮阳区","count":18,"total_distance_km":52.658,"coordinate_system":"GCJ-02 / Amap","generated_at":"2026-05-07 19:56:40"},"rows":[{"name":"东凤兽医","address":"东凤村胶兰路","phone":"0754-83326399;13692060317","category":"医疗保健服务;动物医疗场所;兽医站","area":"","lng":116.513234,"lat":23.397937,"amap_id":"B0FFH763E4","order":1,"prev_distance_km":0.0,"cumulative_distance_km":0.0,"amap_marker_url":"https://uri.amap.com/marker?position=116.513234,23.397937&name=%E4%B8%9C%E5%87%A4%E5%85%BD%E5%8C%BB&src=vetmap&coordinate=gaode&callnative=1"},{"name":"兽医水产药","address":"潮揭路与西兴路交叉口西北440米","phone":"","category":"医疗保健服务;动物医疗场所;兽医站","area":"","lng":116.497579,"lat":23.385487,"amap_id":"B0FFKG06IX","order":2,"prev_distance_km":2.114,"cumulative_distance_km":2.114,"amap_marker_url":"https://uri.amap.com/marker?position=116.497579,23.385487&name=%E5%85%BD%E5%8C%BB%E6%B0%B4%E4%BA%A7%E8%8D%AF&src=vetmap&coordinate=gaode&callnative=1"},{"name":"中创爱宠宠物(谷饶店)","address":"谷饶镇上堡谷华路95号西幢1号商铺","phone":"18023209998","category":"医疗保健服务;动物医疗场所;动物医疗场所","area":"","lng":116.414286,"lat":23.356507,"amap_id":"B0L2FX1X5P","order":3,"prev_distance_km":9.092,"cumulative_distance_km":11.206,"amap_marker_url":"https://uri.amap.com/marker?position=116.414286,23.356507&name=%E4%B8%AD%E5%88%9B%E7%88%B1%E5%AE%A0%E5%AE%A0%E7%89%A9%28%E8%B0%B7%E9%A5%B6%E5%BA%97%29&src=vetmap&coordinate=gaode&callnative=1"},{"name":"关爱宠物诊疗","address":"谷饶镇上堡谷贵路茂广段35号","phone":"13286408120","category":"医疗保健服务;动物医疗场所;宠物诊所","area":"","lng":116.408569,"lat":23.349512,"amap_id":"B0GRXA7RV4","order":4,"prev_distance_km":0.972,"cumulative_distance_km":12.179,"amap_marker_url":"https://uri.amap.com/marker?position=116.408569,23.349512&name=%E5%85%B3%E7%88%B1%E5%AE%A0%E7%89%A9%E8%AF%8A%E7%96%97&src=vetmap&coordinate=gaode&callnative=1"},{"name":"嘉宠动物医院(谷贵路店)","address":"华里谷贵路162号","phone":"18675667711","category":"医疗保健服务;动物医疗场所;宠物诊所","area":"","lng":116.419219,"lat":23.341608,"amap_id":"B0J1L7VT6C","order":5,"prev_distance_km":1.398,"cumulative_distance_km":13.577,"amap_marker_url":"https://uri.amap.com/marker?position=116.419219,23.341608&name=%E5%98%89%E5%AE%A0%E5%8A%A8%E7%89%A9%E5%8C%BB%E9%99%A2%28%E8%B0%B7%E8%B4%B5%E8%B7%AF%E5%BA%97%29&src=vetmap&coordinate=gaode&callnative=1"},{"name":"景合宠物医院(谷饶院)","address":"东升新世界花园2栋1-2号商铺","phone":"15994923206","category":"医疗保健服务;动物医疗场所;宠物诊所","area":"","lng":116.404536,"lat":23.339594,"amap_id":"B0L39HS65V","order":6,"prev_distance_km":1.516,"cumulative_distance_km":15.092,"amap_marker_url":"https://uri.amap.com/marker?position=116.404536,23.339594&name=%E6%99%AF%E5%90%88%E5%AE%A0%E7%89%A9%E5%8C%BB%E9%99%A2%28%E8%B0%B7%E9%A5%B6%E9%99%A2%29&src=vetmap&coordinate=gaode&callnative=1"},{"name":"有家动物医疗","address":"237省道与桂光路交叉口东南300米","phone":"13049095888;15916666682","category":"医疗保健服务;动物医疗场所;宠物诊所","area":"","lng":116.405175,"lat":23.337952,"amap_id":"B0K66HNQFT","order":7,"prev_distance_km":0.194,"cumulative_distance_km":15.286,"amap_marker_url":"https://uri.amap.com/marker?position=116.405175,23.337952&name=%E6%9C%89%E5%AE%B6%E5%8A%A8%E7%89%A9%E5%8C%BB%E7%96%97&src=vetmap&coordinate=gaode&callnative=1"},{"name":"瑞康宠物诊疗","address":"草南公路8-9号","phone":"13670499906;13970285462","category":"医疗保健服务;动物医疗场所;宠物诊所","area":"","lng":116.360139,"lat":23.311185,"amap_id":"B0L307KD04","order":8,"prev_distance_km":5.478,"cumulative_distance_km":20.764,"amap_marker_url":"https://uri.amap.com/marker?position=116.360139,23.311185&name=%E7%91%9E%E5%BA%B7%E5%AE%A0%E7%89%A9%E8%AF%8A%E7%96%97&src=vetmap&coordinate=gaode&callnative=1"},{"name":"乐宠宠物医院","address":"和平镇和惠路28-30号和美酒店斜对面中国工商银行正对面","phone":"13822860995","category":"医疗保健服务;动物医疗场所;宠物诊所","area":"","lng":116.470727,"lat":23.250681,"amap_id":"B0GD779521","order":9,"prev_distance_km":13.147,"cumulative_distance_km":33.911,"amap_marker_url":"https://uri.amap.com/marker?position=116.470727,23.250681&name=%E4%B9%90%E5%AE%A0%E5%AE%A0%E7%89%A9%E5%8C%BB%E9%99%A2&src=vetmap&coordinate=gaode&callnative=1"},{"name":"老狗门·宠物医院·犬猫专科(和平店)","address":"新和惠公路与和中路交叉口东南200米","phone":"13682963440","category":"医疗保健服务;动物医疗场所;宠物诊所","area":"","lng":116.472533,"lat":23.246494,"amap_id":"B0L019GGFH","order":10,"prev_distance_km":0.501,"cumulative_distance_km":34.412,"amap_marker_url":"https://uri.amap.com/marker?position=116.472533,23.246494&name=%E8%80%81%E7%8B%97%E9%97%A8%C2%B7%E5%AE%A0%E7%89%A9%E5%8C%BB%E9%99%A2%C2%B7%E7%8A%AC%E7%8C%AB%E4%B8%93%E7%A7%91%28%E5%92%8C%E5%B9%B3%E5%BA%97%29&src=vetmap&coordinate=gaode&callnative=1"},{"name":"班卓明宠物诊疗(金丰和平广场店)","address":"和平镇卜蜂莲花金丰广场102号","phone":"17520602767","category":"医疗保健服务;动物医疗场所;宠物诊所","area":"","lng":116.473656,"lat":23.232523,"amap_id":"B0H06SEG2T","order":11,"prev_distance_km":1.558,"cumulative_distance_km":35.97,"amap_marker_url":"https://uri.amap.com/marker?position=116.473656,23.232523&name=%E7%8F%AD%E5%8D%93%E6%98%8E%E5%AE%A0%E7%89%A9%E8%AF%8A%E7%96%97%28%E9%87%91%E4%B8%B0%E5%92%8C%E5%B9%B3%E5%B9%BF%E5%9C%BA%E5%BA%97%29&src=vetmap&coordinate=gaode&callnative=1"},{"name":"家萌宠物诊疗和平店","address":"新和惠路老和惠路交界处875-877号","phone":"13726541456","category":"医疗保健服务;动物医疗场所;宠物诊所","area":"","lng":116.476257,"lat":23.234234,"amap_id":"B0L2FH1TPT","order":12,"prev_distance_km":0.327,"cumulative_distance_km":36.297,"amap_marker_url":"https://uri.amap.com/marker?position=116.476257,23.234234&name=%E5%AE%B6%E8%90%8C%E5%AE%A0%E7%89%A9%E8%AF%8A%E7%96%97%E5%92%8C%E5%B9%B3%E5%BA%97&src=vetmap&coordinate=gaode&callnative=1"},{"name":"瑞幼宠物","address":"新风东路桥边","phone":"","category":"医疗保健服务;动物医疗场所;宠物诊所","area":"","lng":116.481563,"lat":23.24619,"amap_id":"B0KKXD4ZEC","order":13,"prev_distance_km":1.436,"cumulative_distance_km":37.732,"amap_marker_url":"https://uri.amap.com/marker?position=116.481563,23.246190&name=%E7%91%9E%E5%B9%BC%E5%AE%A0%E7%89%A9&src=vetmap&coordinate=gaode&callnative=1"},{"name":"纬济宠物医院(潮阳店)","address":"文光街道西双广汕公路北第3栋4号首层","phone":"18023285545","category":"医疗保健服务;动物医疗场所;宠物诊所","area":"文光","lng":116.593201,"lat":23.258526,"amap_id":"B0JA2ZLO7D","order":14,"prev_distance_km":11.487,"cumulative_distance_km":49.22,"amap_marker_url":"https://uri.amap.com/marker?position=116.593201,23.258526&name=%E7%BA%AC%E6%B5%8E%E5%AE%A0%E7%89%A9%E5%8C%BB%E9%99%A2%28%E6%BD%AE%E9%98%B3%E5%BA%97%29&src=vetmap&coordinate=gaode&callnative=1"},{"name":"家萌宠物诊所","address":"棉城镇金叶大厦斜对面工商银行往东方向80米","phone":"19807545655","category":"医疗保健服务;动物医疗场所;宠物诊所","area":"文光","lng":116.595588,"lat":23.258884,"amap_id":"B0JRSUI4TI","order":15,"prev_distance_km":0.247,"cumulative_distance_km":49.467,"amap_marker_url":"https://uri.amap.com/marker?position=116.595588,23.258884&name=%E5%AE%B6%E8%90%8C%E5%AE%A0%E7%89%A9%E8%AF%8A%E6%89%80&src=vetmap&coordinate=gaode&callnative=1"},{"name":"祥腾动物诊所","address":"城北一路珠宝首饰厂B幢7号铺","phone":"17818989897","category":"医疗保健服务;动物医疗场所;宠物诊所","area":"","lng":116.608276,"lat":23.265879,"amap_id":"B0FFK3R1QM","order":16,"prev_distance_km":1.512,"cumulative_distance_km":50.979,"amap_marker_url":"https://uri.amap.com/marker?position=116.608276,23.265879&name=%E7%A5%A5%E8%85%BE%E5%8A%A8%E7%89%A9%E8%AF%8A%E6%89%80&src=vetmap&coordinate=gaode&callnative=1"},{"name":"益宠轩宠物医院","address":"棉北街道东山大道15-16号铺","phone":"0754-83716066;18813875825","category":"医疗保健服务;动物医疗场所;宠物诊所","area":"棉北","lng":116.605554,"lat":23.273192,"amap_id":"B0JRKMW73M","order":17,"prev_distance_km":0.859,"cumulative_distance_km":51.838,"amap_marker_url":"https://uri.amap.com/marker?position=116.605554,23.273192&name=%E7%9B%8A%E5%AE%A0%E8%BD%A9%E5%AE%A0%E7%89%A9%E5%8C%BB%E9%99%A2&src=vetmap&coordinate=gaode&callnative=1"},{"name":"唯它宠物诊疗","address":"潮庭华府一期A8幢5号","phone":"15875360701","category":"医疗保健服务;动物医疗场所;宠物诊所","area":"","lng":116.599787,"lat":23.278317,"amap_id":"B0K2YAJLYP","order":18,"prev_distance_km":0.82,"cumulative_distance_km":52.658,"amap_marker_url":"https://uri.amap.com/marker?position=116.599787,23.278317&name=%E5%94%AF%E5%AE%83%E5%AE%A0%E7%89%A9%E8%AF%8A%E7%96%97&src=vetmap&coordinate=gaode&callnative=1"}]}