{"summary":{"id":"d00532","province":"山西省","city":"运城市","district":"盐湖区","count":45,"route_count":1,"max_route_clinics":45,"total_distance_km":61.195,"coordinate_system":"GCJ-02 / Amap","generated_at":"2026-05-08 19:42:43"},"routes":[{"id":"r1","name":"第1段","count":45,"total_distance_km":61.195,"rows":[{"name":"柳小狗兽医站","address":"336省道西100米","phone":"","category":"医疗保健服务;动物医疗场所;兽医站","area":"","lng":110.7604,"lat":34.88829,"amap_id":"B0FFKHALW0","order":1,"prev_distance_km":0.0,"cumulative_distance_km":0.0,"amap_marker_url":"https://uri.amap.com/marker?position=110.760400,34.888290&name=%E6%9F%B3%E5%B0%8F%E7%8B%97%E5%85%BD%E5%8C%BB%E7%AB%99&src=vetmap&coordinate=gaode&callnative=1","route_id":"r1","route_name":"第1段"},{"name":"博园宠物诊所","address":"解放北路立交桥北口国品大厦旁","phone":"13466928131","category":"医疗保健服务;动物医疗场所;宠物诊所","area":"","lng":110.99255,"lat":35.031238,"amap_id":"B0H6TB5LB1","order":2,"prev_distance_km":26.462,"cumulative_distance_km":26.462,"amap_marker_url":"https://uri.amap.com/marker?position=110.992550,35.031238&name=%E5%8D%9A%E5%9B%AD%E5%AE%A0%E7%89%A9%E8%AF%8A%E6%89%80&src=vetmap&coordinate=gaode&callnative=1","route_id":"r1","route_name":"第1段"},{"name":"沐泽宠物","address":"解放路路东小区门口北侧20米309-16号","phone":"13623598777","category":"医疗保健服务;动物医疗场所;动物医疗场所","area":"解放路","lng":110.995319,"lat":35.0252,"amap_id":"B0M6VCK9WD","order":3,"prev_distance_km":0.717,"cumulative_distance_km":27.179,"amap_marker_url":"https://uri.amap.com/marker?position=110.995319,35.025200&name=%E6%B2%90%E6%B3%BD%E5%AE%A0%E7%89%A9&src=vetmap&coordinate=gaode&callnative=1","route_id":"r1","route_name":"第1段"},{"name":"守护者动物医院(运城火车站店)","address":"凤凰北路278号","phone":"17535967494","category":"医疗保健服务;动物医疗场所;宠物诊所","area":"","lng":110.992036,"lat":35.023963,"amap_id":"B0LKOSFSBX","order":4,"prev_distance_km":0.329,"cumulative_distance_km":27.508,"amap_marker_url":"https://uri.amap.com/marker?position=110.992036,35.023963&name=%E5%AE%88%E6%8A%A4%E8%80%85%E5%8A%A8%E7%89%A9%E5%8C%BB%E9%99%A2%28%E8%BF%90%E5%9F%8E%E7%81%AB%E8%BD%A6%E7%AB%99%E5%BA%97%29&src=vetmap&coordinate=gaode&callnative=1","route_id":"r1","route_name":"第1段"},{"name":"恩普宠物门诊","address":"荣盛家园东南门东50米","phone":"13453938149","category":"医疗保健服务;动物医疗场所;宠物诊所","area":"","lng":111.002663,"lat":35.01606,"amap_id":"B0FFG3DBPG","order":5,"prev_distance_km":1.307,"cumulative_distance_km":28.815,"amap_marker_url":"https://uri.amap.com/marker?position=111.002663,35.016060&name=%E6%81%A9%E6%99%AE%E5%AE%A0%E7%89%A9%E9%97%A8%E8%AF%8A&src=vetmap&coordinate=gaode&callnative=1","route_id":"r1","route_name":"第1段"},{"name":"牧医宠物诊所","address":"红旗东街与鸿盛一巷交叉口西南140米","phone":"","category":"医疗保健服务;动物医疗场所;宠物诊所","area":"中银大道","lng":111.01598,"lat":35.02381,"amap_id":"B0KDZ7PWJ4","order":6,"prev_distance_km":1.488,"cumulative_distance_km":30.303,"amap_marker_url":"https://uri.amap.com/marker?position=111.015980,35.023810&name=%E7%89%A7%E5%8C%BB%E5%AE%A0%E7%89%A9%E8%AF%8A%E6%89%80&src=vetmap&coordinate=gaode&callnative=1","route_id":"r1","route_name":"第1段"},{"name":"安安宠物诊所","address":"盐湖区教师进修学校西北门旁","phone":"13835915413;15235951949","category":"医疗保健服务;动物医疗场所;宠物诊所","area":"","lng":111.007393,"lat":35.032754,"amap_id":"B0FFMCXBNP","order":7,"prev_distance_km":1.265,"cumulative_distance_km":31.568,"amap_marker_url":"https://uri.amap.com/marker?position=111.007393,35.032754&name=%E5%AE%89%E5%AE%89%E5%AE%A0%E7%89%A9%E8%AF%8A%E6%89%80&src=vetmap&coordinate=gaode&callnative=1","route_id":"r1","route_name":"第1段"},{"name":"康禾宠物医院","address":"禹都大道槐树凹北口西100米","phone":"15503410777","category":"医疗保健服务;动物医疗场所;宠物诊所","area":"中银大道","lng":111.011084,"lat":35.036014,"amap_id":"B0KDGOUO3I","order":8,"prev_distance_km":0.494,"cumulative_distance_km":32.062,"amap_marker_url":"https://uri.amap.com/marker?position=111.011084,35.036014&name=%E5%BA%B7%E7%A6%BE%E5%AE%A0%E7%89%A9%E5%8C%BB%E9%99%A2&src=vetmap&coordinate=gaode&callnative=1","route_id":"r1","route_name":"第1段"},{"name":"初心宠物诊所","address":"禹都大道30号盐湖区卫校门西第二间商铺","phone":"13103591573","category":"医疗保健服务;动物医疗场所;宠物诊所","area":"","lng":111.011849,"lat":35.037694,"amap_id":"B0LDXZI8CS","order":9,"prev_distance_km":0.199,"cumulative_distance_km":32.262,"amap_marker_url":"https://uri.amap.com/marker?position=111.011849,35.037694&name=%E5%88%9D%E5%BF%83%E5%AE%A0%E7%89%A9%E8%AF%8A%E6%89%80&src=vetmap&coordinate=gaode&callnative=1","route_id":"r1","route_name":"第1段"},{"name":"时尚宠物会所(禹都大道店)","address":"盐湖卫校东南门旁","phone":"13467244184","category":"医疗保健服务;动物医疗场所;宠物诊所","area":"","lng":111.012018,"lat":35.037964,"amap_id":"B01670MDRY","order":10,"prev_distance_km":0.034,"cumulative_distance_km":32.295,"amap_marker_url":"https://uri.amap.com/marker?position=111.012018,35.037964&name=%E6%97%B6%E5%B0%9A%E5%AE%A0%E7%89%A9%E4%BC%9A%E6%89%80%28%E7%A6%B9%E9%83%BD%E5%A4%A7%E9%81%93%E5%BA%97%29&src=vetmap&coordinate=gaode&callnative=1","route_id":"r1","route_name":"第1段"},{"name":"华生宠物诊所","address":"中心北路碧桂园云顶","phone":"19069558955","category":"医疗保健服务;动物医疗场所;宠物诊所","area":"","lng":111.005,"lat":35.04384,"amap_id":"B0KUJDQL1R","order":11,"prev_distance_km":0.914,"cumulative_distance_km":33.209,"amap_marker_url":"https://uri.amap.com/marker?position=111.005000,35.043840&name=%E5%8D%8E%E7%94%9F%E5%AE%A0%E7%89%A9%E8%AF%8A%E6%89%80&src=vetmap&coordinate=gaode&callnative=1","route_id":"r1","route_name":"第1段"},{"name":"爱德宝动物医院","address":"人民北路23号","phone":"","category":"医疗保健服务;动物医疗场所;宠物诊所","area":"北郊","lng":110.995944,"lat":35.045797,"amap_id":"B0MB65NN9F","order":12,"prev_distance_km":0.853,"cumulative_distance_km":34.062,"amap_marker_url":"https://uri.amap.com/marker?position=110.995944,35.045797&name=%E7%88%B1%E5%BE%B7%E5%AE%9D%E5%8A%A8%E7%89%A9%E5%8C%BB%E9%99%A2&src=vetmap&coordinate=gaode&callnative=1","route_id":"r1","route_name":"第1段"},{"name":"望康宠物门诊","address":"北城街道幸福庄北巷锦绣花城12幢1层7号","phone":"13994869756","category":"医疗保健服务;动物医疗场所;宠物诊所","area":"北郊","lng":110.99045,"lat":35.046855,"amap_id":"B0FFIL2I5F","order":13,"prev_distance_km":0.514,"cumulative_distance_km":34.576,"amap_marker_url":"https://uri.amap.com/marker?position=110.990450,35.046855&name=%E6%9C%9B%E5%BA%B7%E5%AE%A0%E7%89%A9%E9%97%A8%E8%AF%8A&src=vetmap&coordinate=gaode&callnative=1","route_id":"r1","route_name":"第1段"},{"name":"众仁萌宠动物诊疗中心","address":"条山东街与运临路交叉口西南80米","phone":"15035929800","category":"医疗保健服务;动物医疗场所;宠物诊所","area":"","lng":110.973248,"lat":35.046505,"amap_id":"B0LBKPPQ0K","order":14,"prev_distance_km":1.566,"cumulative_distance_km":36.142,"amap_marker_url":"https://uri.amap.com/marker?position=110.973248,35.046505&name=%E4%BC%97%E4%BB%81%E8%90%8C%E5%AE%A0%E5%8A%A8%E7%89%A9%E8%AF%8A%E7%96%97%E4%B8%AD%E5%BF%83&src=vetmap&coordinate=gaode&callnative=1","route_id":"r1","route_name":"第1段"},{"name":"运城圣泰宠物医院","address":"紫薇香河湾北门130-131","phone":"0359-8640762;13834720780","category":"医疗保健服务;动物医疗场所;宠物诊所","area":"","lng":110.974295,"lat":35.049226,"amap_id":"B0KURO8T0A","order":15,"prev_distance_km":0.317,"cumulative_distance_km":36.459,"amap_marker_url":"https://uri.amap.com/marker?position=110.974295,35.049226&name=%E8%BF%90%E5%9F%8E%E5%9C%A3%E6%B3%B0%E5%AE%A0%E7%89%A9%E5%8C%BB%E9%99%A2&src=vetmap&coordinate=gaode&callnative=1","route_id":"r1","route_name":"第1段"},{"name":"运城元福动物医院","address":"解放北路与028乡道交叉口西南440米","phone":"","category":"医疗保健服务;动物医疗场所;动物医疗场所","area":"","lng":110.970063,"lat":35.066959,"amap_id":"B0K3UBT5H8","order":16,"prev_distance_km":2.009,"cumulative_distance_km":38.468,"amap_marker_url":"https://uri.amap.com/marker?position=110.970063,35.066959&name=%E8%BF%90%E5%9F%8E%E5%85%83%E7%A6%8F%E5%8A%A8%E7%89%A9%E5%8C%BB%E9%99%A2&src=vetmap&coordinate=gaode&callnative=1","route_id":"r1","route_name":"第1段"},{"name":"春林宠物诊所","address":"鑫地理想城东门南侧商铺第七家","phone":"15234407475","category":"医疗保健服务;动物医疗场所;宠物诊所","area":"","lng":110.990586,"lat":35.056264,"amap_id":"B0JDBZJARL","order":17,"prev_distance_km":2.214,"cumulative_distance_km":40.683,"amap_marker_url":"https://uri.amap.com/marker?position=110.990586,35.056264&name=%E6%98%A5%E6%9E%97%E5%AE%A0%E7%89%A9%E8%AF%8A%E6%89%80&src=vetmap&coordinate=gaode&callnative=1","route_id":"r1","route_name":"第1段"},{"name":"希望宠物诊疗中心","address":"北城街道条山街怡景华庭西10号商铺","phone":"13353480131","category":"医疗保健服务;动物医疗场所;宠物诊所","area":"","lng":110.990018,"lat":35.051739,"amap_id":"B0I2PRLZI1","order":18,"prev_distance_km":0.506,"cumulative_distance_km":41.189,"amap_marker_url":"https://uri.amap.com/marker?position=110.990018,35.051739&name=%E5%B8%8C%E6%9C%9B%E5%AE%A0%E7%89%A9%E8%AF%8A%E7%96%97%E4%B8%AD%E5%BF%83&src=vetmap&coordinate=gaode&callnative=1","route_id":"r1","route_name":"第1段"},{"name":"乐鹏动物医院犬猫全科","address":"条山街御沁园南门","phone":"15135981775","category":"医疗保健服务;动物医疗场所;宠物诊所","area":"","lng":110.994443,"lat":35.053139,"amap_id":"B0LU1SFVWX","order":19,"prev_distance_km":0.432,"cumulative_distance_km":41.621,"amap_marker_url":"https://uri.amap.com/marker?position=110.994443,35.053139&name=%E4%B9%90%E9%B9%8F%E5%8A%A8%E7%89%A9%E5%8C%BB%E9%99%A2%E7%8A%AC%E7%8C%AB%E5%85%A8%E7%A7%91&src=vetmap&coordinate=gaode&callnative=1","route_id":"r1","route_name":"第1段"},{"name":"圣泰宠物诊所","address":"永乐街恒泽园2号楼一单元25号门面房","phone":"13028000494","category":"医疗保健服务;动物医疗场所;宠物诊所","area":"","lng":111.002107,"lat":35.051515,"amap_id":"B0GDLCJXOE","order":20,"prev_distance_km":0.721,"cumulative_distance_km":42.341,"amap_marker_url":"https://uri.amap.com/marker?position=111.002107,35.051515&name=%E5%9C%A3%E6%B3%B0%E5%AE%A0%E7%89%A9%E8%AF%8A%E6%89%80&src=vetmap&coordinate=gaode&callnative=1","route_id":"r1","route_name":"第1段"},{"name":"仁术动物医院","address":"幸福里铂郡南区南门","phone":"16603598278","category":"医疗保健服务;动物医疗场所;宠物诊所","area":"","lng":111.000228,"lat":35.054757,"amap_id":"B0KKYMEBUZ","order":21,"prev_distance_km":0.399,"cumulative_distance_km":42.74,"amap_marker_url":"https://uri.amap.com/marker?position=111.000228,35.054757&name=%E4%BB%81%E6%9C%AF%E5%8A%A8%E7%89%A9%E5%8C%BB%E9%99%A2&src=vetmap&coordinate=gaode&callnative=1","route_id":"r1","route_name":"第1段"},{"name":"宠益家宠物医院","address":"涑水东街2496号-北18号宠物诊所宠物疫苗宠物领养","phone":"15735923653","category":"医疗保健服务;动物医疗场所;宠物诊所","area":"","lng":110.999786,"lat":35.062443,"amap_id":"B0HA61E6JC","order":22,"prev_distance_km":0.856,"cumulative_distance_km":43.596,"amap_marker_url":"https://uri.amap.com/marker?position=110.999786,35.062443&name=%E5%AE%A0%E7%9B%8A%E5%AE%B6%E5%AE%A0%E7%89%A9%E5%8C%BB%E9%99%A2&src=vetmap&coordinate=gaode&callnative=1","route_id":"r1","route_name":"第1段"},{"name":"运城永昌动物门诊","address":"涑水东街凤城华都1号楼7号门面房","phone":"13327590528;15343599757","category":"医疗保健服务;动物医疗场所;宠物诊所","area":"","lng":110.999407,"lat":35.063286,"amap_id":"B0FFF4MCWP","order":23,"prev_distance_km":0.1,"cumulative_distance_km":43.696,"amap_marker_url":"https://uri.amap.com/marker?position=110.999407,35.063286&name=%E8%BF%90%E5%9F%8E%E6%B0%B8%E6%98%8C%E5%8A%A8%E7%89%A9%E9%97%A8%E8%AF%8A&src=vetmap&coordinate=gaode&callnative=1","route_id":"r1","route_name":"第1段"},{"name":"润泽动物医院","address":"华源豪庭北区11栋1号","phone":"15383691980","category":"医疗保健服务;动物医疗场所;宠物诊所","area":"","lng":110.999625,"lat":35.067575,"amap_id":"B0L06RP2TH","order":24,"prev_distance_km":0.477,"cumulative_distance_km":44.173,"amap_marker_url":"https://uri.amap.com/marker?position=110.999625,35.067575&name=%E6%B6%A6%E6%B3%BD%E5%8A%A8%E7%89%A9%E5%8C%BB%E9%99%A2&src=vetmap&coordinate=gaode&callnative=1","route_id":"r1","route_name":"第1段"},{"name":"宠物港宠物美容沙龙(西建·天茂城店)","address":"涑水联合学校东门对面","phone":"15235666560","category":"医疗保健服务;动物医疗场所;动物医疗场所","area":"","lng":111.00647,"lat":35.061133,"amap_id":"B0HK3ROQ9C","order":25,"prev_distance_km":0.949,"cumulative_distance_km":45.122,"amap_marker_url":"https://uri.amap.com/marker?position=111.006470,35.061133&name=%E5%AE%A0%E7%89%A9%E6%B8%AF%E5%AE%A0%E7%89%A9%E7%BE%8E%E5%AE%B9%E6%B2%99%E9%BE%99%28%E8%A5%BF%E5%BB%BA%C2%B7%E5%A4%A9%E8%8C%82%E5%9F%8E%E5%BA%97%29&src=vetmap&coordinate=gaode&callnative=1","route_id":"r1","route_name":"第1段"},{"name":"小精灵宠物门诊","address":"学苑北路留家庄天茂城南门南200米路西","phone":"15034533408","category":"医疗保健服务;动物医疗场所;宠物诊所","area":"","lng":111.010181,"lat":35.060381,"amap_id":"B0FFG3O81X","order":26,"prev_distance_km":0.348,"cumulative_distance_km":45.47,"amap_marker_url":"https://uri.amap.com/marker?position=111.010181,35.060381&name=%E5%B0%8F%E7%B2%BE%E7%81%B5%E5%AE%A0%E7%89%A9%E9%97%A8%E8%AF%8A&src=vetmap&coordinate=gaode&callnative=1","route_id":"r1","route_name":"第1段"},{"name":"安嘉宠物医院","address":"学院路,华林逸墅小区外底商,13号门面房","phone":"15035975462","category":"医疗保健服务;动物医疗场所;宠物诊所","area":"","lng":111.013367,"lat":35.056668,"amap_id":"B0FFKU60OL","order":27,"prev_distance_km":0.505,"cumulative_distance_km":45.975,"amap_marker_url":"https://uri.amap.com/marker?position=111.013367,35.056668&name=%E5%AE%89%E5%98%89%E5%AE%A0%E7%89%A9%E5%8C%BB%E9%99%A2&src=vetmap&coordinate=gaode&callnative=1","route_id":"r1","route_name":"第1段"},{"name":"瑞和动物医院","address":"经济技术开发区禹都花园南门西侧13号门面房","phone":"19035981993","category":"医疗保健服务;动物医疗场所;宠物诊所","area":"","lng":111.020143,"lat":35.045255,"amap_id":"B0IABAKO4T","order":28,"prev_distance_km":1.411,"cumulative_distance_km":47.386,"amap_marker_url":"https://uri.amap.com/marker?position=111.020143,35.045255&name=%E7%91%9E%E5%92%8C%E5%8A%A8%E7%89%A9%E5%8C%BB%E9%99%A2&src=vetmap&coordinate=gaode&callnative=1","route_id":"r1","route_name":"第1段"},{"name":"佳缘宠物医院","address":"禹都大道与学院路十字路口东南角","phone":"13466929120;18295955120","category":"医疗保健服务;动物医疗场所;宠物诊所","area":"","lng":111.020514,"lat":35.044417,"amap_id":"B0FFGO5B2R","order":29,"prev_distance_km":0.099,"cumulative_distance_km":47.485,"amap_marker_url":"https://uri.amap.com/marker?position=111.020514,35.044417&name=%E4%BD%B3%E7%BC%98%E5%AE%A0%E7%89%A9%E5%8C%BB%E9%99%A2&src=vetmap&coordinate=gaode&callnative=1","route_id":"r1","route_name":"第1段"},{"name":"乐康宠物诊所","address":"东城街道学苑路贺村铺一号二楼","phone":"15235997567","category":"医疗保健服务;动物医疗场所;宠物诊所","area":"","lng":111.020288,"lat":35.043032,"amap_id":"B0FFKL80BS","order":30,"prev_distance_km":0.155,"cumulative_distance_km":47.64,"amap_marker_url":"https://uri.amap.com/marker?position=111.020288,35.043032&name=%E4%B9%90%E5%BA%B7%E5%AE%A0%E7%89%A9%E8%AF%8A%E6%89%80&src=vetmap&coordinate=gaode&callnative=1","route_id":"r1","route_name":"第1段"},{"name":"宠医生全心全意连锁动物医院运城分院","address":"学苑路八里铺西口南50米","phone":"0359-2233185;16635988632","category":"医疗保健服务;动物医疗场所;宠物诊所","area":"","lng":111.021125,"lat":35.042799,"amap_id":"B0G0JSI0XI","order":31,"prev_distance_km":0.08,"cumulative_distance_km":47.721,"amap_marker_url":"https://uri.amap.com/marker?position=111.021125,35.042799&name=%E5%AE%A0%E5%8C%BB%E7%94%9F%E5%85%A8%E5%BF%83%E5%85%A8%E6%84%8F%E8%BF%9E%E9%94%81%E5%8A%A8%E7%89%A9%E5%8C%BB%E9%99%A2%E8%BF%90%E5%9F%8E%E5%88%86%E9%99%A2&src=vetmap&coordinate=gaode&callnative=1","route_id":"r1","route_name":"第1段"},{"name":"恒康宠物诊所(铺安街店)","address":"铺安街天泰文化苑南区风味名吃街2层(金鑫大酒店往东200米路南)","phone":"0359-2428555;13044408506","category":"医疗保健服务;动物医疗场所;宠物诊所","area":"","lng":111.017013,"lat":35.037819,"amap_id":"B0FFFABOHE","order":32,"prev_distance_km":0.668,"cumulative_distance_km":48.389,"amap_marker_url":"https://uri.amap.com/marker?position=111.017013,35.037819&name=%E6%81%92%E5%BA%B7%E5%AE%A0%E7%89%A9%E8%AF%8A%E6%89%80%28%E9%93%BA%E5%AE%89%E8%A1%97%E5%BA%97%29&src=vetmap&coordinate=gaode&callnative=1","route_id":"r1","route_name":"第1段"},{"name":"运城博爱宠物医院","address":"学苑路凤凰小区39号楼15号","phone":"15535902225","category":"医疗保健服务;动物医疗场所;宠物诊所","area":"","lng":111.023359,"lat":35.034925,"amap_id":"B0FFG3F4DC","order":33,"prev_distance_km":0.661,"cumulative_distance_km":49.051,"amap_marker_url":"https://uri.amap.com/marker?position=111.023359,35.034925&name=%E8%BF%90%E5%9F%8E%E5%8D%9A%E7%88%B1%E5%AE%A0%E7%89%A9%E5%8C%BB%E9%99%A2&src=vetmap&coordinate=gaode&callnative=1","route_id":"r1","route_name":"第1段"},{"name":"佳和宠物诊所","address":"盐湖城小区北门西侧3号楼13号门面","phone":"19834772828","category":"医疗保健服务;动物医疗场所;宠物诊所","area":"","lng":111.029513,"lat":35.028888,"amap_id":"B0FFMFR069","order":34,"prev_distance_km":0.874,"cumulative_distance_km":49.925,"amap_marker_url":"https://uri.amap.com/marker?position=111.029513,35.028888&name=%E4%BD%B3%E5%92%8C%E5%AE%A0%E7%89%A9%E8%AF%8A%E6%89%80&src=vetmap&coordinate=gaode&callnative=1","route_id":"r1","route_name":"第1段"},{"name":"博康宠物医院","address":"水岸华庭西南角(运城广播电视台斜对角)","phone":"15835277856","category":"医疗保健服务;动物医疗场所;宠物诊所","area":"","lng":111.041671,"lat":35.035708,"amap_id":"B0FFHNLJQJ","order":35,"prev_distance_km":1.342,"cumulative_distance_km":51.267,"amap_marker_url":"https://uri.amap.com/marker?position=111.041671,35.035708&name=%E5%8D%9A%E5%BA%B7%E5%AE%A0%E7%89%A9%E5%8C%BB%E9%99%A2&src=vetmap&coordinate=gaode&callnative=1","route_id":"r1","route_name":"第1段"},{"name":"恒康宠物医院(水岸华庭店)","address":"河东东街水岸华庭北门21号楼104号","phone":"13044408506;15535920330","category":"医疗保健服务;动物医疗场所;宠物诊所","area":"","lng":111.041194,"lat":35.038325,"amap_id":"B0M6UZOF7O","order":36,"prev_distance_km":0.294,"cumulative_distance_km":51.561,"amap_marker_url":"https://uri.amap.com/marker?position=111.041194,35.038325&name=%E6%81%92%E5%BA%B7%E5%AE%A0%E7%89%A9%E5%8C%BB%E9%99%A2%28%E6%B0%B4%E5%B2%B8%E5%8D%8E%E5%BA%AD%E5%BA%97%29&src=vetmap&coordinate=gaode&callnative=1","route_id":"r1","route_name":"第1段"},{"name":"杨医生宠物诊所","address":"河东东街明瑞园103商铺","phone":"13299090255","category":"医疗保健服务;动物医疗场所;宠物诊所","area":"","lng":111.043804,"lat":35.040641,"amap_id":"B0LGOZ2UEX","order":37,"prev_distance_km":0.35,"cumulative_distance_km":51.911,"amap_marker_url":"https://uri.amap.com/marker?position=111.043804,35.040641&name=%E6%9D%A8%E5%8C%BB%E7%94%9F%E5%AE%A0%E7%89%A9%E8%AF%8A%E6%89%80&src=vetmap&coordinate=gaode&callnative=1","route_id":"r1","route_name":"第1段"},{"name":"乐宠宠物诊所(云鼎·云湖湾店)","address":"红旗东街云湖湾3号楼门面房","phone":"0359-8849944;15203481115","category":"医疗保健服务;动物医疗场所;宠物诊所","area":"","lng":111.048056,"lat":35.037373,"amap_id":"B0FFHKQ114","order":38,"prev_distance_km":0.531,"cumulative_distance_km":52.442,"amap_marker_url":"https://uri.amap.com/marker?position=111.048056,35.037373&name=%E4%B9%90%E5%AE%A0%E5%AE%A0%E7%89%A9%E8%AF%8A%E6%89%80%28%E4%BA%91%E9%BC%8E%C2%B7%E4%BA%91%E6%B9%96%E6%B9%BE%E5%BA%97%29&src=vetmap&coordinate=gaode&callnative=1","route_id":"r1","route_name":"第1段"},{"name":"佑艾迪动物医院","address":"安邑街道河东东街与韩信路交叉口关铝花园2幢1层104商铺号","phone":"18735919021","category":"医疗保健服务;动物医疗场所;宠物诊所","area":"","lng":111.047105,"lat":35.042287,"amap_id":"B0KAUSH1DR","order":39,"prev_distance_km":0.553,"cumulative_distance_km":52.996,"amap_marker_url":"https://uri.amap.com/marker?position=111.047105,35.042287&name=%E4%BD%91%E8%89%BE%E8%BF%AA%E5%8A%A8%E7%89%A9%E5%8C%BB%E9%99%A2&src=vetmap&coordinate=gaode&callnative=1","route_id":"r1","route_name":"第1段"},{"name":"运城市安邑畜牧兽医站","address":"安邑西大街19号安邑派出所附近","phone":"","category":"医疗保健服务;动物医疗场所;兽医站","area":"安邑","lng":111.042974,"lat":35.059013,"amap_id":"B01670M944","order":40,"prev_distance_km":1.897,"cumulative_distance_km":54.893,"amap_marker_url":"https://uri.amap.com/marker?position=111.042974,35.059013&name=%E8%BF%90%E5%9F%8E%E5%B8%82%E5%AE%89%E9%82%91%E7%95%9C%E7%89%A7%E5%85%BD%E5%8C%BB%E7%AB%99&src=vetmap&coordinate=gaode&callnative=1","route_id":"r1","route_name":"第1段"},{"name":"康乐宠物门诊(安邑西路店)","address":"运城经济技术开发区卡纳溪谷12号楼1号","phone":"15536261668","category":"医疗保健服务;动物医疗场所;宠物诊所","area":"","lng":111.034149,"lat":35.07048,"amap_id":"B0KBT51BMQ","order":41,"prev_distance_km":1.507,"cumulative_distance_km":56.4,"amap_marker_url":"https://uri.amap.com/marker?position=111.034149,35.070480&name=%E5%BA%B7%E4%B9%90%E5%AE%A0%E7%89%A9%E9%97%A8%E8%AF%8A%28%E5%AE%89%E9%82%91%E8%A5%BF%E8%B7%AF%E5%BA%97%29&src=vetmap&coordinate=gaode&callnative=1","route_id":"r1","route_name":"第1段"},{"name":"河东畜禽保健服务中心","address":"机场大道运城豪德贸易(广场专卖店)","phone":"13453959288;15635905180","category":"医疗保健服务;动物医疗场所;兽医站","area":"","lng":111.037158,"lat":35.081536,"amap_id":"B0FFKAXZ09","order":42,"prev_distance_km":1.259,"cumulative_distance_km":57.66,"amap_marker_url":"https://uri.amap.com/marker?position=111.037158,35.081536&name=%E6%B2%B3%E4%B8%9C%E7%95%9C%E7%A6%BD%E4%BF%9D%E5%81%A5%E6%9C%8D%E5%8A%A1%E4%B8%AD%E5%BF%83&src=vetmap&coordinate=gaode&callnative=1","route_id":"r1","route_name":"第1段"},{"name":"玉英畜禽服务部","address":"安邑东路与机场大道交叉口西280米","phone":"","category":"医疗保健服务;动物医疗场所;兽医站","area":"","lng":111.038332,"lat":35.082473,"amap_id":"B0LG31ECTL","order":43,"prev_distance_km":0.149,"cumulative_distance_km":57.809,"amap_marker_url":"https://uri.amap.com/marker?position=111.038332,35.082473&name=%E7%8E%89%E8%8B%B1%E7%95%9C%E7%A6%BD%E6%9C%8D%E5%8A%A1%E9%83%A8&src=vetmap&coordinate=gaode&callnative=1","route_id":"r1","route_name":"第1段"},{"name":"喵呜宠物医院","address":"空港南区中源·格林雅地门面店喵呜萌宠诊所","phone":"17536357989","category":"医疗保健服务;动物医疗场所;宠物诊所","area":"空港","lng":111.059798,"lat":35.093166,"amap_id":"B0LU25WG0M","order":44,"prev_distance_km":2.287,"cumulative_distance_km":60.095,"amap_marker_url":"https://uri.amap.com/marker?position=111.059798,35.093166&name=%E5%96%B5%E5%91%9C%E5%AE%A0%E7%89%A9%E5%8C%BB%E9%99%A2&src=vetmap&coordinate=gaode&callnative=1","route_id":"r1","route_name":"第1段"},{"name":"萌兽宠物诊所","address":"陶朱公街与司马温公路交叉口东80米","phone":"","category":"医疗保健服务;动物医疗场所;宠物诊所","area":"空港","lng":111.070605,"lat":35.097592,"amap_id":"B0LUDREMQ1","order":45,"prev_distance_km":1.1,"cumulative_distance_km":61.195,"amap_marker_url":"https://uri.amap.com/marker?position=111.070605,35.097592&name=%E8%90%8C%E5%85%BD%E5%AE%A0%E7%89%A9%E8%AF%8A%E6%89%80&src=vetmap&coordinate=gaode&callnative=1","route_id":"r1","route_name":"第1段"}]}],"rows":[{"name":"柳小狗兽医站","address":"336省道西100米","phone":"","category":"医疗保健服务;动物医疗场所;兽医站","area":"","lng":110.7604,"lat":34.88829,"amap_id":"B0FFKHALW0","order":1,"prev_distance_km":0.0,"cumulative_distance_km":0.0,"amap_marker_url":"https://uri.amap.com/marker?position=110.760400,34.888290&name=%E6%9F%B3%E5%B0%8F%E7%8B%97%E5%85%BD%E5%8C%BB%E7%AB%99&src=vetmap&coordinate=gaode&callnative=1","route_id":"r1","route_name":"第1段","global_order":1},{"name":"博园宠物诊所","address":"解放北路立交桥北口国品大厦旁","phone":"13466928131","category":"医疗保健服务;动物医疗场所;宠物诊所","area":"","lng":110.99255,"lat":35.031238,"amap_id":"B0H6TB5LB1","order":2,"prev_distance_km":26.462,"cumulative_distance_km":26.462,"amap_marker_url":"https://uri.amap.com/marker?position=110.992550,35.031238&name=%E5%8D%9A%E5%9B%AD%E5%AE%A0%E7%89%A9%E8%AF%8A%E6%89%80&src=vetmap&coordinate=gaode&callnative=1","route_id":"r1","route_name":"第1段","global_order":2},{"name":"沐泽宠物","address":"解放路路东小区门口北侧20米309-16号","phone":"13623598777","category":"医疗保健服务;动物医疗场所;动物医疗场所","area":"解放路","lng":110.995319,"lat":35.0252,"amap_id":"B0M6VCK9WD","order":3,"prev_distance_km":0.717,"cumulative_distance_km":27.179,"amap_marker_url":"https://uri.amap.com/marker?position=110.995319,35.025200&name=%E6%B2%90%E6%B3%BD%E5%AE%A0%E7%89%A9&src=vetmap&coordinate=gaode&callnative=1","route_id":"r1","route_name":"第1段","global_order":3},{"name":"守护者动物医院(运城火车站店)","address":"凤凰北路278号","phone":"17535967494","category":"医疗保健服务;动物医疗场所;宠物诊所","area":"","lng":110.992036,"lat":35.023963,"amap_id":"B0LKOSFSBX","order":4,"prev_distance_km":0.329,"cumulative_distance_km":27.508,"amap_marker_url":"https://uri.amap.com/marker?position=110.992036,35.023963&name=%E5%AE%88%E6%8A%A4%E8%80%85%E5%8A%A8%E7%89%A9%E5%8C%BB%E9%99%A2%28%E8%BF%90%E5%9F%8E%E7%81%AB%E8%BD%A6%E7%AB%99%E5%BA%97%29&src=vetmap&coordinate=gaode&callnative=1","route_id":"r1","route_name":"第1段","global_order":4},{"name":"恩普宠物门诊","address":"荣盛家园东南门东50米","phone":"13453938149","category":"医疗保健服务;动物医疗场所;宠物诊所","area":"","lng":111.002663,"lat":35.01606,"amap_id":"B0FFG3DBPG","order":5,"prev_distance_km":1.307,"cumulative_distance_km":28.815,"amap_marker_url":"https://uri.amap.com/marker?position=111.002663,35.016060&name=%E6%81%A9%E6%99%AE%E5%AE%A0%E7%89%A9%E9%97%A8%E8%AF%8A&src=vetmap&coordinate=gaode&callnative=1","route_id":"r1","route_name":"第1段","global_order":5},{"name":"牧医宠物诊所","address":"红旗东街与鸿盛一巷交叉口西南140米","phone":"","category":"医疗保健服务;动物医疗场所;宠物诊所","area":"中银大道","lng":111.01598,"lat":35.02381,"amap_id":"B0KDZ7PWJ4","order":6,"prev_distance_km":1.488,"cumulative_distance_km":30.303,"amap_marker_url":"https://uri.amap.com/marker?position=111.015980,35.023810&name=%E7%89%A7%E5%8C%BB%E5%AE%A0%E7%89%A9%E8%AF%8A%E6%89%80&src=vetmap&coordinate=gaode&callnative=1","route_id":"r1","route_name":"第1段","global_order":6},{"name":"安安宠物诊所","address":"盐湖区教师进修学校西北门旁","phone":"13835915413;15235951949","category":"医疗保健服务;动物医疗场所;宠物诊所","area":"","lng":111.007393,"lat":35.032754,"amap_id":"B0FFMCXBNP","order":7,"prev_distance_km":1.265,"cumulative_distance_km":31.568,"amap_marker_url":"https://uri.amap.com/marker?position=111.007393,35.032754&name=%E5%AE%89%E5%AE%89%E5%AE%A0%E7%89%A9%E8%AF%8A%E6%89%80&src=vetmap&coordinate=gaode&callnative=1","route_id":"r1","route_name":"第1段","global_order":7},{"name":"康禾宠物医院","address":"禹都大道槐树凹北口西100米","phone":"15503410777","category":"医疗保健服务;动物医疗场所;宠物诊所","area":"中银大道","lng":111.011084,"lat":35.036014,"amap_id":"B0KDGOUO3I","order":8,"prev_distance_km":0.494,"cumulative_distance_km":32.062,"amap_marker_url":"https://uri.amap.com/marker?position=111.011084,35.036014&name=%E5%BA%B7%E7%A6%BE%E5%AE%A0%E7%89%A9%E5%8C%BB%E9%99%A2&src=vetmap&coordinate=gaode&callnative=1","route_id":"r1","route_name":"第1段","global_order":8},{"name":"初心宠物诊所","address":"禹都大道30号盐湖区卫校门西第二间商铺","phone":"13103591573","category":"医疗保健服务;动物医疗场所;宠物诊所","area":"","lng":111.011849,"lat":35.037694,"amap_id":"B0LDXZI8CS","order":9,"prev_distance_km":0.199,"cumulative_distance_km":32.262,"amap_marker_url":"https://uri.amap.com/marker?position=111.011849,35.037694&name=%E5%88%9D%E5%BF%83%E5%AE%A0%E7%89%A9%E8%AF%8A%E6%89%80&src=vetmap&coordinate=gaode&callnative=1","route_id":"r1","route_name":"第1段","global_order":9},{"name":"时尚宠物会所(禹都大道店)","address":"盐湖卫校东南门旁","phone":"13467244184","category":"医疗保健服务;动物医疗场所;宠物诊所","area":"","lng":111.012018,"lat":35.037964,"amap_id":"B01670MDRY","order":10,"prev_distance_km":0.034,"cumulative_distance_km":32.295,"amap_marker_url":"https://uri.amap.com/marker?position=111.012018,35.037964&name=%E6%97%B6%E5%B0%9A%E5%AE%A0%E7%89%A9%E4%BC%9A%E6%89%80%28%E7%A6%B9%E9%83%BD%E5%A4%A7%E9%81%93%E5%BA%97%29&src=vetmap&coordinate=gaode&callnative=1","route_id":"r1","route_name":"第1段","global_order":10},{"name":"华生宠物诊所","address":"中心北路碧桂园云顶","phone":"19069558955","category":"医疗保健服务;动物医疗场所;宠物诊所","area":"","lng":111.005,"lat":35.04384,"amap_id":"B0KUJDQL1R","order":11,"prev_distance_km":0.914,"cumulative_distance_km":33.209,"amap_marker_url":"https://uri.amap.com/marker?position=111.005000,35.043840&name=%E5%8D%8E%E7%94%9F%E5%AE%A0%E7%89%A9%E8%AF%8A%E6%89%80&src=vetmap&coordinate=gaode&callnative=1","route_id":"r1","route_name":"第1段","global_order":11},{"name":"爱德宝动物医院","address":"人民北路23号","phone":"","category":"医疗保健服务;动物医疗场所;宠物诊所","area":"北郊","lng":110.995944,"lat":35.045797,"amap_id":"B0MB65NN9F","order":12,"prev_distance_km":0.853,"cumulative_distance_km":34.062,"amap_marker_url":"https://uri.amap.com/marker?position=110.995944,35.045797&name=%E7%88%B1%E5%BE%B7%E5%AE%9D%E5%8A%A8%E7%89%A9%E5%8C%BB%E9%99%A2&src=vetmap&coordinate=gaode&callnative=1","route_id":"r1","route_name":"第1段","global_order":12},{"name":"望康宠物门诊","address":"北城街道幸福庄北巷锦绣花城12幢1层7号","phone":"13994869756","category":"医疗保健服务;动物医疗场所;宠物诊所","area":"北郊","lng":110.99045,"lat":35.046855,"amap_id":"B0FFIL2I5F","order":13,"prev_distance_km":0.514,"cumulative_distance_km":34.576,"amap_marker_url":"https://uri.amap.com/marker?position=110.990450,35.046855&name=%E6%9C%9B%E5%BA%B7%E5%AE%A0%E7%89%A9%E9%97%A8%E8%AF%8A&src=vetmap&coordinate=gaode&callnative=1","route_id":"r1","route_name":"第1段","global_order":13},{"name":"众仁萌宠动物诊疗中心","address":"条山东街与运临路交叉口西南80米","phone":"15035929800","category":"医疗保健服务;动物医疗场所;宠物诊所","area":"","lng":110.973248,"lat":35.046505,"amap_id":"B0LBKPPQ0K","order":14,"prev_distance_km":1.566,"cumulative_distance_km":36.142,"amap_marker_url":"https://uri.amap.com/marker?position=110.973248,35.046505&name=%E4%BC%97%E4%BB%81%E8%90%8C%E5%AE%A0%E5%8A%A8%E7%89%A9%E8%AF%8A%E7%96%97%E4%B8%AD%E5%BF%83&src=vetmap&coordinate=gaode&callnative=1","route_id":"r1","route_name":"第1段","global_order":14},{"name":"运城圣泰宠物医院","address":"紫薇香河湾北门130-131","phone":"0359-8640762;13834720780","category":"医疗保健服务;动物医疗场所;宠物诊所","area":"","lng":110.974295,"lat":35.049226,"amap_id":"B0KURO8T0A","order":15,"prev_distance_km":0.317,"cumulative_distance_km":36.459,"amap_marker_url":"https://uri.amap.com/marker?position=110.974295,35.049226&name=%E8%BF%90%E5%9F%8E%E5%9C%A3%E6%B3%B0%E5%AE%A0%E7%89%A9%E5%8C%BB%E9%99%A2&src=vetmap&coordinate=gaode&callnative=1","route_id":"r1","route_name":"第1段","global_order":15},{"name":"运城元福动物医院","address":"解放北路与028乡道交叉口西南440米","phone":"","category":"医疗保健服务;动物医疗场所;动物医疗场所","area":"","lng":110.970063,"lat":35.066959,"amap_id":"B0K3UBT5H8","order":16,"prev_distance_km":2.009,"cumulative_distance_km":38.468,"amap_marker_url":"https://uri.amap.com/marker?position=110.970063,35.066959&name=%E8%BF%90%E5%9F%8E%E5%85%83%E7%A6%8F%E5%8A%A8%E7%89%A9%E5%8C%BB%E9%99%A2&src=vetmap&coordinate=gaode&callnative=1","route_id":"r1","route_name":"第1段","global_order":16},{"name":"春林宠物诊所","address":"鑫地理想城东门南侧商铺第七家","phone":"15234407475","category":"医疗保健服务;动物医疗场所;宠物诊所","area":"","lng":110.990586,"lat":35.056264,"amap_id":"B0JDBZJARL","order":17,"prev_distance_km":2.214,"cumulative_distance_km":40.683,"amap_marker_url":"https://uri.amap.com/marker?position=110.990586,35.056264&name=%E6%98%A5%E6%9E%97%E5%AE%A0%E7%89%A9%E8%AF%8A%E6%89%80&src=vetmap&coordinate=gaode&callnative=1","route_id":"r1","route_name":"第1段","global_order":17},{"name":"希望宠物诊疗中心","address":"北城街道条山街怡景华庭西10号商铺","phone":"13353480131","category":"医疗保健服务;动物医疗场所;宠物诊所","area":"","lng":110.990018,"lat":35.051739,"amap_id":"B0I2PRLZI1","order":18,"prev_distance_km":0.506,"cumulative_distance_km":41.189,"amap_marker_url":"https://uri.amap.com/marker?position=110.990018,35.051739&name=%E5%B8%8C%E6%9C%9B%E5%AE%A0%E7%89%A9%E8%AF%8A%E7%96%97%E4%B8%AD%E5%BF%83&src=vetmap&coordinate=gaode&callnative=1","route_id":"r1","route_name":"第1段","global_order":18},{"name":"乐鹏动物医院犬猫全科","address":"条山街御沁园南门","phone":"15135981775","category":"医疗保健服务;动物医疗场所;宠物诊所","area":"","lng":110.994443,"lat":35.053139,"amap_id":"B0LU1SFVWX","order":19,"prev_distance_km":0.432,"cumulative_distance_km":41.621,"amap_marker_url":"https://uri.amap.com/marker?position=110.994443,35.053139&name=%E4%B9%90%E9%B9%8F%E5%8A%A8%E7%89%A9%E5%8C%BB%E9%99%A2%E7%8A%AC%E7%8C%AB%E5%85%A8%E7%A7%91&src=vetmap&coordinate=gaode&callnative=1","route_id":"r1","route_name":"第1段","global_order":19},{"name":"圣泰宠物诊所","address":"永乐街恒泽园2号楼一单元25号门面房","phone":"13028000494","category":"医疗保健服务;动物医疗场所;宠物诊所","area":"","lng":111.002107,"lat":35.051515,"amap_id":"B0GDLCJXOE","order":20,"prev_distance_km":0.721,"cumulative_distance_km":42.341,"amap_marker_url":"https://uri.amap.com/marker?position=111.002107,35.051515&name=%E5%9C%A3%E6%B3%B0%E5%AE%A0%E7%89%A9%E8%AF%8A%E6%89%80&src=vetmap&coordinate=gaode&callnative=1","route_id":"r1","route_name":"第1段","global_order":20},{"name":"仁术动物医院","address":"幸福里铂郡南区南门","phone":"16603598278","category":"医疗保健服务;动物医疗场所;宠物诊所","area":"","lng":111.000228,"lat":35.054757,"amap_id":"B0KKYMEBUZ","order":21,"prev_distance_km":0.399,"cumulative_distance_km":42.74,"amap_marker_url":"https://uri.amap.com/marker?position=111.000228,35.054757&name=%E4%BB%81%E6%9C%AF%E5%8A%A8%E7%89%A9%E5%8C%BB%E9%99%A2&src=vetmap&coordinate=gaode&callnative=1","route_id":"r1","route_name":"第1段","global_order":21},{"name":"宠益家宠物医院","address":"涑水东街2496号-北18号宠物诊所宠物疫苗宠物领养","phone":"15735923653","category":"医疗保健服务;动物医疗场所;宠物诊所","area":"","lng":110.999786,"lat":35.062443,"amap_id":"B0HA61E6JC","order":22,"prev_distance_km":0.856,"cumulative_distance_km":43.596,"amap_marker_url":"https://uri.amap.com/marker?position=110.999786,35.062443&name=%E5%AE%A0%E7%9B%8A%E5%AE%B6%E5%AE%A0%E7%89%A9%E5%8C%BB%E9%99%A2&src=vetmap&coordinate=gaode&callnative=1","route_id":"r1","route_name":"第1段","global_order":22},{"name":"运城永昌动物门诊","address":"涑水东街凤城华都1号楼7号门面房","phone":"13327590528;15343599757","category":"医疗保健服务;动物医疗场所;宠物诊所","area":"","lng":110.999407,"lat":35.063286,"amap_id":"B0FFF4MCWP","order":23,"prev_distance_km":0.1,"cumulative_distance_km":43.696,"amap_marker_url":"https://uri.amap.com/marker?position=110.999407,35.063286&name=%E8%BF%90%E5%9F%8E%E6%B0%B8%E6%98%8C%E5%8A%A8%E7%89%A9%E9%97%A8%E8%AF%8A&src=vetmap&coordinate=gaode&callnative=1","route_id":"r1","route_name":"第1段","global_order":23},{"name":"润泽动物医院","address":"华源豪庭北区11栋1号","phone":"15383691980","category":"医疗保健服务;动物医疗场所;宠物诊所","area":"","lng":110.999625,"lat":35.067575,"amap_id":"B0L06RP2TH","order":24,"prev_distance_km":0.477,"cumulative_distance_km":44.173,"amap_marker_url":"https://uri.amap.com/marker?position=110.999625,35.067575&name=%E6%B6%A6%E6%B3%BD%E5%8A%A8%E7%89%A9%E5%8C%BB%E9%99%A2&src=vetmap&coordinate=gaode&callnative=1","route_id":"r1","route_name":"第1段","global_order":24},{"name":"宠物港宠物美容沙龙(西建·天茂城店)","address":"涑水联合学校东门对面","phone":"15235666560","category":"医疗保健服务;动物医疗场所;动物医疗场所","area":"","lng":111.00647,"lat":35.061133,"amap_id":"B0HK3ROQ9C","order":25,"prev_distance_km":0.949,"cumulative_distance_km":45.122,"amap_marker_url":"https://uri.amap.com/marker?position=111.006470,35.061133&name=%E5%AE%A0%E7%89%A9%E6%B8%AF%E5%AE%A0%E7%89%A9%E7%BE%8E%E5%AE%B9%E6%B2%99%E9%BE%99%28%E8%A5%BF%E5%BB%BA%C2%B7%E5%A4%A9%E8%8C%82%E5%9F%8E%E5%BA%97%29&src=vetmap&coordinate=gaode&callnative=1","route_id":"r1","route_name":"第1段","global_order":25},{"name":"小精灵宠物门诊","address":"学苑北路留家庄天茂城南门南200米路西","phone":"15034533408","category":"医疗保健服务;动物医疗场所;宠物诊所","area":"","lng":111.010181,"lat":35.060381,"amap_id":"B0FFG3O81X","order":26,"prev_distance_km":0.348,"cumulative_distance_km":45.47,"amap_marker_url":"https://uri.amap.com/marker?position=111.010181,35.060381&name=%E5%B0%8F%E7%B2%BE%E7%81%B5%E5%AE%A0%E7%89%A9%E9%97%A8%E8%AF%8A&src=vetmap&coordinate=gaode&callnative=1","route_id":"r1","route_name":"第1段","global_order":26},{"name":"安嘉宠物医院","address":"学院路,华林逸墅小区外底商,13号门面房","phone":"15035975462","category":"医疗保健服务;动物医疗场所;宠物诊所","area":"","lng":111.013367,"lat":35.056668,"amap_id":"B0FFKU60OL","order":27,"prev_distance_km":0.505,"cumulative_distance_km":45.975,"amap_marker_url":"https://uri.amap.com/marker?position=111.013367,35.056668&name=%E5%AE%89%E5%98%89%E5%AE%A0%E7%89%A9%E5%8C%BB%E9%99%A2&src=vetmap&coordinate=gaode&callnative=1","route_id":"r1","route_name":"第1段","global_order":27},{"name":"瑞和动物医院","address":"经济技术开发区禹都花园南门西侧13号门面房","phone":"19035981993","category":"医疗保健服务;动物医疗场所;宠物诊所","area":"","lng":111.020143,"lat":35.045255,"amap_id":"B0IABAKO4T","order":28,"prev_distance_km":1.411,"cumulative_distance_km":47.386,"amap_marker_url":"https://uri.amap.com/marker?position=111.020143,35.045255&name=%E7%91%9E%E5%92%8C%E5%8A%A8%E7%89%A9%E5%8C%BB%E9%99%A2&src=vetmap&coordinate=gaode&callnative=1","route_id":"r1","route_name":"第1段","global_order":28},{"name":"佳缘宠物医院","address":"禹都大道与学院路十字路口东南角","phone":"13466929120;18295955120","category":"医疗保健服务;动物医疗场所;宠物诊所","area":"","lng":111.020514,"lat":35.044417,"amap_id":"B0FFGO5B2R","order":29,"prev_distance_km":0.099,"cumulative_distance_km":47.485,"amap_marker_url":"https://uri.amap.com/marker?position=111.020514,35.044417&name=%E4%BD%B3%E7%BC%98%E5%AE%A0%E7%89%A9%E5%8C%BB%E9%99%A2&src=vetmap&coordinate=gaode&callnative=1","route_id":"r1","route_name":"第1段","global_order":29},{"name":"乐康宠物诊所","address":"东城街道学苑路贺村铺一号二楼","phone":"15235997567","category":"医疗保健服务;动物医疗场所;宠物诊所","area":"","lng":111.020288,"lat":35.043032,"amap_id":"B0FFKL80BS","order":30,"prev_distance_km":0.155,"cumulative_distance_km":47.64,"amap_marker_url":"https://uri.amap.com/marker?position=111.020288,35.043032&name=%E4%B9%90%E5%BA%B7%E5%AE%A0%E7%89%A9%E8%AF%8A%E6%89%80&src=vetmap&coordinate=gaode&callnative=1","route_id":"r1","route_name":"第1段","global_order":30},{"name":"宠医生全心全意连锁动物医院运城分院","address":"学苑路八里铺西口南50米","phone":"0359-2233185;16635988632","category":"医疗保健服务;动物医疗场所;宠物诊所","area":"","lng":111.021125,"lat":35.042799,"amap_id":"B0G0JSI0XI","order":31,"prev_distance_km":0.08,"cumulative_distance_km":47.721,"amap_marker_url":"https://uri.amap.com/marker?position=111.021125,35.042799&name=%E5%AE%A0%E5%8C%BB%E7%94%9F%E5%85%A8%E5%BF%83%E5%85%A8%E6%84%8F%E8%BF%9E%E9%94%81%E5%8A%A8%E7%89%A9%E5%8C%BB%E9%99%A2%E8%BF%90%E5%9F%8E%E5%88%86%E9%99%A2&src=vetmap&coordinate=gaode&callnative=1","route_id":"r1","route_name":"第1段","global_order":31},{"name":"恒康宠物诊所(铺安街店)","address":"铺安街天泰文化苑南区风味名吃街2层(金鑫大酒店往东200米路南)","phone":"0359-2428555;13044408506","category":"医疗保健服务;动物医疗场所;宠物诊所","area":"","lng":111.017013,"lat":35.037819,"amap_id":"B0FFFABOHE","order":32,"prev_distance_km":0.668,"cumulative_distance_km":48.389,"amap_marker_url":"https://uri.amap.com/marker?position=111.017013,35.037819&name=%E6%81%92%E5%BA%B7%E5%AE%A0%E7%89%A9%E8%AF%8A%E6%89%80%28%E9%93%BA%E5%AE%89%E8%A1%97%E5%BA%97%29&src=vetmap&coordinate=gaode&callnative=1","route_id":"r1","route_name":"第1段","global_order":32},{"name":"运城博爱宠物医院","address":"学苑路凤凰小区39号楼15号","phone":"15535902225","category":"医疗保健服务;动物医疗场所;宠物诊所","area":"","lng":111.023359,"lat":35.034925,"amap_id":"B0FFG3F4DC","order":33,"prev_distance_km":0.661,"cumulative_distance_km":49.051,"amap_marker_url":"https://uri.amap.com/marker?position=111.023359,35.034925&name=%E8%BF%90%E5%9F%8E%E5%8D%9A%E7%88%B1%E5%AE%A0%E7%89%A9%E5%8C%BB%E9%99%A2&src=vetmap&coordinate=gaode&callnative=1","route_id":"r1","route_name":"第1段","global_order":33},{"name":"佳和宠物诊所","address":"盐湖城小区北门西侧3号楼13号门面","phone":"19834772828","category":"医疗保健服务;动物医疗场所;宠物诊所","area":"","lng":111.029513,"lat":35.028888,"amap_id":"B0FFMFR069","order":34,"prev_distance_km":0.874,"cumulative_distance_km":49.925,"amap_marker_url":"https://uri.amap.com/marker?position=111.029513,35.028888&name=%E4%BD%B3%E5%92%8C%E5%AE%A0%E7%89%A9%E8%AF%8A%E6%89%80&src=vetmap&coordinate=gaode&callnative=1","route_id":"r1","route_name":"第1段","global_order":34},{"name":"博康宠物医院","address":"水岸华庭西南角(运城广播电视台斜对角)","phone":"15835277856","category":"医疗保健服务;动物医疗场所;宠物诊所","area":"","lng":111.041671,"lat":35.035708,"amap_id":"B0FFHNLJQJ","order":35,"prev_distance_km":1.342,"cumulative_distance_km":51.267,"amap_marker_url":"https://uri.amap.com/marker?position=111.041671,35.035708&name=%E5%8D%9A%E5%BA%B7%E5%AE%A0%E7%89%A9%E5%8C%BB%E9%99%A2&src=vetmap&coordinate=gaode&callnative=1","route_id":"r1","route_name":"第1段","global_order":35},{"name":"恒康宠物医院(水岸华庭店)","address":"河东东街水岸华庭北门21号楼104号","phone":"13044408506;15535920330","category":"医疗保健服务;动物医疗场所;宠物诊所","area":"","lng":111.041194,"lat":35.038325,"amap_id":"B0M6UZOF7O","order":36,"prev_distance_km":0.294,"cumulative_distance_km":51.561,"amap_marker_url":"https://uri.amap.com/marker?position=111.041194,35.038325&name=%E6%81%92%E5%BA%B7%E5%AE%A0%E7%89%A9%E5%8C%BB%E9%99%A2%28%E6%B0%B4%E5%B2%B8%E5%8D%8E%E5%BA%AD%E5%BA%97%29&src=vetmap&coordinate=gaode&callnative=1","route_id":"r1","route_name":"第1段","global_order":36},{"name":"杨医生宠物诊所","address":"河东东街明瑞园103商铺","phone":"13299090255","category":"医疗保健服务;动物医疗场所;宠物诊所","area":"","lng":111.043804,"lat":35.040641,"amap_id":"B0LGOZ2UEX","order":37,"prev_distance_km":0.35,"cumulative_distance_km":51.911,"amap_marker_url":"https://uri.amap.com/marker?position=111.043804,35.040641&name=%E6%9D%A8%E5%8C%BB%E7%94%9F%E5%AE%A0%E7%89%A9%E8%AF%8A%E6%89%80&src=vetmap&coordinate=gaode&callnative=1","route_id":"r1","route_name":"第1段","global_order":37},{"name":"乐宠宠物诊所(云鼎·云湖湾店)","address":"红旗东街云湖湾3号楼门面房","phone":"0359-8849944;15203481115","category":"医疗保健服务;动物医疗场所;宠物诊所","area":"","lng":111.048056,"lat":35.037373,"amap_id":"B0FFHKQ114","order":38,"prev_distance_km":0.531,"cumulative_distance_km":52.442,"amap_marker_url":"https://uri.amap.com/marker?position=111.048056,35.037373&name=%E4%B9%90%E5%AE%A0%E5%AE%A0%E7%89%A9%E8%AF%8A%E6%89%80%28%E4%BA%91%E9%BC%8E%C2%B7%E4%BA%91%E6%B9%96%E6%B9%BE%E5%BA%97%29&src=vetmap&coordinate=gaode&callnative=1","route_id":"r1","route_name":"第1段","global_order":38},{"name":"佑艾迪动物医院","address":"安邑街道河东东街与韩信路交叉口关铝花园2幢1层104商铺号","phone":"18735919021","category":"医疗保健服务;动物医疗场所;宠物诊所","area":"","lng":111.047105,"lat":35.042287,"amap_id":"B0KAUSH1DR","order":39,"prev_distance_km":0.553,"cumulative_distance_km":52.996,"amap_marker_url":"https://uri.amap.com/marker?position=111.047105,35.042287&name=%E4%BD%91%E8%89%BE%E8%BF%AA%E5%8A%A8%E7%89%A9%E5%8C%BB%E9%99%A2&src=vetmap&coordinate=gaode&callnative=1","route_id":"r1","route_name":"第1段","global_order":39},{"name":"运城市安邑畜牧兽医站","address":"安邑西大街19号安邑派出所附近","phone":"","category":"医疗保健服务;动物医疗场所;兽医站","area":"安邑","lng":111.042974,"lat":35.059013,"amap_id":"B01670M944","order":40,"prev_distance_km":1.897,"cumulative_distance_km":54.893,"amap_marker_url":"https://uri.amap.com/marker?position=111.042974,35.059013&name=%E8%BF%90%E5%9F%8E%E5%B8%82%E5%AE%89%E9%82%91%E7%95%9C%E7%89%A7%E5%85%BD%E5%8C%BB%E7%AB%99&src=vetmap&coordinate=gaode&callnative=1","route_id":"r1","route_name":"第1段","global_order":40},{"name":"康乐宠物门诊(安邑西路店)","address":"运城经济技术开发区卡纳溪谷12号楼1号","phone":"15536261668","category":"医疗保健服务;动物医疗场所;宠物诊所","area":"","lng":111.034149,"lat":35.07048,"amap_id":"B0KBT51BMQ","order":41,"prev_distance_km":1.507,"cumulative_distance_km":56.4,"amap_marker_url":"https://uri.amap.com/marker?position=111.034149,35.070480&name=%E5%BA%B7%E4%B9%90%E5%AE%A0%E7%89%A9%E9%97%A8%E8%AF%8A%28%E5%AE%89%E9%82%91%E8%A5%BF%E8%B7%AF%E5%BA%97%29&src=vetmap&coordinate=gaode&callnative=1","route_id":"r1","route_name":"第1段","global_order":41},{"name":"河东畜禽保健服务中心","address":"机场大道运城豪德贸易(广场专卖店)","phone":"13453959288;15635905180","category":"医疗保健服务;动物医疗场所;兽医站","area":"","lng":111.037158,"lat":35.081536,"amap_id":"B0FFKAXZ09","order":42,"prev_distance_km":1.259,"cumulative_distance_km":57.66,"amap_marker_url":"https://uri.amap.com/marker?position=111.037158,35.081536&name=%E6%B2%B3%E4%B8%9C%E7%95%9C%E7%A6%BD%E4%BF%9D%E5%81%A5%E6%9C%8D%E5%8A%A1%E4%B8%AD%E5%BF%83&src=vetmap&coordinate=gaode&callnative=1","route_id":"r1","route_name":"第1段","global_order":42},{"name":"玉英畜禽服务部","address":"安邑东路与机场大道交叉口西280米","phone":"","category":"医疗保健服务;动物医疗场所;兽医站","area":"","lng":111.038332,"lat":35.082473,"amap_id":"B0LG31ECTL","order":43,"prev_distance_km":0.149,"cumulative_distance_km":57.809,"amap_marker_url":"https://uri.amap.com/marker?position=111.038332,35.082473&name=%E7%8E%89%E8%8B%B1%E7%95%9C%E7%A6%BD%E6%9C%8D%E5%8A%A1%E9%83%A8&src=vetmap&coordinate=gaode&callnative=1","route_id":"r1","route_name":"第1段","global_order":43},{"name":"喵呜宠物医院","address":"空港南区中源·格林雅地门面店喵呜萌宠诊所","phone":"17536357989","category":"医疗保健服务;动物医疗场所;宠物诊所","area":"空港","lng":111.059798,"lat":35.093166,"amap_id":"B0LU25WG0M","order":44,"prev_distance_km":2.287,"cumulative_distance_km":60.095,"amap_marker_url":"https://uri.amap.com/marker?position=111.059798,35.093166&name=%E5%96%B5%E5%91%9C%E5%AE%A0%E7%89%A9%E5%8C%BB%E9%99%A2&src=vetmap&coordinate=gaode&callnative=1","route_id":"r1","route_name":"第1段","global_order":44},{"name":"萌兽宠物诊所","address":"陶朱公街与司马温公路交叉口东80米","phone":"","category":"医疗保健服务;动物医疗场所;宠物诊所","area":"空港","lng":111.070605,"lat":35.097592,"amap_id":"B0LUDREMQ1","order":45,"prev_distance_km":1.1,"cumulative_distance_km":61.195,"amap_marker_url":"https://uri.amap.com/marker?position=111.070605,35.097592&name=%E8%90%8C%E5%85%BD%E5%AE%A0%E7%89%A9%E8%AF%8A%E6%89%80&src=vetmap&coordinate=gaode&callnative=1","route_id":"r1","route_name":"第1段","global_order":45}]}