{"summary":{"id":"d00584","province":"广东省","city":"揭阳市","district":"榕城区","count":18,"total_distance_km":29.794,"coordinate_system":"GCJ-02 / Amap","generated_at":"2026-05-07 20:22:12"},"rows":[{"name":"兽医","address":"吉荣路与十三号路交叉口东南160米","phone":"","category":"医疗保健服务;动物医疗场所;兽医站","area":"","lng":116.310921,"lat":23.512398,"amap_id":"B0FFK9DI12","order":1,"prev_distance_km":0.0,"cumulative_distance_km":0.0,"amap_marker_url":"https://uri.amap.com/marker?position=116.310921,23.512398&name=%E5%85%BD%E5%8C%BB&src=vetmap&coordinate=gaode&callnative=1"},{"name":"特别特动物医院(西苑总院)","address":"西马西苑沿街铺三栋76-77号","phone":"17875152403","category":"医疗保健服务;动物医疗场所;宠物诊所","area":"","lng":116.344996,"lat":23.540096,"amap_id":"B02970NJ4N","order":2,"prev_distance_km":4.643,"cumulative_distance_km":4.643,"amap_marker_url":"https://uri.amap.com/marker?position=116.344996,23.540096&name=%E7%89%B9%E5%88%AB%E7%89%B9%E5%8A%A8%E7%89%A9%E5%8C%BB%E9%99%A2%28%E8%A5%BF%E8%8B%91%E6%80%BB%E9%99%A2%29&src=vetmap&coordinate=gaode&callnative=1"},{"name":"家有宠物医院(揭阳榕城分院)","address":"贵源豪湾23号铺","phone":"17833982909","category":"医疗保健服务;动物医疗场所;宠物诊所","area":"","lng":116.347317,"lat":23.544939,"amap_id":"B0KAU5LH3W","order":3,"prev_distance_km":0.588,"cumulative_distance_km":5.231,"amap_marker_url":"https://uri.amap.com/marker?position=116.347317,23.544939&name=%E5%AE%B6%E6%9C%89%E5%AE%A0%E7%89%A9%E5%8C%BB%E9%99%A2%28%E6%8F%AD%E9%98%B3%E6%A6%95%E5%9F%8E%E5%88%86%E9%99%A2%29&src=vetmap&coordinate=gaode&callnative=1"},{"name":"欲动动物诊所","address":"临江北路1-2号附近","phone":"15915671311","category":"医疗保健服务;动物医疗场所;宠物诊所","area":"临江北路","lng":116.362167,"lat":23.548124,"amap_id":"B0HDLMXFPX","order":4,"prev_distance_km":1.555,"cumulative_distance_km":6.786,"amap_marker_url":"https://uri.amap.com/marker?position=116.362167,23.548124&name=%E6%AC%B2%E5%8A%A8%E5%8A%A8%E7%89%A9%E8%AF%8A%E6%89%80&src=vetmap&coordinate=gaode&callnative=1"},{"name":"城堡宠物诊所","address":"毓秀路格子街36号","phone":"15889155567","category":"医疗保健服务;动物医疗场所;宠物诊所","area":"天福东路","lng":116.365186,"lat":23.541333,"amap_id":"B0FFIS1MZ9","order":5,"prev_distance_km":0.815,"cumulative_distance_km":7.601,"amap_marker_url":"https://uri.amap.com/marker?position=116.365186,23.541333&name=%E5%9F%8E%E5%A0%A1%E5%AE%A0%E7%89%A9%E8%AF%8A%E6%89%80&src=vetmap&coordinate=gaode&callnative=1"},{"name":"乐健宠物诊疗中心","address":"同心路12号江南新城四期48","phone":"17875158507","category":"医疗保健服务;动物医疗场所;宠物诊所","area":"临江南路","lng":116.371163,"lat":23.545012,"amap_id":"B0IUUDTUHO","order":6,"prev_distance_km":0.734,"cumulative_distance_km":8.335,"amap_marker_url":"https://uri.amap.com/marker?position=116.371163,23.545012&name=%E4%B9%90%E5%81%A5%E5%AE%A0%E7%89%A9%E8%AF%8A%E7%96%97%E4%B8%AD%E5%BF%83&src=vetmap&coordinate=gaode&callnative=1"},{"name":"酷宠动物诊疗中心","address":"乐怡住无人智慧酒店(黄岐山大道南)","phone":"13060592751","category":"医疗保健服务;动物医疗场所;宠物诊所","area":"黄岐山大道","lng":116.369283,"lat":23.552581,"amap_id":"B0FFI2OYOF","order":7,"prev_distance_km":0.863,"cumulative_distance_km":9.198,"amap_marker_url":"https://uri.amap.com/marker?position=116.369283,23.552581&name=%E9%85%B7%E5%AE%A0%E5%8A%A8%E7%89%A9%E8%AF%8A%E7%96%97%E4%B8%AD%E5%BF%83&src=vetmap&coordinate=gaode&callnative=1"},{"name":"永春堂宠物医院","address":"马牙路奕盛桥架线槽线管隔壁","phone":"13822999848;18022550848","category":"医疗保健服务;动物医疗场所;宠物诊所","area":"东山","lng":116.358516,"lat":23.556556,"amap_id":"B0FFFYJYNZ","order":8,"prev_distance_km":1.183,"cumulative_distance_km":10.381,"amap_marker_url":"https://uri.amap.com/marker?position=116.358516,23.556556&name=%E6%B0%B8%E6%98%A5%E5%A0%82%E5%AE%A0%E7%89%A9%E5%8C%BB%E9%99%A2&src=vetmap&coordinate=gaode&callnative=1"},{"name":"暖阳宠物诊所","address":"特美思客运站西南门旁","phone":"18219156527","category":"医疗保健服务;动物医疗场所;宠物诊所","area":"美阳路","lng":116.357136,"lat":23.559463,"amap_id":"B0KGOM9BYK","order":9,"prev_distance_km":0.353,"cumulative_distance_km":10.734,"amap_marker_url":"https://uri.amap.com/marker?position=116.357136,23.559463&name=%E6%9A%96%E9%98%B3%E5%AE%A0%E7%89%A9%E8%AF%8A%E6%89%80&src=vetmap&coordinate=gaode&callnative=1"},{"name":"吡卡吡卡宠物诊所","address":"建阳路金凤豪苑南门171,172号铺","phone":"18923555110","category":"医疗保健服务;动物医疗场所;宠物诊所","area":"二号路","lng":116.360441,"lat":23.561602,"amap_id":"B0LUM9FS7J","order":10,"prev_distance_km":0.412,"cumulative_distance_km":11.146,"amap_marker_url":"https://uri.amap.com/marker?position=116.360441,23.561602&name=%E5%90%A1%E5%8D%A1%E5%90%A1%E5%8D%A1%E5%AE%A0%E7%89%A9%E8%AF%8A%E6%89%80&src=vetmap&coordinate=gaode&callnative=1"},{"name":"特别特动物医院(建阳店)","address":"八号街以东二号路以南富榕花园四期4号","phone":"0663-8885565","category":"医疗保健服务;动物医疗场所;宠物诊所","area":"建阳路","lng":116.365274,"lat":23.561445,"amap_id":"B0H02SFJ81","order":11,"prev_distance_km":0.493,"cumulative_distance_km":11.639,"amap_marker_url":"https://uri.amap.com/marker?position=116.365274,23.561445&name=%E7%89%B9%E5%88%AB%E7%89%B9%E5%8A%A8%E7%89%A9%E5%8C%BB%E9%99%A2%28%E5%BB%BA%E9%98%B3%E5%BA%97%29&src=vetmap&coordinate=gaode&callnative=1"},{"name":"星伴动物医院","address":"新河村新阳路南二区新阳东路105-106号","phone":"15811951014","category":"医疗保健服务;动物医疗场所;宠物诊所","area":"晓翠路","lng":116.377439,"lat":23.555483,"amap_id":"B0K66UUW0S","order":12,"prev_distance_km":1.406,"cumulative_distance_km":13.045,"amap_marker_url":"https://uri.amap.com/marker?position=116.377439,23.555483&name=%E6%98%9F%E4%BC%B4%E5%8A%A8%E7%89%A9%E5%8C%BB%E9%99%A2&src=vetmap&coordinate=gaode&callnative=1"},{"name":"安妮摩尔宠物医院(汇龙湾北)","address":"汇龙湾东门北100米","phone":"13682846351;13822076835","category":"医疗保健服务;动物医疗场所;宠物诊所","area":"临江北路","lng":116.391113,"lat":23.561573,"amap_id":"B0FFH1DU16","order":13,"prev_distance_km":1.55,"cumulative_distance_km":14.595,"amap_marker_url":"https://uri.amap.com/marker?position=116.391113,23.561573&name=%E5%AE%89%E5%A6%AE%E6%91%A9%E5%B0%94%E5%AE%A0%E7%89%A9%E5%8C%BB%E9%99%A2%28%E6%B1%87%E9%BE%99%E6%B9%BE%E5%8C%97%29&src=vetmap&coordinate=gaode&callnative=1"},{"name":"特别特动物医院(梅东店)","address":"东升街东泮社区东兴园3栋58-60号","phone":"0663-8885560","category":"医疗保健服务;动物医疗场所;宠物诊所","area":"临江北路","lng":116.386662,"lat":23.549381,"amap_id":"B0H1NXEZT3","order":14,"prev_distance_km":1.43,"cumulative_distance_km":16.024,"amap_marker_url":"https://uri.amap.com/marker?position=116.386662,23.549381&name=%E7%89%B9%E5%88%AB%E7%89%B9%E5%8A%A8%E7%89%A9%E5%8C%BB%E9%99%A2%28%E6%A2%85%E4%B8%9C%E5%BA%97%29&src=vetmap&coordinate=gaode&callnative=1"},{"name":"瑞宠宠物医院","address":"东三路合桂园小区16号商铺","phone":"13076594555","category":"医疗保健服务;动物医疗场所;宠物诊所","area":"天福东路","lng":116.381469,"lat":23.54035,"amap_id":"B0HRF52TW9","order":15,"prev_distance_km":1.135,"cumulative_distance_km":17.159,"amap_marker_url":"https://uri.amap.com/marker?position=116.381469,23.540350&name=%E7%91%9E%E5%AE%A0%E5%AE%A0%E7%89%A9%E5%8C%BB%E9%99%A2&src=vetmap&coordinate=gaode&callnative=1"},{"name":"腾鑫宠物医疗","address":"进贤门大道北侧下义路段3号","phone":"0663-8627666","category":"医疗保健服务;动物医疗场所;宠物诊所","area":"东一路","lng":116.375563,"lat":23.534148,"amap_id":"B0FFGDEAP0","order":16,"prev_distance_km":0.915,"cumulative_distance_km":18.075,"amap_marker_url":"https://uri.amap.com/marker?position=116.375563,23.534148&name=%E8%85%BE%E9%91%AB%E5%AE%A0%E7%89%A9%E5%8C%BB%E7%96%97&src=vetmap&coordinate=gaode&callnative=1"},{"name":"欲动动物医院","address":"镇前街与发展大道辅路交叉口西140米","phone":"15915671311","category":"医疗保健服务;动物医疗场所;宠物诊所","area":"","lng":116.423658,"lat":23.517531,"amap_id":"B0I2H72P7W","order":17,"prev_distance_km":5.24,"cumulative_distance_km":23.315,"amap_marker_url":"https://uri.amap.com/marker?position=116.423658,23.517531&name=%E6%AC%B2%E5%8A%A8%E5%8A%A8%E7%89%A9%E5%8C%BB%E9%99%A2&src=vetmap&coordinate=gaode&callnative=1"},{"name":"仁宠宠物医疗诊所","address":"炮台镇光裕路2号","phone":"18629999796;18666308011","category":"医疗保健服务;动物医疗场所;宠物诊所","area":"","lng":116.486738,"lat":23.510486,"amap_id":"B0L26ZF09F","order":18,"prev_distance_km":6.479,"cumulative_distance_km":29.794,"amap_marker_url":"https://uri.amap.com/marker?position=116.486738,23.510486&name=%E4%BB%81%E5%AE%A0%E5%AE%A0%E7%89%A9%E5%8C%BB%E7%96%97%E8%AF%8A%E6%89%80&src=vetmap&coordinate=gaode&callnative=1"}]}