{"summary":{"id":"d00599","province":"广东省","city":"汕尾市","district":"城区","count":6,"total_distance_km":7.917,"coordinate_system":"GCJ-02 / Amap","generated_at":"2026-05-07 20:22:13"},"rows":[{"name":"安贝儿宠物医院-中心医院","address":"海滨大道翡翠湾二期15号商铺(面对大海)","phone":"0660-3342000;13172857888","category":"医疗保健服务;动物医疗场所;宠物诊所","area":"","lng":115.359163,"lat":22.767712,"amap_id":"B0FFKRY4S5","order":1,"prev_distance_km":0.0,"cumulative_distance_km":0.0,"amap_marker_url":"https://uri.amap.com/marker?position=115.359163,22.767712&name=%E5%AE%89%E8%B4%9D%E5%84%BF%E5%AE%A0%E7%89%A9%E5%8C%BB%E9%99%A2-%E4%B8%AD%E5%BF%83%E5%8C%BB%E9%99%A2&src=vetmap&coordinate=gaode&callnative=1"},{"name":"瑞和宠物医院","address":"香洲街道汕尾大道155号-157","phone":"13929390056","category":"医疗保健服务;动物医疗场所;宠物诊所","area":"香洲","lng":115.361663,"lat":22.774385,"amap_id":"B0IAP7S3RT","order":2,"prev_distance_km":0.785,"cumulative_distance_km":0.785,"amap_marker_url":"https://uri.amap.com/marker?position=115.361663,22.774385&name=%E7%91%9E%E5%92%8C%E5%AE%A0%E7%89%A9%E5%8C%BB%E9%99%A2&src=vetmap&coordinate=gaode&callnative=1"},{"name":"安贝儿宠物医院·香洲店(犬猫全科)","address":"香洲路113号","phone":"18902675198","category":"医疗保健服务;动物医疗场所;宠物诊所","area":"香洲","lng":115.370013,"lat":22.776554,"amap_id":"B0K3HZ1RLF","order":3,"prev_distance_km":0.889,"cumulative_distance_km":1.674,"amap_marker_url":"https://uri.amap.com/marker?position=115.370013,22.776554&name=%E5%AE%89%E8%B4%9D%E5%84%BF%E5%AE%A0%E7%89%A9%E5%8C%BB%E9%99%A2%C2%B7%E9%A6%99%E6%B4%B2%E5%BA%97%28%E7%8A%AC%E7%8C%AB%E5%85%A8%E7%A7%91%29&src=vetmap&coordinate=gaode&callnative=1"},{"name":"贝乐宠物医院·犬·猫·内外科(城区分院)","address":"香洲街道红海中路莲丰邨首层8号","phone":"18102876779","category":"医疗保健服务;动物医疗场所;宠物诊所","area":"","lng":115.372651,"lat":22.784479,"amap_id":"B0JK5LCT3I","order":4,"prev_distance_km":0.922,"cumulative_distance_km":2.596,"amap_marker_url":"https://uri.amap.com/marker?position=115.372651,22.784479&name=%E8%B4%9D%E4%B9%90%E5%AE%A0%E7%89%A9%E5%8C%BB%E9%99%A2%C2%B7%E7%8A%AC%C2%B7%E7%8C%AB%C2%B7%E5%86%85%E5%A4%96%E7%A7%91%28%E5%9F%8E%E5%8C%BA%E5%88%86%E9%99%A2%29&src=vetmap&coordinate=gaode&callnative=1"},{"name":"纬济宠物医院","address":"万福黄金海岸金碧湾1、2、3栋1单元03、04号","phone":"17728572188","category":"医疗保健服务;动物医疗场所;宠物诊所","area":"香洲","lng":115.381905,"lat":22.777691,"amap_id":"B0H2X7GSCT","order":5,"prev_distance_km":1.212,"cumulative_distance_km":3.809,"amap_marker_url":"https://uri.amap.com/marker?position=115.381905,22.777691&name=%E7%BA%AC%E6%B5%8E%E5%AE%A0%E7%89%A9%E5%8C%BB%E9%99%A2&src=vetmap&coordinate=gaode&callnative=1"},{"name":"生裕兽药行","address":"新湖村村委会东南侧190米","phone":"","category":"购物服务;购物相关场所;购物相关场所|医疗保健服务;动物医疗场所;动物医疗场所","area":"","lng":115.405659,"lat":22.807452,"amap_id":"B0K1ON1PRC","order":6,"prev_distance_km":4.109,"cumulative_distance_km":7.917,"amap_marker_url":"https://uri.amap.com/marker?position=115.405659,22.807452&name=%E7%94%9F%E8%A3%95%E5%85%BD%E8%8D%AF%E8%A1%8C&src=vetmap&coordinate=gaode&callnative=1"}]}