{"summary":{"id":"d00533","province":"山西省","city":"运城市","district":"稷山县","count":8,"route_count":1,"max_route_clinics":8,"total_distance_km":7.916,"coordinate_system":"GCJ-02 / Amap","generated_at":"2026-05-07 21:27:45"},"routes":[{"id":"r1","name":"第1段","count":8,"total_distance_km":7.916,"rows":[{"name":"清清宠物诊所","address":"稷峰东街53号","phone":"","category":"医疗保健服务;动物医疗场所;宠物诊所","area":"","lng":111.001993,"lat":35.599706,"amap_id":"B0LBMLXH03","order":1,"prev_distance_km":0.0,"cumulative_distance_km":0.0,"amap_marker_url":"https://uri.amap.com/marker?position=111.001993,35.599706&name=%E6%B8%85%E6%B8%85%E5%AE%A0%E7%89%A9%E8%AF%8A%E6%89%80&src=vetmap&coordinate=gaode&callnative=1","route_id":"r1","route_name":"第1段"},{"name":"乐鹏宠物诊所","address":"稷山县人民检察院南门西50米","phone":"","category":"医疗保健服务;动物医疗场所;宠物诊所","area":"","lng":110.989667,"lat":35.604158,"amap_id":"B0ID77N6GD","order":2,"prev_distance_km":1.219,"cumulative_distance_km":1.219,"amap_marker_url":"https://uri.amap.com/marker?position=110.989667,35.604158&name=%E4%B9%90%E9%B9%8F%E5%AE%A0%E7%89%A9%E8%AF%8A%E6%89%80&src=vetmap&coordinate=gaode&callnative=1","route_id":"r1","route_name":"第1段"},{"name":"福瑞动物诊所","address":"大佛北路东侧福瑞动物诊所(妈妈驿站旁)","phone":"15535977127","category":"医疗保健服务;动物医疗场所;宠物诊所","area":"","lng":110.985828,"lat":35.60515,"amap_id":"B0I3R7VE94","order":3,"prev_distance_km":0.364,"cumulative_distance_km":1.584,"amap_marker_url":"https://uri.amap.com/marker?position=110.985828,35.605150&name=%E7%A6%8F%E7%91%9E%E5%8A%A8%E7%89%A9%E8%AF%8A%E6%89%80&src=vetmap&coordinate=gaode&callnative=1","route_id":"r1","route_name":"第1段"},{"name":"百杏堂动物诊所","address":"G108(稷南大街)","phone":"13453922137;13935990157","category":"医疗保健服务;动物医疗场所;宠物诊所","area":"","lng":110.986739,"lat":35.594966,"amap_id":"B0G3DY12TO","order":4,"prev_distance_km":1.135,"cumulative_distance_km":2.719,"amap_marker_url":"https://uri.amap.com/marker?position=110.986739,35.594966&name=%E7%99%BE%E6%9D%8F%E5%A0%82%E5%8A%A8%E7%89%A9%E8%AF%8A%E6%89%80&src=vetmap&coordinate=gaode&callnative=1","route_id":"r1","route_name":"第1段"},{"name":"稷峰镇畜牧兽医站","address":"祥和家园北门旁","phone":"","category":"医疗保健服务;动物医疗场所;兽医站","area":"","lng":110.980916,"lat":35.59755,"amap_id":"B0FFMEOTFQ","order":5,"prev_distance_km":0.6,"cumulative_distance_km":3.319,"amap_marker_url":"https://uri.amap.com/marker?position=110.980916,35.597550&name=%E7%A8%B7%E5%B3%B0%E9%95%87%E7%95%9C%E7%89%A7%E5%85%BD%E5%8C%BB%E7%AB%99&src=vetmap&coordinate=gaode&callnative=1","route_id":"r1","route_name":"第1段"},{"name":"稷山县小动物门诊部","address":"城南街与振兴路交叉口西180米","phone":"13835904449","category":"医疗保健服务;动物医疗场所;宠物诊所","area":"","lng":110.972464,"lat":35.596709,"amap_id":"B0FFHP3TFF","order":6,"prev_distance_km":0.77,"cumulative_distance_km":4.089,"amap_marker_url":"https://uri.amap.com/marker?position=110.972464,35.596709&name=%E7%A8%B7%E5%B1%B1%E5%8E%BF%E5%B0%8F%E5%8A%A8%E7%89%A9%E9%97%A8%E8%AF%8A%E9%83%A8&src=vetmap&coordinate=gaode&callnative=1","route_id":"r1","route_name":"第1段"},{"name":"动物检疫站","address":"城南街与振兴路交叉口西180米","phone":"","category":"医疗保健服务;动物医疗场所;动物医疗场所","area":"","lng":110.972375,"lat":35.596725,"amap_id":"B0M6XUQQ3Q","order":7,"prev_distance_km":0.008,"cumulative_distance_km":4.097,"amap_marker_url":"https://uri.amap.com/marker?position=110.972375,35.596725&name=%E5%8A%A8%E7%89%A9%E6%A3%80%E7%96%AB%E7%AB%99&src=vetmap&coordinate=gaode&callnative=1","route_id":"r1","route_name":"第1段"},{"name":"苏江潮动物服务部","address":"清河镇吴壁村退役军人服务站西南侧","phone":"","category":"医疗保健服务;动物医疗场所;宠物诊所","area":"","lng":110.974952,"lat":35.562442,"amap_id":"B0LAA7O6KJ","order":8,"prev_distance_km":3.819,"cumulative_distance_km":7.916,"amap_marker_url":"https://uri.amap.com/marker?position=110.974952,35.562442&name=%E8%8B%8F%E6%B1%9F%E6%BD%AE%E5%8A%A8%E7%89%A9%E6%9C%8D%E5%8A%A1%E9%83%A8&src=vetmap&coordinate=gaode&callnative=1","route_id":"r1","route_name":"第1段"}]}],"rows":[{"name":"清清宠物诊所","address":"稷峰东街53号","phone":"","category":"医疗保健服务;动物医疗场所;宠物诊所","area":"","lng":111.001993,"lat":35.599706,"amap_id":"B0LBMLXH03","order":1,"prev_distance_km":0.0,"cumulative_distance_km":0.0,"amap_marker_url":"https://uri.amap.com/marker?position=111.001993,35.599706&name=%E6%B8%85%E6%B8%85%E5%AE%A0%E7%89%A9%E8%AF%8A%E6%89%80&src=vetmap&coordinate=gaode&callnative=1","route_id":"r1","route_name":"第1段","global_order":1},{"name":"乐鹏宠物诊所","address":"稷山县人民检察院南门西50米","phone":"","category":"医疗保健服务;动物医疗场所;宠物诊所","area":"","lng":110.989667,"lat":35.604158,"amap_id":"B0ID77N6GD","order":2,"prev_distance_km":1.219,"cumulative_distance_km":1.219,"amap_marker_url":"https://uri.amap.com/marker?position=110.989667,35.604158&name=%E4%B9%90%E9%B9%8F%E5%AE%A0%E7%89%A9%E8%AF%8A%E6%89%80&src=vetmap&coordinate=gaode&callnative=1","route_id":"r1","route_name":"第1段","global_order":2},{"name":"福瑞动物诊所","address":"大佛北路东侧福瑞动物诊所(妈妈驿站旁)","phone":"15535977127","category":"医疗保健服务;动物医疗场所;宠物诊所","area":"","lng":110.985828,"lat":35.60515,"amap_id":"B0I3R7VE94","order":3,"prev_distance_km":0.364,"cumulative_distance_km":1.584,"amap_marker_url":"https://uri.amap.com/marker?position=110.985828,35.605150&name=%E7%A6%8F%E7%91%9E%E5%8A%A8%E7%89%A9%E8%AF%8A%E6%89%80&src=vetmap&coordinate=gaode&callnative=1","route_id":"r1","route_name":"第1段","global_order":3},{"name":"百杏堂动物诊所","address":"G108(稷南大街)","phone":"13453922137;13935990157","category":"医疗保健服务;动物医疗场所;宠物诊所","area":"","lng":110.986739,"lat":35.594966,"amap_id":"B0G3DY12TO","order":4,"prev_distance_km":1.135,"cumulative_distance_km":2.719,"amap_marker_url":"https://uri.amap.com/marker?position=110.986739,35.594966&name=%E7%99%BE%E6%9D%8F%E5%A0%82%E5%8A%A8%E7%89%A9%E8%AF%8A%E6%89%80&src=vetmap&coordinate=gaode&callnative=1","route_id":"r1","route_name":"第1段","global_order":4},{"name":"稷峰镇畜牧兽医站","address":"祥和家园北门旁","phone":"","category":"医疗保健服务;动物医疗场所;兽医站","area":"","lng":110.980916,"lat":35.59755,"amap_id":"B0FFMEOTFQ","order":5,"prev_distance_km":0.6,"cumulative_distance_km":3.319,"amap_marker_url":"https://uri.amap.com/marker?position=110.980916,35.597550&name=%E7%A8%B7%E5%B3%B0%E9%95%87%E7%95%9C%E7%89%A7%E5%85%BD%E5%8C%BB%E7%AB%99&src=vetmap&coordinate=gaode&callnative=1","route_id":"r1","route_name":"第1段","global_order":5},{"name":"稷山县小动物门诊部","address":"城南街与振兴路交叉口西180米","phone":"13835904449","category":"医疗保健服务;动物医疗场所;宠物诊所","area":"","lng":110.972464,"lat":35.596709,"amap_id":"B0FFHP3TFF","order":6,"prev_distance_km":0.77,"cumulative_distance_km":4.089,"amap_marker_url":"https://uri.amap.com/marker?position=110.972464,35.596709&name=%E7%A8%B7%E5%B1%B1%E5%8E%BF%E5%B0%8F%E5%8A%A8%E7%89%A9%E9%97%A8%E8%AF%8A%E9%83%A8&src=vetmap&coordinate=gaode&callnative=1","route_id":"r1","route_name":"第1段","global_order":6},{"name":"动物检疫站","address":"城南街与振兴路交叉口西180米","phone":"","category":"医疗保健服务;动物医疗场所;动物医疗场所","area":"","lng":110.972375,"lat":35.596725,"amap_id":"B0M6XUQQ3Q","order":7,"prev_distance_km":0.008,"cumulative_distance_km":4.097,"amap_marker_url":"https://uri.amap.com/marker?position=110.972375,35.596725&name=%E5%8A%A8%E7%89%A9%E6%A3%80%E7%96%AB%E7%AB%99&src=vetmap&coordinate=gaode&callnative=1","route_id":"r1","route_name":"第1段","global_order":7},{"name":"苏江潮动物服务部","address":"清河镇吴壁村退役军人服务站西南侧","phone":"","category":"医疗保健服务;动物医疗场所;宠物诊所","area":"","lng":110.974952,"lat":35.562442,"amap_id":"B0LAA7O6KJ","order":8,"prev_distance_km":3.819,"cumulative_distance_km":7.916,"amap_marker_url":"https://uri.amap.com/marker?position=110.974952,35.562442&name=%E8%8B%8F%E6%B1%9F%E6%BD%AE%E5%8A%A8%E7%89%A9%E6%9C%8D%E5%8A%A1%E9%83%A8&src=vetmap&coordinate=gaode&callnative=1","route_id":"r1","route_name":"第1段","global_order":8}]}