{"summary":{"id":"d00597","province":"广东省","city":"汕头市","district":"金平区","count":20,"route_count":1,"max_route_clinics":20,"total_distance_km":17.419,"coordinate_system":"GCJ-02 / Amap","generated_at":"2026-05-07 21:28:13"},"routes":[{"id":"r1","name":"第1段","count":20,"total_distance_km":17.419,"rows":[{"name":"永顺兽药店","address":"富贵路一巷11号","phone":"","category":"医疗保健服务;动物医疗场所;动物医疗场所","area":"","lng":116.687075,"lat":23.425375,"amap_id":"B0FFIFX0W5","order":1,"prev_distance_km":0.0,"cumulative_distance_km":0.0,"amap_marker_url":"https://uri.amap.com/marker?position=116.687075,23.425375&name=%E6%B0%B8%E9%A1%BA%E5%85%BD%E8%8D%AF%E5%BA%97&src=vetmap&coordinate=gaode&callnative=1","route_id":"r1","route_name":"第1段"},{"name":"汕头市金平区动物检疫申报点","address":"天山北路与汕樟路交叉口西160米","phone":"","category":"医疗保健服务;动物医疗场所;动物医疗场所","area":"","lng":116.703784,"lat":23.39784,"amap_id":"B0FFKCPACN","order":2,"prev_distance_km":3.504,"cumulative_distance_km":3.504,"amap_marker_url":"https://uri.amap.com/marker?position=116.703784,23.397840&name=%E6%B1%95%E5%A4%B4%E5%B8%82%E9%87%91%E5%B9%B3%E5%8C%BA%E5%8A%A8%E7%89%A9%E6%A3%80%E7%96%AB%E7%94%B3%E6%8A%A5%E7%82%B9&src=vetmap&coordinate=gaode&callnative=1","route_id":"r1","route_name":"第1段"},{"name":"宠康宠物诊所(汕樟路店)","address":"汕樟路浮西路段后埔池片12号","phone":"","category":"医疗保健服务;动物医疗场所;宠物诊所","area":"","lng":116.703866,"lat":23.395512,"amap_id":"B0IDS5JEEU","order":3,"prev_distance_km":0.259,"cumulative_distance_km":3.763,"amap_marker_url":"https://uri.amap.com/marker?position=116.703866,23.395512&name=%E5%AE%A0%E5%BA%B7%E5%AE%A0%E7%89%A9%E8%AF%8A%E6%89%80%28%E6%B1%95%E6%A8%9F%E8%B7%AF%E5%BA%97%29&src=vetmap&coordinate=gaode&callnative=1","route_id":"r1","route_name":"第1段"},{"name":"迈特宠物医院(汕头嘉年华院)24小时营业","address":"金禧花园金柳78幢103号房之一","phone":"18929644855","category":"医疗保健服务;动物医疗场所;宠物诊所","area":"金新北路","lng":116.708252,"lat":23.389619,"amap_id":"B0LDGCTIBL","order":4,"prev_distance_km":0.794,"cumulative_distance_km":4.557,"amap_marker_url":"https://uri.amap.com/marker?position=116.708252,23.389619&name=%E8%BF%88%E7%89%B9%E5%AE%A0%E7%89%A9%E5%8C%BB%E9%99%A2%28%E6%B1%95%E5%A4%B4%E5%98%89%E5%B9%B4%E5%8D%8E%E9%99%A2%2924%E5%B0%8F%E6%97%B6%E8%90%A5%E4%B8%9A&src=vetmap&coordinate=gaode&callnative=1","route_id":"r1","route_name":"第1段"},{"name":"唯安宠物诊所","address":"浮西商贸城13号商铺","phone":"17841710239","category":"医疗保健服务;动物医疗场所;宠物诊所","area":"","lng":116.710359,"lat":23.387879,"amap_id":"B0JA29JGVD","order":5,"prev_distance_km":0.289,"cumulative_distance_km":4.846,"amap_marker_url":"https://uri.amap.com/marker?position=116.710359,23.387879&name=%E5%94%AF%E5%AE%89%E5%AE%A0%E7%89%A9%E8%AF%8A%E6%89%80&src=vetmap&coordinate=gaode&callnative=1","route_id":"r1","route_name":"第1段"},{"name":"缘潼宠动物医疗中心","address":"中信东厦花园1期西北门东北60米","phone":"","category":"医疗保健服务;动物医疗场所;宠物诊所","area":"","lng":116.715152,"lat":23.390895,"amap_id":"B0M6LZ4M1K","order":6,"prev_distance_km":0.593,"cumulative_distance_km":5.439,"amap_marker_url":"https://uri.amap.com/marker?position=116.715152,23.390895&name=%E7%BC%98%E6%BD%BC%E5%AE%A0%E5%8A%A8%E7%89%A9%E5%8C%BB%E7%96%97%E4%B8%AD%E5%BF%83&src=vetmap&coordinate=gaode&callnative=1","route_id":"r1","route_name":"第1段"},{"name":"凯纳动物医院犬猫专科·异宠·眼科","address":"东厦花园二区34栋","phone":"13288078415","category":"医疗保健服务;动物医疗场所;宠物诊所","area":"","lng":116.715776,"lat":23.392287,"amap_id":"B0FFM5LM2P","order":7,"prev_distance_km":0.167,"cumulative_distance_km":5.607,"amap_marker_url":"https://uri.amap.com/marker?position=116.715776,23.392287&name=%E5%87%AF%E7%BA%B3%E5%8A%A8%E7%89%A9%E5%8C%BB%E9%99%A2%E7%8A%AC%E7%8C%AB%E4%B8%93%E7%A7%91%C2%B7%E5%BC%82%E5%AE%A0%C2%B7%E7%9C%BC%E7%A7%91&src=vetmap&coordinate=gaode&callnative=1","route_id":"r1","route_name":"第1段"},{"name":"派特宠物诊所(中信东厦花园店)","address":"东厦花园3区28栋(天山北路)","phone":"18924793035;18924793061","category":"医疗保健服务;动物医疗场所;宠物诊所","area":"","lng":116.716326,"lat":23.391479,"amap_id":"B0JAYUB8RI","order":8,"prev_distance_km":0.106,"cumulative_distance_km":5.713,"amap_marker_url":"https://uri.amap.com/marker?position=116.716326,23.391479&name=%E6%B4%BE%E7%89%B9%E5%AE%A0%E7%89%A9%E8%AF%8A%E6%89%80%28%E4%B8%AD%E4%BF%A1%E4%B8%9C%E5%8E%A6%E8%8A%B1%E5%9B%AD%E5%BA%97%29&src=vetmap&coordinate=gaode&callnative=1","route_id":"r1","route_name":"第1段"},{"name":"宠物洗护","address":"星汇国际花园北区5号门东50米","phone":"","category":"医疗保健服务;动物医疗场所;动物医疗场所","area":"","lng":116.714898,"lat":23.388916,"amap_id":"B0L627VQ5S","order":9,"prev_distance_km":0.32,"cumulative_distance_km":6.033,"amap_marker_url":"https://uri.amap.com/marker?position=116.714898,23.388916&name=%E5%AE%A0%E7%89%A9%E6%B4%97%E6%8A%A4&src=vetmap&coordinate=gaode&callnative=1","route_id":"r1","route_name":"第1段"},{"name":"家有宠物医院金平森宝分院","address":"金墩园21栋201号房","phone":"15914775883","category":"医疗保健服务;动物医疗场所;宠物诊所","area":"","lng":116.712887,"lat":23.386107,"amap_id":"B0G2GRPBMD","order":10,"prev_distance_km":0.374,"cumulative_distance_km":6.407,"amap_marker_url":"https://uri.amap.com/marker?position=116.712887,23.386107&name=%E5%AE%B6%E6%9C%89%E5%AE%A0%E7%89%A9%E5%8C%BB%E9%99%A2%E9%87%91%E5%B9%B3%E6%A3%AE%E5%AE%9D%E5%88%86%E9%99%A2&src=vetmap&coordinate=gaode&callnative=1","route_id":"r1","route_name":"第1段"},{"name":"仙仙宠物","address":"芙蓉园12栋101","phone":"13822825797","category":"医疗保健服务;动物医疗场所;动物医疗场所","area":"百花路","lng":116.709504,"lat":23.376197,"amap_id":"B0LGA7LMB9","order":11,"prev_distance_km":1.155,"cumulative_distance_km":7.561,"amap_marker_url":"https://uri.amap.com/marker?position=116.709504,23.376197&name=%E4%BB%99%E4%BB%99%E5%AE%A0%E7%89%A9&src=vetmap&coordinate=gaode&callnative=1","route_id":"r1","route_name":"第1段"},{"name":"汕头市动物疫病预防控制中心","address":"金环南路22号","phone":"","category":"医疗保健服务;动物医疗场所;动物医疗场所","area":"金砂乡","lng":116.715697,"lat":23.363406,"amap_id":"B02F20O18V","order":12,"prev_distance_km":1.556,"cumulative_distance_km":9.118,"amap_marker_url":"https://uri.amap.com/marker?position=116.715697,23.363406&name=%E6%B1%95%E5%A4%B4%E5%B8%82%E5%8A%A8%E7%89%A9%E7%96%AB%E7%97%85%E9%A2%84%E9%98%B2%E6%8E%A7%E5%88%B6%E4%B8%AD%E5%BF%83&src=vetmap&coordinate=gaode&callnative=1","route_id":"r1","route_name":"第1段"},{"name":"5+宠物高端洗护","address":"公信路与金信街交叉口北40米","phone":"","category":"医疗保健服务;动物医疗场所;动物医疗场所","area":"滨港路","lng":116.712773,"lat":23.356685,"amap_id":"B0KR4HDIC2","order":13,"prev_distance_km":0.805,"cumulative_distance_km":9.923,"amap_marker_url":"https://uri.amap.com/marker?position=116.712773,23.356685&name=5%2B%E5%AE%A0%E7%89%A9%E9%AB%98%E7%AB%AF%E6%B4%97%E6%8A%A4&src=vetmap&coordinate=gaode&callnative=1","route_id":"r1","route_name":"第1段"},{"name":"百纳尊宠动物医院","address":"海滨路55号","phone":"0754-88990220","category":"医疗保健服务;动物医疗场所;宠物诊所","area":"滨港路","lng":116.714463,"lat":23.352564,"amap_id":"B0LUPM0V25","order":14,"prev_distance_km":0.49,"cumulative_distance_km":10.412,"amap_marker_url":"https://uri.amap.com/marker?position=116.714463,23.352564&name=%E7%99%BE%E7%BA%B3%E5%B0%8A%E5%AE%A0%E5%8A%A8%E7%89%A9%E5%8C%BB%E9%99%A2&src=vetmap&coordinate=gaode&callnative=1","route_id":"r1","route_name":"第1段"},{"name":"宝康宠物诊所","address":"滨港路4号105号106号铺面","phone":"","category":"医疗保健服务;动物医疗场所;宠物诊所","area":"滨港路","lng":116.706512,"lat":23.354922,"amap_id":"B0LKS7JICA","order":15,"prev_distance_km":0.853,"cumulative_distance_km":11.265,"amap_marker_url":"https://uri.amap.com/marker?position=116.706512,23.354922&name=%E5%AE%9D%E5%BA%B7%E5%AE%A0%E7%89%A9%E8%AF%8A%E6%89%80&src=vetmap&coordinate=gaode&callnative=1","route_id":"r1","route_name":"第1段"},{"name":"乐维宠物诊所","address":"金厦园中区3栋108号","phone":"","category":"医疗保健服务;动物医疗场所;宠物诊所","area":"滨港路","lng":116.707365,"lat":23.355934,"amap_id":"B0J6AAW24K","order":16,"prev_distance_km":0.142,"cumulative_distance_km":11.407,"amap_marker_url":"https://uri.amap.com/marker?position=116.707365,23.355934&name=%E4%B9%90%E7%BB%B4%E5%AE%A0%E7%89%A9%E8%AF%8A%E6%89%80&src=vetmap&coordinate=gaode&callnative=1","route_id":"r1","route_name":"第1段"},{"name":"拜鲁耶动物诊疗中心","address":"党校路金凰雅轩","phone":"","category":"医疗保健服务;动物医疗场所;宠物诊所","area":"","lng":116.701679,"lat":23.374975,"amap_id":"B0HKHUDBHJ","order":17,"prev_distance_km":2.195,"cumulative_distance_km":13.603,"amap_marker_url":"https://uri.amap.com/marker?position=116.701679,23.374975&name=%E6%8B%9C%E9%B2%81%E8%80%B6%E5%8A%A8%E7%89%A9%E8%AF%8A%E7%96%97%E4%B8%AD%E5%BF%83&src=vetmap&coordinate=gaode&callnative=1","route_id":"r1","route_name":"第1段"},{"name":"宠家动物医院","address":"金湖路101-102号","phone":"0754-89891272;18929600234","category":"医疗保健服务;动物医疗场所;宠物诊所","area":"","lng":116.701605,"lat":23.374941,"amap_id":"B0FFJ14JJQ","order":18,"prev_distance_km":0.008,"cumulative_distance_km":13.611,"amap_marker_url":"https://uri.amap.com/marker?position=116.701605,23.374941&name=%E5%AE%A0%E5%AE%B6%E5%8A%A8%E7%89%A9%E5%8C%BB%E9%99%A2&src=vetmap&coordinate=gaode&callnative=1","route_id":"r1","route_name":"第1段"},{"name":"德宠宠物诊所","address":"金湖路95号金紫世家20幢114","phone":"18948025872","category":"医疗保健服务;动物医疗场所;宠物诊所","area":"","lng":116.699374,"lat":23.377417,"amap_id":"B0I3G5JIIE","order":19,"prev_distance_km":0.357,"cumulative_distance_km":13.969,"amap_marker_url":"https://uri.amap.com/marker?position=116.699374,23.377417&name=%E5%BE%B7%E5%AE%A0%E5%AE%A0%E7%89%A9%E8%AF%8A%E6%89%80&src=vetmap&coordinate=gaode&callnative=1","route_id":"r1","route_name":"第1段"},{"name":"米拉尼宠物美容","address":"长兴南街与安居路交叉口东北60米","phone":"","category":"医疗保健服务;动物医疗场所;宠物诊所","area":"","lng":116.665572,"lat":23.37705,"amap_id":"B0M6NRF774","order":20,"prev_distance_km":3.45,"cumulative_distance_km":17.419,"amap_marker_url":"https://uri.amap.com/marker?position=116.665572,23.377050&name=%E7%B1%B3%E6%8B%89%E5%B0%BC%E5%AE%A0%E7%89%A9%E7%BE%8E%E5%AE%B9&src=vetmap&coordinate=gaode&callnative=1","route_id":"r1","route_name":"第1段"}]}],"rows":[{"name":"永顺兽药店","address":"富贵路一巷11号","phone":"","category":"医疗保健服务;动物医疗场所;动物医疗场所","area":"","lng":116.687075,"lat":23.425375,"amap_id":"B0FFIFX0W5","order":1,"prev_distance_km":0.0,"cumulative_distance_km":0.0,"amap_marker_url":"https://uri.amap.com/marker?position=116.687075,23.425375&name=%E6%B0%B8%E9%A1%BA%E5%85%BD%E8%8D%AF%E5%BA%97&src=vetmap&coordinate=gaode&callnative=1","route_id":"r1","route_name":"第1段","global_order":1},{"name":"汕头市金平区动物检疫申报点","address":"天山北路与汕樟路交叉口西160米","phone":"","category":"医疗保健服务;动物医疗场所;动物医疗场所","area":"","lng":116.703784,"lat":23.39784,"amap_id":"B0FFKCPACN","order":2,"prev_distance_km":3.504,"cumulative_distance_km":3.504,"amap_marker_url":"https://uri.amap.com/marker?position=116.703784,23.397840&name=%E6%B1%95%E5%A4%B4%E5%B8%82%E9%87%91%E5%B9%B3%E5%8C%BA%E5%8A%A8%E7%89%A9%E6%A3%80%E7%96%AB%E7%94%B3%E6%8A%A5%E7%82%B9&src=vetmap&coordinate=gaode&callnative=1","route_id":"r1","route_name":"第1段","global_order":2},{"name":"宠康宠物诊所(汕樟路店)","address":"汕樟路浮西路段后埔池片12号","phone":"","category":"医疗保健服务;动物医疗场所;宠物诊所","area":"","lng":116.703866,"lat":23.395512,"amap_id":"B0IDS5JEEU","order":3,"prev_distance_km":0.259,"cumulative_distance_km":3.763,"amap_marker_url":"https://uri.amap.com/marker?position=116.703866,23.395512&name=%E5%AE%A0%E5%BA%B7%E5%AE%A0%E7%89%A9%E8%AF%8A%E6%89%80%28%E6%B1%95%E6%A8%9F%E8%B7%AF%E5%BA%97%29&src=vetmap&coordinate=gaode&callnative=1","route_id":"r1","route_name":"第1段","global_order":3},{"name":"迈特宠物医院(汕头嘉年华院)24小时营业","address":"金禧花园金柳78幢103号房之一","phone":"18929644855","category":"医疗保健服务;动物医疗场所;宠物诊所","area":"金新北路","lng":116.708252,"lat":23.389619,"amap_id":"B0LDGCTIBL","order":4,"prev_distance_km":0.794,"cumulative_distance_km":4.557,"amap_marker_url":"https://uri.amap.com/marker?position=116.708252,23.389619&name=%E8%BF%88%E7%89%B9%E5%AE%A0%E7%89%A9%E5%8C%BB%E9%99%A2%28%E6%B1%95%E5%A4%B4%E5%98%89%E5%B9%B4%E5%8D%8E%E9%99%A2%2924%E5%B0%8F%E6%97%B6%E8%90%A5%E4%B8%9A&src=vetmap&coordinate=gaode&callnative=1","route_id":"r1","route_name":"第1段","global_order":4},{"name":"唯安宠物诊所","address":"浮西商贸城13号商铺","phone":"17841710239","category":"医疗保健服务;动物医疗场所;宠物诊所","area":"","lng":116.710359,"lat":23.387879,"amap_id":"B0JA29JGVD","order":5,"prev_distance_km":0.289,"cumulative_distance_km":4.846,"amap_marker_url":"https://uri.amap.com/marker?position=116.710359,23.387879&name=%E5%94%AF%E5%AE%89%E5%AE%A0%E7%89%A9%E8%AF%8A%E6%89%80&src=vetmap&coordinate=gaode&callnative=1","route_id":"r1","route_name":"第1段","global_order":5},{"name":"缘潼宠动物医疗中心","address":"中信东厦花园1期西北门东北60米","phone":"","category":"医疗保健服务;动物医疗场所;宠物诊所","area":"","lng":116.715152,"lat":23.390895,"amap_id":"B0M6LZ4M1K","order":6,"prev_distance_km":0.593,"cumulative_distance_km":5.439,"amap_marker_url":"https://uri.amap.com/marker?position=116.715152,23.390895&name=%E7%BC%98%E6%BD%BC%E5%AE%A0%E5%8A%A8%E7%89%A9%E5%8C%BB%E7%96%97%E4%B8%AD%E5%BF%83&src=vetmap&coordinate=gaode&callnative=1","route_id":"r1","route_name":"第1段","global_order":6},{"name":"凯纳动物医院犬猫专科·异宠·眼科","address":"东厦花园二区34栋","phone":"13288078415","category":"医疗保健服务;动物医疗场所;宠物诊所","area":"","lng":116.715776,"lat":23.392287,"amap_id":"B0FFM5LM2P","order":7,"prev_distance_km":0.167,"cumulative_distance_km":5.607,"amap_marker_url":"https://uri.amap.com/marker?position=116.715776,23.392287&name=%E5%87%AF%E7%BA%B3%E5%8A%A8%E7%89%A9%E5%8C%BB%E9%99%A2%E7%8A%AC%E7%8C%AB%E4%B8%93%E7%A7%91%C2%B7%E5%BC%82%E5%AE%A0%C2%B7%E7%9C%BC%E7%A7%91&src=vetmap&coordinate=gaode&callnative=1","route_id":"r1","route_name":"第1段","global_order":7},{"name":"派特宠物诊所(中信东厦花园店)","address":"东厦花园3区28栋(天山北路)","phone":"18924793035;18924793061","category":"医疗保健服务;动物医疗场所;宠物诊所","area":"","lng":116.716326,"lat":23.391479,"amap_id":"B0JAYUB8RI","order":8,"prev_distance_km":0.106,"cumulative_distance_km":5.713,"amap_marker_url":"https://uri.amap.com/marker?position=116.716326,23.391479&name=%E6%B4%BE%E7%89%B9%E5%AE%A0%E7%89%A9%E8%AF%8A%E6%89%80%28%E4%B8%AD%E4%BF%A1%E4%B8%9C%E5%8E%A6%E8%8A%B1%E5%9B%AD%E5%BA%97%29&src=vetmap&coordinate=gaode&callnative=1","route_id":"r1","route_name":"第1段","global_order":8},{"name":"宠物洗护","address":"星汇国际花园北区5号门东50米","phone":"","category":"医疗保健服务;动物医疗场所;动物医疗场所","area":"","lng":116.714898,"lat":23.388916,"amap_id":"B0L627VQ5S","order":9,"prev_distance_km":0.32,"cumulative_distance_km":6.033,"amap_marker_url":"https://uri.amap.com/marker?position=116.714898,23.388916&name=%E5%AE%A0%E7%89%A9%E6%B4%97%E6%8A%A4&src=vetmap&coordinate=gaode&callnative=1","route_id":"r1","route_name":"第1段","global_order":9},{"name":"家有宠物医院金平森宝分院","address":"金墩园21栋201号房","phone":"15914775883","category":"医疗保健服务;动物医疗场所;宠物诊所","area":"","lng":116.712887,"lat":23.386107,"amap_id":"B0G2GRPBMD","order":10,"prev_distance_km":0.374,"cumulative_distance_km":6.407,"amap_marker_url":"https://uri.amap.com/marker?position=116.712887,23.386107&name=%E5%AE%B6%E6%9C%89%E5%AE%A0%E7%89%A9%E5%8C%BB%E9%99%A2%E9%87%91%E5%B9%B3%E6%A3%AE%E5%AE%9D%E5%88%86%E9%99%A2&src=vetmap&coordinate=gaode&callnative=1","route_id":"r1","route_name":"第1段","global_order":10},{"name":"仙仙宠物","address":"芙蓉园12栋101","phone":"13822825797","category":"医疗保健服务;动物医疗场所;动物医疗场所","area":"百花路","lng":116.709504,"lat":23.376197,"amap_id":"B0LGA7LMB9","order":11,"prev_distance_km":1.155,"cumulative_distance_km":7.561,"amap_marker_url":"https://uri.amap.com/marker?position=116.709504,23.376197&name=%E4%BB%99%E4%BB%99%E5%AE%A0%E7%89%A9&src=vetmap&coordinate=gaode&callnative=1","route_id":"r1","route_name":"第1段","global_order":11},{"name":"汕头市动物疫病预防控制中心","address":"金环南路22号","phone":"","category":"医疗保健服务;动物医疗场所;动物医疗场所","area":"金砂乡","lng":116.715697,"lat":23.363406,"amap_id":"B02F20O18V","order":12,"prev_distance_km":1.556,"cumulative_distance_km":9.118,"amap_marker_url":"https://uri.amap.com/marker?position=116.715697,23.363406&name=%E6%B1%95%E5%A4%B4%E5%B8%82%E5%8A%A8%E7%89%A9%E7%96%AB%E7%97%85%E9%A2%84%E9%98%B2%E6%8E%A7%E5%88%B6%E4%B8%AD%E5%BF%83&src=vetmap&coordinate=gaode&callnative=1","route_id":"r1","route_name":"第1段","global_order":12},{"name":"5+宠物高端洗护","address":"公信路与金信街交叉口北40米","phone":"","category":"医疗保健服务;动物医疗场所;动物医疗场所","area":"滨港路","lng":116.712773,"lat":23.356685,"amap_id":"B0KR4HDIC2","order":13,"prev_distance_km":0.805,"cumulative_distance_km":9.923,"amap_marker_url":"https://uri.amap.com/marker?position=116.712773,23.356685&name=5%2B%E5%AE%A0%E7%89%A9%E9%AB%98%E7%AB%AF%E6%B4%97%E6%8A%A4&src=vetmap&coordinate=gaode&callnative=1","route_id":"r1","route_name":"第1段","global_order":13},{"name":"百纳尊宠动物医院","address":"海滨路55号","phone":"0754-88990220","category":"医疗保健服务;动物医疗场所;宠物诊所","area":"滨港路","lng":116.714463,"lat":23.352564,"amap_id":"B0LUPM0V25","order":14,"prev_distance_km":0.49,"cumulative_distance_km":10.412,"amap_marker_url":"https://uri.amap.com/marker?position=116.714463,23.352564&name=%E7%99%BE%E7%BA%B3%E5%B0%8A%E5%AE%A0%E5%8A%A8%E7%89%A9%E5%8C%BB%E9%99%A2&src=vetmap&coordinate=gaode&callnative=1","route_id":"r1","route_name":"第1段","global_order":14},{"name":"宝康宠物诊所","address":"滨港路4号105号106号铺面","phone":"","category":"医疗保健服务;动物医疗场所;宠物诊所","area":"滨港路","lng":116.706512,"lat":23.354922,"amap_id":"B0LKS7JICA","order":15,"prev_distance_km":0.853,"cumulative_distance_km":11.265,"amap_marker_url":"https://uri.amap.com/marker?position=116.706512,23.354922&name=%E5%AE%9D%E5%BA%B7%E5%AE%A0%E7%89%A9%E8%AF%8A%E6%89%80&src=vetmap&coordinate=gaode&callnative=1","route_id":"r1","route_name":"第1段","global_order":15},{"name":"乐维宠物诊所","address":"金厦园中区3栋108号","phone":"","category":"医疗保健服务;动物医疗场所;宠物诊所","area":"滨港路","lng":116.707365,"lat":23.355934,"amap_id":"B0J6AAW24K","order":16,"prev_distance_km":0.142,"cumulative_distance_km":11.407,"amap_marker_url":"https://uri.amap.com/marker?position=116.707365,23.355934&name=%E4%B9%90%E7%BB%B4%E5%AE%A0%E7%89%A9%E8%AF%8A%E6%89%80&src=vetmap&coordinate=gaode&callnative=1","route_id":"r1","route_name":"第1段","global_order":16},{"name":"拜鲁耶动物诊疗中心","address":"党校路金凰雅轩","phone":"","category":"医疗保健服务;动物医疗场所;宠物诊所","area":"","lng":116.701679,"lat":23.374975,"amap_id":"B0HKHUDBHJ","order":17,"prev_distance_km":2.195,"cumulative_distance_km":13.603,"amap_marker_url":"https://uri.amap.com/marker?position=116.701679,23.374975&name=%E6%8B%9C%E9%B2%81%E8%80%B6%E5%8A%A8%E7%89%A9%E8%AF%8A%E7%96%97%E4%B8%AD%E5%BF%83&src=vetmap&coordinate=gaode&callnative=1","route_id":"r1","route_name":"第1段","global_order":17},{"name":"宠家动物医院","address":"金湖路101-102号","phone":"0754-89891272;18929600234","category":"医疗保健服务;动物医疗场所;宠物诊所","area":"","lng":116.701605,"lat":23.374941,"amap_id":"B0FFJ14JJQ","order":18,"prev_distance_km":0.008,"cumulative_distance_km":13.611,"amap_marker_url":"https://uri.amap.com/marker?position=116.701605,23.374941&name=%E5%AE%A0%E5%AE%B6%E5%8A%A8%E7%89%A9%E5%8C%BB%E9%99%A2&src=vetmap&coordinate=gaode&callnative=1","route_id":"r1","route_name":"第1段","global_order":18},{"name":"德宠宠物诊所","address":"金湖路95号金紫世家20幢114","phone":"18948025872","category":"医疗保健服务;动物医疗场所;宠物诊所","area":"","lng":116.699374,"lat":23.377417,"amap_id":"B0I3G5JIIE","order":19,"prev_distance_km":0.357,"cumulative_distance_km":13.969,"amap_marker_url":"https://uri.amap.com/marker?position=116.699374,23.377417&name=%E5%BE%B7%E5%AE%A0%E5%AE%A0%E7%89%A9%E8%AF%8A%E6%89%80&src=vetmap&coordinate=gaode&callnative=1","route_id":"r1","route_name":"第1段","global_order":19},{"name":"米拉尼宠物美容","address":"长兴南街与安居路交叉口东北60米","phone":"","category":"医疗保健服务;动物医疗场所;宠物诊所","area":"","lng":116.665572,"lat":23.37705,"amap_id":"B0M6NRF774","order":20,"prev_distance_km":3.45,"cumulative_distance_km":17.419,"amap_marker_url":"https://uri.amap.com/marker?position=116.665572,23.377050&name=%E7%B1%B3%E6%8B%89%E5%B0%BC%E5%AE%A0%E7%89%A9%E7%BE%8E%E5%AE%B9&src=vetmap&coordinate=gaode&callnative=1","route_id":"r1","route_name":"第1段","global_order":20}]}