{"summary":{"id":"d00620","province":"广东省","city":"深圳市","district":"福田区","count":54,"total_distance_km":43.944,"coordinate_system":"GCJ-02 / Amap","generated_at":"2026-05-07 20:22:14"},"rows":[{"name":"瑞鹏宠物医院(侨香分院)","address":"香蜜湖街道香安社区侨香路侨香公馆3栋1层14号","phone":"0755-83988816","category":"医疗保健服务;动物医疗场所;宠物诊所","area":"香蜜湖","lng":114.006656,"lat":22.544427,"amap_id":"B0FFJ043VN","order":1,"prev_distance_km":0.0,"cumulative_distance_km":0.0,"amap_marker_url":"https://uri.amap.com/marker?position=114.006656,22.544427&name=%E7%91%9E%E9%B9%8F%E5%AE%A0%E7%89%A9%E5%8C%BB%E9%99%A2%28%E4%BE%A8%E9%A6%99%E5%88%86%E9%99%A2%29&src=vetmap&coordinate=gaode&callnative=1"},{"name":"山姆宠物医院","address":"侨香路翠海花园10号商铺(侨香地铁站C口步行100米)","phone":"0755-83141663","category":"医疗保健服务;动物医疗场所;宠物诊所","area":"香蜜湖","lng":114.01535,"lat":22.551307,"amap_id":"B0FFF2PDJO","order":2,"prev_distance_km":1.176,"cumulative_distance_km":1.176,"amap_marker_url":"https://uri.amap.com/marker?position=114.015350,22.551307&name=%E5%B1%B1%E5%A7%86%E5%AE%A0%E7%89%A9%E5%8C%BB%E9%99%A2&src=vetmap&coordinate=gaode&callnative=1"},{"name":"瑞派宠物医院(澳洲香蜜湖院)","address":"香蜜湖街道农林路鑫竹苑BC座一层3号铺","phone":"0755-83803950","category":"医疗保健服务;动物医疗场所;宠物诊所","area":"香蜜湖","lng":114.017694,"lat":22.537856,"amap_id":"B0FFHUR19D","order":3,"prev_distance_km":1.515,"cumulative_distance_km":2.691,"amap_marker_url":"https://uri.amap.com/marker?position=114.017694,22.537856&name=%E7%91%9E%E6%B4%BE%E5%AE%A0%E7%89%A9%E5%8C%BB%E9%99%A2%28%E6%BE%B3%E6%B4%B2%E9%A6%99%E8%9C%9C%E6%B9%96%E9%99%A2%29&src=vetmap&coordinate=gaode&callnative=1"},{"name":"幸福宠物医院","address":"花好园裙楼140号","phone":"15338896964","category":"医疗保健服务;动物医疗场所;宠物诊所","area":"上沙","lng":114.024762,"lat":22.527719,"amap_id":"B0LGZMOYCZ","order":4,"prev_distance_km":1.341,"cumulative_distance_km":4.031,"amap_marker_url":"https://uri.amap.com/marker?position=114.024762,22.527719&name=%E5%B9%B8%E7%A6%8F%E5%AE%A0%E7%89%A9%E5%8C%BB%E9%99%A2&src=vetmap&coordinate=gaode&callnative=1"},{"name":"康乐熊宠物医院·中兽医·肾泌尿专科(恺撒分院)","address":"福荣路金域蓝湾商业街119号商铺","phone":"19926491909","category":"医疗保健服务;动物医疗场所;宠物诊所","area":"上沙","lng":114.024995,"lat":22.52356,"amap_id":"B0FFLKQ8N9","order":5,"prev_distance_km":0.463,"cumulative_distance_km":4.494,"amap_marker_url":"https://uri.amap.com/marker?position=114.024995,22.523560&name=%E5%BA%B7%E4%B9%90%E7%86%8A%E5%AE%A0%E7%89%A9%E5%8C%BB%E9%99%A2%C2%B7%E4%B8%AD%E5%85%BD%E5%8C%BB%C2%B7%E8%82%BE%E6%B3%8C%E5%B0%BF%E4%B8%93%E7%A7%91%28%E6%81%BA%E6%92%92%E5%88%86%E9%99%A2%29&src=vetmap&coordinate=gaode&callnative=1"},{"name":"恺撒先生宠物医院","address":"福荣路68号万科金域蓝湾","phone":"","category":"医疗保健服务;动物医疗场所;宠物诊所","area":"下沙社区","lng":114.024995,"lat":22.52356,"amap_id":"B0MBNUSY2Y","order":6,"prev_distance_km":0.0,"cumulative_distance_km":4.494,"amap_marker_url":"https://uri.amap.com/marker?position=114.024995,22.523560&name=%E6%81%BA%E6%92%92%E5%85%88%E7%94%9F%E5%AE%A0%E7%89%A9%E5%8C%BB%E9%99%A2&src=vetmap&coordinate=gaode&callnative=1"},{"name":"瑞派宠物医院 (福华沙嘴院)","address":"沙头街道沙咀金地花园209-211栋裙楼30号-01","phone":"0755-83308990","category":"医疗保健服务;动物医疗场所;宠物诊所","area":"上沙","lng":114.034777,"lat":22.519826,"amap_id":"B0J0BCT6W7","order":7,"prev_distance_km":1.087,"cumulative_distance_km":5.582,"amap_marker_url":"https://uri.amap.com/marker?position=114.034777,22.519826&name=%E7%91%9E%E6%B4%BE%E5%AE%A0%E7%89%A9%E5%8C%BB%E9%99%A2%20%28%E7%A6%8F%E5%8D%8E%E6%B2%99%E5%98%B4%E9%99%A2%29&src=vetmap&coordinate=gaode&callnative=1"},{"name":"瑞派宠物美容","address":"金地花园南区东南1门东北80米","phone":"","category":"医疗保健服务;动物医疗场所;宠物诊所","area":"上沙","lng":114.035696,"lat":22.521164,"amap_id":"B0FFHLTJ8K","order":8,"prev_distance_km":0.176,"cumulative_distance_km":5.758,"amap_marker_url":"https://uri.amap.com/marker?position=114.035696,22.521164&name=%E7%91%9E%E6%B4%BE%E5%AE%A0%E7%89%A9%E7%BE%8E%E5%AE%B9&src=vetmap&coordinate=gaode&callnative=1"},{"name":"瑞鹏·巨星宠物医院(福强店)","address":"沙头街道金地社区沙嘴路65号伯利楼107","phone":"0755-83301366","category":"医疗保健服务;动物医疗场所;宠物诊所","area":"上沙","lng":114.037725,"lat":22.524276,"amap_id":"B02F37VYN5","order":9,"prev_distance_km":0.404,"cumulative_distance_km":6.162,"amap_marker_url":"https://uri.amap.com/marker?position=114.037725,22.524276&name=%E7%91%9E%E9%B9%8F%C2%B7%E5%B7%A8%E6%98%9F%E5%AE%A0%E7%89%A9%E5%8C%BB%E9%99%A2%28%E7%A6%8F%E5%BC%BA%E5%BA%97%29&src=vetmap&coordinate=gaode&callnative=1"},{"name":"杰里斯宠物医院","address":"新洲三街蜜园商业街73号(沙尾地铁站C口步行400米)","phone":"13554903090","category":"医疗保健服务;动物医疗场所;宠物诊所","area":"沙头","lng":114.043563,"lat":22.5239,"amap_id":"B0IK3RVLJP","order":10,"prev_distance_km":0.601,"cumulative_distance_km":6.763,"amap_marker_url":"https://uri.amap.com/marker?position=114.043563,22.523900&name=%E6%9D%B0%E9%87%8C%E6%96%AF%E5%AE%A0%E7%89%A9%E5%8C%BB%E9%99%A2&src=vetmap&coordinate=gaode&callnative=1"},{"name":"联合宠物医院(祥云·天都世纪商业中心店)","address":"新洲三街15号祥云·天都世纪商业中心F1层","phone":"0755-23985656;0755-23992279","category":"医疗保健服务;动物医疗场所;宠物诊所","area":"新洲","lng":114.043946,"lat":22.520823,"amap_id":"B0FFGRIKTL","order":11,"prev_distance_km":0.344,"cumulative_distance_km":7.107,"amap_marker_url":"https://uri.amap.com/marker?position=114.043946,22.520823&name=%E8%81%94%E5%90%88%E5%AE%A0%E7%89%A9%E5%8C%BB%E9%99%A2%28%E7%A5%A5%E4%BA%91%C2%B7%E5%A4%A9%E9%83%BD%E4%B8%96%E7%BA%AA%E5%95%86%E4%B8%9A%E4%B8%AD%E5%BF%83%E5%BA%97%29&src=vetmap&coordinate=gaode&callnative=1"},{"name":"宠未来动物医院(石厦分院)","address":"福民路199号荟语酒店102","phone":"13302449660","category":"医疗保健服务;动物医疗场所;宠物诊所","area":"新洲","lng":114.050147,"lat":22.522635,"amap_id":"B0JBT548PS","order":12,"prev_distance_km":0.668,"cumulative_distance_km":7.775,"amap_marker_url":"https://uri.amap.com/marker?position=114.050147,22.522635&name=%E5%AE%A0%E6%9C%AA%E6%9D%A5%E5%8A%A8%E7%89%A9%E5%8C%BB%E9%99%A2%28%E7%9F%B3%E5%8E%A6%E5%88%86%E9%99%A2%29&src=vetmap&coordinate=gaode&callnative=1"},{"name":"宠心宠物诊所","address":"石厦北5街丽阳天下一楼(石厦地铁站C口步行430米)","phone":"0755-23804431","category":"医疗保健服务;动物医疗场所;宠物诊所","area":"新洲","lng":114.050853,"lat":22.525465,"amap_id":"B0FFJCZ54A","order":13,"prev_distance_km":0.323,"cumulative_distance_km":8.098,"amap_marker_url":"https://uri.amap.com/marker?position=114.050853,22.525465&name=%E5%AE%A0%E5%BF%83%E5%AE%A0%E7%89%A9%E8%AF%8A%E6%89%80&src=vetmap&coordinate=gaode&callnative=1"},{"name":"瑞派派特堡宠物医院·心脏专科·肾内科(宠乐鑫分院)","address":"福保街道明月社区石厦北一街5号阳光四季12栋104-105号","phone":"0755-23895169","category":"医疗保健服务;动物医疗场所;宠物诊所","area":"新洲","lng":114.051535,"lat":22.525779,"amap_id":"B0HRLD0IUO","order":14,"prev_distance_km":0.078,"cumulative_distance_km":8.177,"amap_marker_url":"https://uri.amap.com/marker?position=114.051535,22.525779&name=%E7%91%9E%E6%B4%BE%E6%B4%BE%E7%89%B9%E5%A0%A1%E5%AE%A0%E7%89%A9%E5%8C%BB%E9%99%A2%C2%B7%E5%BF%83%E8%84%8F%E4%B8%93%E7%A7%91%C2%B7%E8%82%BE%E5%86%85%E7%A7%91%28%E5%AE%A0%E4%B9%90%E9%91%AB%E5%88%86%E9%99%A2%29&src=vetmap&coordinate=gaode&callnative=1"},{"name":"瑞鹏宠物医院(福民分院)","address":"福民路瑞和园1楼J1-J3室","phone":"0755-83843009","category":"医疗保健服务;动物医疗场所;宠物诊所","area":"石厦","lng":114.055687,"lat":22.523564,"amap_id":"B02F37UAUN","order":15,"prev_distance_km":0.492,"cumulative_distance_km":8.669,"amap_marker_url":"https://uri.amap.com/marker?position=114.055687,22.523564&name=%E7%91%9E%E9%B9%8F%E5%AE%A0%E7%89%A9%E5%8C%BB%E9%99%A2%28%E7%A6%8F%E6%B0%91%E5%88%86%E9%99%A2%29&src=vetmap&coordinate=gaode&callnative=1"},{"name":"金宝宝宠物医院","address":"福保街道石厦二街石厦花园1896美食街11号商铺","phone":"15338762731","category":"医疗保健服务;动物医疗场所;宠物诊所","area":"石厦","lng":114.052251,"lat":22.519839,"amap_id":"B0IK45SIPA","order":16,"prev_distance_km":0.544,"cumulative_distance_km":9.213,"amap_marker_url":"https://uri.amap.com/marker?position=114.052251,22.519839&name=%E9%87%91%E5%AE%9D%E5%AE%9D%E5%AE%A0%E7%89%A9%E5%8C%BB%E9%99%A2&src=vetmap&coordinate=gaode&callnative=1"},{"name":"瑞派派特堡宠物医院·口腔转诊中心·CT·肿瘤专科(爱宁分院)","address":"新洲北村55-1号新洲北村55号楼","phone":"0755-82721162","category":"医疗保健服务;动物医疗场所;宠物诊所","area":"新洲","lng":114.046038,"lat":22.527575,"amap_id":"B0FFL74QW2","order":17,"prev_distance_km":1.071,"cumulative_distance_km":10.284,"amap_marker_url":"https://uri.amap.com/marker?position=114.046038,22.527575&name=%E7%91%9E%E6%B4%BE%E6%B4%BE%E7%89%B9%E5%A0%A1%E5%AE%A0%E7%89%A9%E5%8C%BB%E9%99%A2%C2%B7%E5%8F%A3%E8%85%94%E8%BD%AC%E8%AF%8A%E4%B8%AD%E5%BF%83%C2%B7CT%C2%B7%E8%82%BF%E7%98%A4%E4%B8%93%E7%A7%91%28%E7%88%B1%E5%AE%81%E5%88%86%E9%99%A2%29&src=vetmap&coordinate=gaode&callnative=1"},{"name":"优佳宠物医院24h急诊(福田影像中心)","address":"沙头街道新沙社区福田新沙路10-13","phone":"18923706963","category":"医疗保健服务;动物医疗场所;宠物诊所","area":"沙头","lng":114.045425,"lat":22.530571,"amap_id":"B0K39LJY33","order":18,"prev_distance_km":0.339,"cumulative_distance_km":10.623,"amap_marker_url":"https://uri.amap.com/marker?position=114.045425,22.530571&name=%E4%BC%98%E4%BD%B3%E5%AE%A0%E7%89%A9%E5%8C%BB%E9%99%A224h%E6%80%A5%E8%AF%8A%28%E7%A6%8F%E7%94%B0%E5%BD%B1%E5%83%8F%E4%B8%AD%E5%BF%83%29&src=vetmap&coordinate=gaode&callnative=1"},{"name":"优佳宠物医院夜诊(福田中心医院)","address":"福田新沙路与新沙街交叉口西北20米","phone":"18923706963","category":"医疗保健服务;动物医疗场所;宠物诊所","area":"新洲","lng":114.045494,"lat":22.530597,"amap_id":"B0K0XLO9U4","order":19,"prev_distance_km":0.008,"cumulative_distance_km":10.631,"amap_marker_url":"https://uri.amap.com/marker?position=114.045494,22.530597&name=%E4%BC%98%E4%BD%B3%E5%AE%A0%E7%89%A9%E5%8C%BB%E9%99%A2%E5%A4%9C%E8%AF%8A%28%E7%A6%8F%E7%94%B0%E4%B8%AD%E5%BF%83%E5%8C%BB%E9%99%A2%29&src=vetmap&coordinate=gaode&callnative=1"},{"name":"圣迪亚动物医院","address":"莲花街道梅岭社区香梅路1036号香逸名园A栋、B栋101","phone":"0755-23607583;18123675601","category":"医疗保健服务;动物医疗场所;宠物诊所","area":"香蜜湖","lng":114.04062,"lat":22.542907,"amap_id":"B0KALOG9KJ","order":20,"prev_distance_km":1.457,"cumulative_distance_km":12.088,"amap_marker_url":"https://uri.amap.com/marker?position=114.040620,22.542907&name=%E5%9C%A3%E8%BF%AA%E4%BA%9A%E5%8A%A8%E7%89%A9%E5%8C%BB%E9%99%A2&src=vetmap&coordinate=gaode&callnative=1"},{"name":"联合宠物医院猫专科(景田分院)","address":"红荔路与景田西路交叉口西南100米","phone":"0755-23608309","category":"医疗保健服务;动物医疗场所;宠物诊所","area":"香蜜湖","lng":114.041029,"lat":22.545128,"amap_id":"B0I2OAOMPE","order":21,"prev_distance_km":0.251,"cumulative_distance_km":12.339,"amap_marker_url":"https://uri.amap.com/marker?position=114.041029,22.545128&name=%E8%81%94%E5%90%88%E5%AE%A0%E7%89%A9%E5%8C%BB%E9%99%A2%E7%8C%AB%E4%B8%93%E7%A7%91%28%E6%99%AF%E7%94%B0%E5%88%86%E9%99%A2%29&src=vetmap&coordinate=gaode&callnative=1"},{"name":"好好联盟宠物医院(景田店)","address":"莲花街道梅岭社区景田南路21号金色假日名苑A栋、B栋景田南五街46号","phone":"0755-83292900;15919730067","category":"医疗保健服务;动物医疗场所;宠物诊所","area":"香蜜湖","lng":114.044314,"lat":22.545915,"amap_id":"B0M6CSTWTS","order":22,"prev_distance_km":0.349,"cumulative_distance_km":12.687,"amap_marker_url":"https://uri.amap.com/marker?position=114.044314,22.545915&name=%E5%A5%BD%E5%A5%BD%E8%81%94%E7%9B%9F%E5%AE%A0%E7%89%A9%E5%8C%BB%E9%99%A2%28%E6%99%AF%E7%94%B0%E5%BA%97%29&src=vetmap&coordinate=gaode&callnative=1"},{"name":"瑞派宠物医院(皇家景田店)","address":"莲花街道梅岭社区景田南路21号金色假日名苑A栋B栋1001","phone":"13352919100","category":"医疗保健服务;动物医疗场所;宠物诊所","area":"香蜜湖","lng":114.044337,"lat":22.545973,"amap_id":"B0FFIQC9AA","order":23,"prev_distance_km":0.007,"cumulative_distance_km":12.694,"amap_marker_url":"https://uri.amap.com/marker?position=114.044337,22.545973&name=%E7%91%9E%E6%B4%BE%E5%AE%A0%E7%89%A9%E5%8C%BB%E9%99%A2%28%E7%9A%87%E5%AE%B6%E6%99%AF%E7%94%B0%E5%BA%97%29&src=vetmap&coordinate=gaode&callnative=1"},{"name":"贝贝宠物诊所(景田店)","address":"莲花西路缔梦园丽梦轩105号(地铁景田f出马路对面)","phone":"0755-83537767","category":"医疗保健服务;动物医疗场所;宠物诊所","area":"香蜜湖","lng":114.041987,"lat":22.552814,"amap_id":"B0FFF3MGVZ","order":24,"prev_distance_km":0.798,"cumulative_distance_km":13.492,"amap_marker_url":"https://uri.amap.com/marker?position=114.041987,22.552814&name=%E8%B4%9D%E8%B4%9D%E5%AE%A0%E7%89%A9%E8%AF%8A%E6%89%80%28%E6%99%AF%E7%94%B0%E5%BA%97%29&src=vetmap&coordinate=gaode&callnative=1"},{"name":"瑞鹏宠物医院(景田分院)","address":"景田东路83号","phone":"0755-83739866","category":"医疗保健服务;动物医疗场所;宠物诊所","area":"","lng":114.0452,"lat":22.553164,"amap_id":"B02F37TIHK","order":25,"prev_distance_km":0.332,"cumulative_distance_km":13.825,"amap_marker_url":"https://uri.amap.com/marker?position=114.045200,22.553164&name=%E7%91%9E%E9%B9%8F%E5%AE%A0%E7%89%A9%E5%8C%BB%E9%99%A2%28%E6%99%AF%E7%94%B0%E5%88%86%E9%99%A2%29&src=vetmap&coordinate=gaode&callnative=1"},{"name":"瑞鹏宠物医院(下梅林分院)","address":"梅华路天心花园A栋1层5号商铺(下梅林市场公交站旁)","phone":"0755-83898066","category":"医疗保健服务;动物医疗场所;宠物诊所","area":"","lng":114.043293,"lat":22.562813,"amap_id":"B0FFG6DUOI","order":26,"prev_distance_km":1.091,"cumulative_distance_km":14.915,"amap_marker_url":"https://uri.amap.com/marker?position=114.043293,22.562813&name=%E7%91%9E%E9%B9%8F%E5%AE%A0%E7%89%A9%E5%8C%BB%E9%99%A2%28%E4%B8%8B%E6%A2%85%E6%9E%97%E5%88%86%E9%99%A2%29&src=vetmap&coordinate=gaode&callnative=1"},{"name":"米诺宠物医院","address":"梅林街道梅京社区梅林路156号碧云天云字楼103","phone":"18824678120","category":"医疗保健服务;动物医疗场所;宠物诊所","area":"","lng":114.037662,"lat":22.560775,"amap_id":"B0J30C8V8L","order":27,"prev_distance_km":0.621,"cumulative_distance_km":15.536,"amap_marker_url":"https://uri.amap.com/marker?position=114.037662,22.560775&name=%E7%B1%B3%E8%AF%BA%E5%AE%A0%E7%89%A9%E5%8C%BB%E9%99%A2&src=vetmap&coordinate=gaode&callnative=1"},{"name":"AGO动物医院(梅林店)","address":"梅林路156号碧云天云字楼103(梅景地铁站D口旁)","phone":"19902908287","category":"医疗保健服务;动物医疗场所;宠物诊所","area":"","lng":114.037623,"lat":22.560719,"amap_id":"B0FFJFFCIK","order":28,"prev_distance_km":0.007,"cumulative_distance_km":15.544,"amap_marker_url":"https://uri.amap.com/marker?position=114.037623,22.560719&name=AGO%E5%8A%A8%E7%89%A9%E5%8C%BB%E9%99%A2%28%E6%A2%85%E6%9E%97%E5%BA%97%29&src=vetmap&coordinate=gaode&callnative=1"},{"name":"瑞派来福康宠物医院24h·泌尿专科·重症内科(下梅林店)","address":"梅林街道龙尾社区梅林路128号新活力花园2栋8单元10号、10-1号、11号","phone":"0755-83987929","category":"医疗保健服务;动物医疗场所;宠物诊所","area":"","lng":114.046066,"lat":22.567825,"amap_id":"B0FFG45STY","order":29,"prev_distance_km":1.173,"cumulative_distance_km":16.717,"amap_marker_url":"https://uri.amap.com/marker?position=114.046066,22.567825&name=%E7%91%9E%E6%B4%BE%E6%9D%A5%E7%A6%8F%E5%BA%B7%E5%AE%A0%E7%89%A9%E5%8C%BB%E9%99%A224h%C2%B7%E6%B3%8C%E5%B0%BF%E4%B8%93%E7%A7%91%C2%B7%E9%87%8D%E7%97%87%E5%86%85%E7%A7%91%28%E4%B8%8B%E6%A2%85%E6%9E%97%E5%BA%97%29&src=vetmap&coordinate=gaode&callnative=1"},{"name":"芭比堂动物医院(深圳伊莉分院)","address":"梅林路128-21号(下梅林地铁站C口步行450米)","phone":"0755-82728120","category":"医疗保健服务;动物医疗场所;宠物诊所","area":"","lng":114.046175,"lat":22.567825,"amap_id":"B0FFHOB71D","order":30,"prev_distance_km":0.011,"cumulative_distance_km":16.728,"amap_marker_url":"https://uri.amap.com/marker?position=114.046175,22.567825&name=%E8%8A%AD%E6%AF%94%E5%A0%82%E5%8A%A8%E7%89%A9%E5%8C%BB%E9%99%A2%28%E6%B7%B1%E5%9C%B3%E4%BC%8A%E8%8E%89%E5%88%86%E9%99%A2%29&src=vetmap&coordinate=gaode&callnative=1"},{"name":"瑞美宠物美容(梅林店)","address":"梅林路碧荔花园135号(下梅林地铁站C口步行450米)","phone":"18927412261","category":"医疗保健服务;动物医疗场所;动物医疗场所","area":"","lng":114.046707,"lat":22.567425,"amap_id":"B0FFFA2AH1","order":31,"prev_distance_km":0.07,"cumulative_distance_km":16.798,"amap_marker_url":"https://uri.amap.com/marker?position=114.046707,22.567425&name=%E7%91%9E%E7%BE%8E%E5%AE%A0%E7%89%A9%E7%BE%8E%E5%AE%B9%28%E6%A2%85%E6%9E%97%E5%BA%97%29&src=vetmap&coordinate=gaode&callnative=1"},{"name":"联合宠物医院(梅林猫专科)","address":"梅华路191-103B","phone":"18127076817","category":"医疗保健服务;动物医疗场所;宠物诊所","area":"","lng":114.049094,"lat":22.56458,"amap_id":"B0I0DSQFPL","order":32,"prev_distance_km":0.4,"cumulative_distance_km":17.199,"amap_marker_url":"https://uri.amap.com/marker?position=114.049094,22.564580&name=%E8%81%94%E5%90%88%E5%AE%A0%E7%89%A9%E5%8C%BB%E9%99%A2%28%E6%A2%85%E6%9E%97%E7%8C%AB%E4%B8%93%E7%A7%91%29&src=vetmap&coordinate=gaode&callnative=1"},{"name":"悠悠宠物医院","address":"梅华路183-28号深华公寓商铺","phone":"13537871363","category":"医疗保健服务;动物医疗场所;宠物诊所","area":"","lng":114.049364,"lat":22.564558,"amap_id":"B0HGY5X1OI","order":33,"prev_distance_km":0.028,"cumulative_distance_km":17.226,"amap_marker_url":"https://uri.amap.com/marker?position=114.049364,22.564558&name=%E6%82%A0%E6%82%A0%E5%AE%A0%E7%89%A9%E5%8C%BB%E9%99%A2&src=vetmap&coordinate=gaode&callnative=1"},{"name":"新鹏鑫宠物医院","address":"梅华路105号102","phone":"","category":"医疗保健服务;动物医疗场所;宠物诊所","area":"","lng":114.056319,"lat":22.563008,"amap_id":"B0L3KAAVRN","order":34,"prev_distance_km":0.735,"cumulative_distance_km":17.961,"amap_marker_url":"https://uri.amap.com/marker?position=114.056319,22.563008&name=%E6%96%B0%E9%B9%8F%E9%91%AB%E5%AE%A0%E7%89%A9%E5%8C%BB%E9%99%A2&src=vetmap&coordinate=gaode&callnative=1"},{"name":"瑞鹏宠物医院转诊中心24H(第二中心医院店)","address":"广夏路7号箓华大厦101","phone":"0755-83125166","category":"医疗保健服务;动物医疗场所;宠物诊所","area":"","lng":114.060707,"lat":22.566075,"amap_id":"B0FFJIZP1N","order":35,"prev_distance_km":0.565,"cumulative_distance_km":18.526,"amap_marker_url":"https://uri.amap.com/marker?position=114.060707,22.566075&name=%E7%91%9E%E9%B9%8F%E5%AE%A0%E7%89%A9%E5%8C%BB%E9%99%A2%E8%BD%AC%E8%AF%8A%E4%B8%AD%E5%BF%8324H%28%E7%AC%AC%E4%BA%8C%E4%B8%AD%E5%BF%83%E5%8C%BB%E9%99%A2%E5%BA%97%29&src=vetmap&coordinate=gaode&callnative=1"},{"name":"瑞派宠物医院·骨科·内窥镜·绝育中心(梅林院)","address":"梅林街道梅都社区中康路49号福贸花园1-3栋","phone":"0755-83126200;0755-83128200","category":"医疗保健服务;动物医疗场所;宠物诊所","area":"","lng":114.058929,"lat":22.56927,"amap_id":"B0H3VRAMDI","order":36,"prev_distance_km":0.399,"cumulative_distance_km":18.926,"amap_marker_url":"https://uri.amap.com/marker?position=114.058929,22.569270&name=%E7%91%9E%E6%B4%BE%E5%AE%A0%E7%89%A9%E5%8C%BB%E9%99%A2%C2%B7%E9%AA%A8%E7%A7%91%C2%B7%E5%86%85%E7%AA%A5%E9%95%9C%C2%B7%E7%BB%9D%E8%82%B2%E4%B8%AD%E5%BF%83%28%E6%A2%85%E6%9E%97%E9%99%A2%29&src=vetmap&coordinate=gaode&callnative=1"},{"name":"福田区动物检疫申报点","address":"梅坳六路与梅坳三路交叉口西南40米","phone":"","category":"医疗保健服务;动物医疗场所;动物医疗场所","area":"","lng":114.058857,"lat":22.5758,"amap_id":"B0FFHY3NVE","order":37,"prev_distance_km":0.726,"cumulative_distance_km":19.652,"amap_marker_url":"https://uri.amap.com/marker?position=114.058857,22.575800&name=%E7%A6%8F%E7%94%B0%E5%8C%BA%E5%8A%A8%E7%89%A9%E6%A3%80%E7%96%AB%E7%94%B3%E6%8A%A5%E7%82%B9&src=vetmap&coordinate=gaode&callnative=1"},{"name":"联合宠物医院(华强北分院)","address":"红荔路3003-5号(华新地铁站A1口步行140米)","phone":"17840996493","category":"医疗保健服务;动物医疗场所;宠物诊所","area":"上步","lng":114.085031,"lat":22.548644,"amap_id":"B0I17CP9A3","order":38,"prev_distance_km":4.042,"cumulative_distance_km":23.694,"amap_marker_url":"https://uri.amap.com/marker?position=114.085031,22.548644&name=%E8%81%94%E5%90%88%E5%AE%A0%E7%89%A9%E5%8C%BB%E9%99%A2%28%E5%8D%8E%E5%BC%BA%E5%8C%97%E5%88%86%E9%99%A2%29&src=vetmap&coordinate=gaode&callnative=1"},{"name":"瑞鹏宠物医院(华强北分院)","address":"红荔路3001-6号(华新地铁站A1出口旁)","phone":"0755-83363466","category":"医疗保健服务;动物医疗场所;宠物诊所","area":"上步","lng":114.086003,"lat":22.54868,"amap_id":"B0FFGYY98K","order":39,"prev_distance_km":0.1,"cumulative_distance_km":23.794,"amap_marker_url":"https://uri.amap.com/marker?position=114.086003,22.548680&name=%E7%91%9E%E9%B9%8F%E5%AE%A0%E7%89%A9%E5%8C%BB%E9%99%A2%28%E5%8D%8E%E5%BC%BA%E5%8C%97%E5%88%86%E9%99%A2%29&src=vetmap&coordinate=gaode&callnative=1"},{"name":"瑞鹏宠物医院(福华分院)","address":"福华路东城市杰座名苑1K商铺(福田中学旁或者公汽大楼)","phone":"0755-82885222","category":"医疗保健服务;动物医疗场所;宠物诊所","area":"上步","lng":114.077866,"lat":22.536548,"amap_id":"B02F37U7GT","order":40,"prev_distance_km":1.587,"cumulative_distance_km":25.381,"amap_marker_url":"https://uri.amap.com/marker?position=114.077866,22.536548&name=%E7%91%9E%E9%B9%8F%E5%AE%A0%E7%89%A9%E5%8C%BB%E9%99%A2%28%E7%A6%8F%E5%8D%8E%E5%88%86%E9%99%A2%29&src=vetmap&coordinate=gaode&callnative=1"},{"name":"瑞派宠物医院(岗厦院)","address":"福田街道福华岗厦村东一坊5号一楼","phone":"0755-88364006;18922849001","category":"医疗保健服务;动物医疗场所;宠物诊所","area":"皇岗","lng":114.070736,"lat":22.535688,"amap_id":"B0FFH6LSX7","order":41,"prev_distance_km":0.738,"cumulative_distance_km":26.119,"amap_marker_url":"https://uri.amap.com/marker?position=114.070736,22.535688&name=%E7%91%9E%E6%B4%BE%E5%AE%A0%E7%89%A9%E5%8C%BB%E9%99%A2%28%E5%B2%97%E5%8E%A6%E9%99%A2%29&src=vetmap&coordinate=gaode&callnative=1"},{"name":"叮当宠物医院(显锐大厦店)","address":"金田路海滨广场2018号显锐大厦1层西侧","phone":"0755-82726303","category":"医疗保健服务;动物医疗场所;宠物诊所","area":"皇岗","lng":114.064263,"lat":22.527178,"amap_id":"B0FFIPZVEO","order":42,"prev_distance_km":1.156,"cumulative_distance_km":27.276,"amap_marker_url":"https://uri.amap.com/marker?position=114.064263,22.527178&name=%E5%8F%AE%E5%BD%93%E5%AE%A0%E7%89%A9%E5%8C%BB%E9%99%A2%28%E6%98%BE%E9%94%90%E5%A4%A7%E5%8E%A6%E5%BA%97%29&src=vetmap&coordinate=gaode&callnative=1"},{"name":"联合宠物医院(皇岗分院)","address":"集华花园北门旁(福民地铁站J2口步行350米)","phone":"0755-83812120;18127015120","category":"医疗保健服务;动物医疗场所;宠物诊所","area":"皇岗","lng":114.064618,"lat":22.52642,"amap_id":"B0FFJWMGL0","order":43,"prev_distance_km":0.092,"cumulative_distance_km":27.368,"amap_marker_url":"https://uri.amap.com/marker?position=114.064618,22.526420&name=%E8%81%94%E5%90%88%E5%AE%A0%E7%89%A9%E5%8C%BB%E9%99%A2%28%E7%9A%87%E5%B2%97%E5%88%86%E9%99%A2%29&src=vetmap&coordinate=gaode&callnative=1"},{"name":"瑞派宠物医院(皇家时代广场店)","address":"福田街道金田路宣嘉华庭裙楼106(时代广场一楼)","phone":"13530304308","category":"医疗保健服务;动物医疗场所;宠物诊所","area":"皇岗","lng":114.066183,"lat":22.519486,"amap_id":"B0FFHPKOHJ","order":44,"prev_distance_km":0.788,"cumulative_distance_km":28.155,"amap_marker_url":"https://uri.amap.com/marker?position=114.066183,22.519486&name=%E7%91%9E%E6%B4%BE%E5%AE%A0%E7%89%A9%E5%8C%BB%E9%99%A2%28%E7%9A%87%E5%AE%B6%E6%97%B6%E4%BB%A3%E5%B9%BF%E5%9C%BA%E5%BA%97%29&src=vetmap&coordinate=gaode&callnative=1"},{"name":"深圳爱贝康宠物医院·皮肤专科·复杂内科专科","address":"金田路1003号御庭园一楼","phone":"0755-88604456;18566669234","category":"医疗保健服务;动物医疗场所;宠物诊所","area":"皇岗","lng":114.065083,"lat":22.519156,"amap_id":"B0LUS52LXT","order":45,"prev_distance_km":0.119,"cumulative_distance_km":28.274,"amap_marker_url":"https://uri.amap.com/marker?position=114.065083,22.519156&name=%E6%B7%B1%E5%9C%B3%E7%88%B1%E8%B4%9D%E5%BA%B7%E5%AE%A0%E7%89%A9%E5%8C%BB%E9%99%A2%C2%B7%E7%9A%AE%E8%82%A4%E4%B8%93%E7%A7%91%C2%B7%E5%A4%8D%E6%9D%82%E5%86%85%E7%A7%91%E4%B8%93%E7%A7%91&src=vetmap&coordinate=gaode&callnative=1"},{"name":"比比宠物医院","address":"福田口岸社区皇城广场裙楼1008比比宠物医院(重庆渔码头旁边)宠物医院宠物诊所宠物美容宠物疫苗","phone":"15728536552","category":"医疗保健服务;动物医疗场所;宠物诊所","area":"皇岗","lng":114.075872,"lat":22.524965,"amap_id":"B0JK0DSYIC","order":46,"prev_distance_km":1.283,"cumulative_distance_km":29.557,"amap_marker_url":"https://uri.amap.com/marker?position=114.075872,22.524965&name=%E6%AF%94%E6%AF%94%E5%AE%A0%E7%89%A9%E5%8C%BB%E9%99%A2&src=vetmap&coordinate=gaode&callnative=1"},{"name":"佰城动物医院","address":"南园街道滨河路京基御景华城6栋14号铺B宠物急诊美容宠物医院绝育疫苗","phone":"17722847227","category":"医疗保健服务;动物医疗场所;宠物诊所","area":"华强南","lng":114.086627,"lat":22.531792,"amap_id":"B0IDURBWKH","order":47,"prev_distance_km":1.34,"cumulative_distance_km":30.897,"amap_marker_url":"https://uri.amap.com/marker?position=114.086627,22.531792&name=%E4%BD%B0%E5%9F%8E%E5%8A%A8%E7%89%A9%E5%8C%BB%E9%99%A2&src=vetmap&coordinate=gaode&callnative=1"},{"name":"贝贝宠物医院(总店)","address":"南园街道东园路巴丁街9号铺","phone":"0755-82062678","category":"医疗保健服务;动物医疗场所;宠物诊所","area":"上步","lng":114.101891,"lat":22.537977,"amap_id":"B02F37UPVU","order":48,"prev_distance_km":1.712,"cumulative_distance_km":32.609,"amap_marker_url":"https://uri.amap.com/marker?position=114.101891,22.537977&name=%E8%B4%9D%E8%B4%9D%E5%AE%A0%E7%89%A9%E5%8C%BB%E9%99%A2%28%E6%80%BB%E5%BA%97%29&src=vetmap&coordinate=gaode&callnative=1"},{"name":"瑞派宠物医院·24H·急重症转诊中心(信德红岭院店)","address":"南园街道东园社区红岭南路1033号御河堤连廊1层7-2号","phone":"18026950931","category":"医疗保健服务;动物医疗场所;宠物诊所","area":"上步","lng":114.103512,"lat":22.538282,"amap_id":"B0HAOUJ5C0","order":49,"prev_distance_km":0.17,"cumulative_distance_km":32.779,"amap_marker_url":"https://uri.amap.com/marker?position=114.103512,22.538282&name=%E7%91%9E%E6%B4%BE%E5%AE%A0%E7%89%A9%E5%8C%BB%E9%99%A2%C2%B724H%C2%B7%E6%80%A5%E9%87%8D%E7%97%87%E8%BD%AC%E8%AF%8A%E4%B8%AD%E5%BF%83%28%E4%BF%A1%E5%BE%B7%E7%BA%A2%E5%B2%AD%E9%99%A2%E5%BA%97%29&src=vetmap&coordinate=gaode&callnative=1"},{"name":"芭比堂动物医院(园岭分院)","address":"红岭中路2031-2号","phone":"0755-82988861","category":"医疗保健服务;动物医疗场所;宠物诊所","area":"园岭","lng":114.104348,"lat":22.551534,"amap_id":"B0HDTRMBFH","order":50,"prev_distance_km":1.476,"cumulative_distance_km":34.255,"amap_marker_url":"https://uri.amap.com/marker?position=114.104348,22.551534&name=%E8%8A%AD%E6%AF%94%E5%A0%82%E5%8A%A8%E7%89%A9%E5%8C%BB%E9%99%A2%28%E5%9B%AD%E5%B2%AD%E5%88%86%E9%99%A2%29&src=vetmap&coordinate=gaode&callnative=1"},{"name":"暖生宠医大药房(深圳福田店)","address":"八卦岭八卦一路工业区7栋云里空间写字楼","phone":"13699866614","category":"医疗保健服务;动物医疗场所;宠物诊所","area":"八卦岭","lng":114.100158,"lat":22.557385,"amap_id":"B0KD9C5LKI","order":51,"prev_distance_km":0.78,"cumulative_distance_km":35.035,"amap_marker_url":"https://uri.amap.com/marker?position=114.100158,22.557385&name=%E6%9A%96%E7%94%9F%E5%AE%A0%E5%8C%BB%E5%A4%A7%E8%8D%AF%E6%88%BF%28%E6%B7%B1%E5%9C%B3%E7%A6%8F%E7%94%B0%E5%BA%97%29&src=vetmap&coordinate=gaode&callnative=1"},{"name":"万德福宠物医院·内科·肿瘤科·猫科(福田保税区店)","address":"福保街道福保社区桂花路13号福源花园D栋群楼2楼","phone":"13995690735","category":"医疗保健服务;动物医疗场所;宠物诊所","area":"","lng":114.053021,"lat":22.509431,"amap_id":"B0J05ZWECS","order":52,"prev_distance_km":7.202,"cumulative_distance_km":42.237,"amap_marker_url":"https://uri.amap.com/marker?position=114.053021,22.509431&name=%E4%B8%87%E5%BE%B7%E7%A6%8F%E5%AE%A0%E7%89%A9%E5%8C%BB%E9%99%A2%C2%B7%E5%86%85%E7%A7%91%C2%B7%E8%82%BF%E7%98%A4%E7%A7%91%C2%B7%E7%8C%AB%E7%A7%91%28%E7%A6%8F%E7%94%B0%E4%BF%9D%E7%A8%8E%E5%8C%BA%E5%BA%97%29&src=vetmap&coordinate=gaode&callnative=1"},{"name":"它它宠物医院(桂花路店)","address":"福保街道桂花路15号红树绿洲15-10商铺","phone":"0755-23615070;19168841703","category":"医疗保健服务;动物医疗场所;宠物诊所","area":"","lng":114.051544,"lat":22.509332,"amap_id":"B0JRAXVSDU","order":53,"prev_distance_km":0.152,"cumulative_distance_km":42.389,"amap_marker_url":"https://uri.amap.com/marker?position=114.051544,22.509332&name=%E5%AE%83%E5%AE%83%E5%AE%A0%E7%89%A9%E5%8C%BB%E9%99%A2%28%E6%A1%82%E8%8A%B1%E8%B7%AF%E5%BA%97%29&src=vetmap&coordinate=gaode&callnative=1"},{"name":"开心宠物医院","address":"沙嘴中心街与沙嘴东路交叉口西北80米","phone":"13662628261;18124573990","category":"医疗保健服务;动物医疗场所;宠物诊所","area":"沙尾","lng":114.038475,"lat":22.516375,"amap_id":"B0I14H72E6","order":54,"prev_distance_km":1.554,"cumulative_distance_km":43.944,"amap_marker_url":"https://uri.amap.com/marker?position=114.038475,22.516375&name=%E5%BC%80%E5%BF%83%E5%AE%A0%E7%89%A9%E5%8C%BB%E9%99%A2&src=vetmap&coordinate=gaode&callnative=1"}]}