{"summary":{"id":"d00688","province":"广西壮族自治区","city":"崇左市","district":"凭祥市","count":5,"route_count":1,"max_route_clinics":5,"total_distance_km":2.645,"coordinate_system":"GCJ-02 / Amap","generated_at":"2026-05-07 21:28:26"},"routes":[{"id":"r1","name":"第1段","count":5,"total_distance_km":2.645,"rows":[{"name":"动物检疫申报点","address":"锦绣花园西门东南50米","phone":"","category":"医疗保健服务;动物医疗场所;动物医疗场所","area":"","lng":106.755475,"lat":22.111054,"amap_id":"B0J0J6IV39","order":1,"prev_distance_km":0.0,"cumulative_distance_km":0.0,"amap_marker_url":"https://uri.amap.com/marker?position=106.755475,22.111054&name=%E5%8A%A8%E7%89%A9%E6%A3%80%E7%96%AB%E7%94%B3%E6%8A%A5%E7%82%B9&src=vetmap&coordinate=gaode&callnative=1","route_id":"r1","route_name":"第1段"},{"name":"萌宠动物医院","address":"屏山路二支4号","phone":"17840834081","category":"医疗保健服务;动物医疗场所;宠物诊所","area":"","lng":106.760245,"lat":22.113773,"amap_id":"B0KBZ5DLRM","order":2,"prev_distance_km":0.577,"cumulative_distance_km":0.577,"amap_marker_url":"https://uri.amap.com/marker?position=106.760245,22.113773&name=%E8%90%8C%E5%AE%A0%E5%8A%A8%E7%89%A9%E5%8C%BB%E9%99%A2&src=vetmap&coordinate=gaode&callnative=1","route_id":"r1","route_name":"第1段"},{"name":"宠澡堂宠物洗澡","address":"屏山路二支17号","phone":"18677121370","category":"医疗保健服务;动物医疗场所;动物医疗场所","area":"","lng":106.760301,"lat":22.11362,"amap_id":"B0JUUMGRR3","order":3,"prev_distance_km":0.018,"cumulative_distance_km":0.595,"amap_marker_url":"https://uri.amap.com/marker?position=106.760301,22.113620&name=%E5%AE%A0%E6%BE%A1%E5%A0%82%E5%AE%A0%E7%89%A9%E6%B4%97%E6%BE%A1&src=vetmap&coordinate=gaode&callnative=1","route_id":"r1","route_name":"第1段"},{"name":"小龙女动物医院凭祥旗舰店","address":"北环路157号","phone":"13737132505","category":"医疗保健服务;动物医疗场所;宠物诊所","area":"","lng":106.767536,"lat":22.107813,"amap_id":"B0FFH64H2V","order":4,"prev_distance_km":0.986,"cumulative_distance_km":1.581,"amap_marker_url":"https://uri.amap.com/marker?position=106.767536,22.107813&name=%E5%B0%8F%E9%BE%99%E5%A5%B3%E5%8A%A8%E7%89%A9%E5%8C%BB%E9%99%A2%E5%87%AD%E7%A5%A5%E6%97%97%E8%88%B0%E5%BA%97&src=vetmap&coordinate=gaode&callnative=1","route_id":"r1","route_name":"第1段"},{"name":"安馨宠物","address":"田心路1号白云安置小区1-10号","phone":"","category":"医疗保健服务;动物医疗场所;宠物诊所","area":"","lng":106.765382,"lat":22.098457,"amap_id":"B0M6CRVEAX","order":5,"prev_distance_km":1.064,"cumulative_distance_km":2.645,"amap_marker_url":"https://uri.amap.com/marker?position=106.765382,22.098457&name=%E5%AE%89%E9%A6%A8%E5%AE%A0%E7%89%A9&src=vetmap&coordinate=gaode&callnative=1","route_id":"r1","route_name":"第1段"}]}],"rows":[{"name":"动物检疫申报点","address":"锦绣花园西门东南50米","phone":"","category":"医疗保健服务;动物医疗场所;动物医疗场所","area":"","lng":106.755475,"lat":22.111054,"amap_id":"B0J0J6IV39","order":1,"prev_distance_km":0.0,"cumulative_distance_km":0.0,"amap_marker_url":"https://uri.amap.com/marker?position=106.755475,22.111054&name=%E5%8A%A8%E7%89%A9%E6%A3%80%E7%96%AB%E7%94%B3%E6%8A%A5%E7%82%B9&src=vetmap&coordinate=gaode&callnative=1","route_id":"r1","route_name":"第1段","global_order":1},{"name":"萌宠动物医院","address":"屏山路二支4号","phone":"17840834081","category":"医疗保健服务;动物医疗场所;宠物诊所","area":"","lng":106.760245,"lat":22.113773,"amap_id":"B0KBZ5DLRM","order":2,"prev_distance_km":0.577,"cumulative_distance_km":0.577,"amap_marker_url":"https://uri.amap.com/marker?position=106.760245,22.113773&name=%E8%90%8C%E5%AE%A0%E5%8A%A8%E7%89%A9%E5%8C%BB%E9%99%A2&src=vetmap&coordinate=gaode&callnative=1","route_id":"r1","route_name":"第1段","global_order":2},{"name":"宠澡堂宠物洗澡","address":"屏山路二支17号","phone":"18677121370","category":"医疗保健服务;动物医疗场所;动物医疗场所","area":"","lng":106.760301,"lat":22.11362,"amap_id":"B0JUUMGRR3","order":3,"prev_distance_km":0.018,"cumulative_distance_km":0.595,"amap_marker_url":"https://uri.amap.com/marker?position=106.760301,22.113620&name=%E5%AE%A0%E6%BE%A1%E5%A0%82%E5%AE%A0%E7%89%A9%E6%B4%97%E6%BE%A1&src=vetmap&coordinate=gaode&callnative=1","route_id":"r1","route_name":"第1段","global_order":3},{"name":"小龙女动物医院凭祥旗舰店","address":"北环路157号","phone":"13737132505","category":"医疗保健服务;动物医疗场所;宠物诊所","area":"","lng":106.767536,"lat":22.107813,"amap_id":"B0FFH64H2V","order":4,"prev_distance_km":0.986,"cumulative_distance_km":1.581,"amap_marker_url":"https://uri.amap.com/marker?position=106.767536,22.107813&name=%E5%B0%8F%E9%BE%99%E5%A5%B3%E5%8A%A8%E7%89%A9%E5%8C%BB%E9%99%A2%E5%87%AD%E7%A5%A5%E6%97%97%E8%88%B0%E5%BA%97&src=vetmap&coordinate=gaode&callnative=1","route_id":"r1","route_name":"第1段","global_order":4},{"name":"安馨宠物","address":"田心路1号白云安置小区1-10号","phone":"","category":"医疗保健服务;动物医疗场所;宠物诊所","area":"","lng":106.765382,"lat":22.098457,"amap_id":"B0M6CRVEAX","order":5,"prev_distance_km":1.064,"cumulative_distance_km":2.645,"amap_marker_url":"https://uri.amap.com/marker?position=106.765382,22.098457&name=%E5%AE%89%E9%A6%A8%E5%AE%A0%E7%89%A9&src=vetmap&coordinate=gaode&callnative=1","route_id":"r1","route_name":"第1段","global_order":5}]}