{"summary":{"id":"d00619","province":"广东省","city":"深圳市","district":"盐田区","count":12,"route_count":1,"max_route_clinics":12,"total_distance_km":11.924,"coordinate_system":"GCJ-02 / Amap","generated_at":"2026-05-08 19:44:38"},"routes":[{"id":"r1","name":"第1段","count":12,"total_distance_km":11.924,"rows":[{"name":"张医生宠物医院","address":"沙头角棕榈湾花园107号商铺张医生宠物医院","phone":"0755-25804998","category":"医疗保健服务;动物医疗场所;宠物诊所","area":"","lng":114.237114,"lat":22.546943,"amap_id":"B0J1FNZ92P","order":1,"prev_distance_km":0.0,"cumulative_distance_km":0.0,"amap_marker_url":"https://uri.amap.com/marker?position=114.237114,22.546943&name=%E5%BC%A0%E5%8C%BB%E7%94%9F%E5%AE%A0%E7%89%A9%E5%8C%BB%E9%99%A2&src=vetmap&coordinate=gaode&callnative=1","route_id":"r1","route_name":"第1段"},{"name":"棠花宠物美容店","address":"恩上路一巷2-1号","phone":"19574588226","category":"医疗保健服务;动物医疗场所;宠物诊所","area":"沙头角","lng":114.229846,"lat":22.550301,"amap_id":"B0LKC71P2N","order":2,"prev_distance_km":0.835,"cumulative_distance_km":0.835,"amap_marker_url":"https://uri.amap.com/marker?position=114.229846,22.550301&name=%E6%A3%A0%E8%8A%B1%E5%AE%A0%E7%89%A9%E7%BE%8E%E5%AE%B9%E5%BA%97&src=vetmap&coordinate=gaode&callnative=1","route_id":"r1","route_name":"第1段"},{"name":"瑞派宠物医院(康德沙头角店)","address":"沙盐路3048-14","phone":"0755-25211194;13928474797","category":"医疗保健服务;动物医疗场所;宠物诊所","area":"沙头角","lng":114.230213,"lat":22.550531,"amap_id":"B0FFKZFBXZ","order":3,"prev_distance_km":0.046,"cumulative_distance_km":0.88,"amap_marker_url":"https://uri.amap.com/marker?position=114.230213,22.550531&name=%E7%91%9E%E6%B4%BE%E5%AE%A0%E7%89%A9%E5%8C%BB%E9%99%A2%28%E5%BA%B7%E5%BE%B7%E6%B2%99%E5%A4%B4%E8%A7%92%E5%BA%97%29&src=vetmap&coordinate=gaode&callnative=1","route_id":"r1","route_name":"第1段"},{"name":"友佳宠物诊所","address":"深盐路3004号","phone":"","category":"医疗保健服务;动物医疗场所;宠物诊所","area":"沙头角","lng":114.230025,"lat":22.554125,"amap_id":"B0FFG72CGD","order":4,"prev_distance_km":0.4,"cumulative_distance_km":1.28,"amap_marker_url":"https://uri.amap.com/marker?position=114.230025,22.554125&name=%E5%8F%8B%E4%BD%B3%E5%AE%A0%E7%89%A9%E8%AF%8A%E6%89%80&src=vetmap&coordinate=gaode&callnative=1","route_id":"r1","route_name":"第1段"},{"name":"瑞鹏宠物医院(沙盐分院)","address":"沙头角街道沙盐路3015号一楼(电信楼小区外围底商)","phone":"0755-25366220","category":"医疗保健服务;动物医疗场所;宠物诊所","area":"沙头角","lng":114.233623,"lat":22.552737,"amap_id":"B0FFJ39WMS","order":5,"prev_distance_km":0.4,"cumulative_distance_km":1.681,"amap_marker_url":"https://uri.amap.com/marker?position=114.233623,22.552737&name=%E7%91%9E%E9%B9%8F%E5%AE%A0%E7%89%A9%E5%8C%BB%E9%99%A2%28%E6%B2%99%E7%9B%90%E5%88%86%E9%99%A2%29&src=vetmap&coordinate=gaode&callnative=1","route_id":"r1","route_name":"第1段"},{"name":"猫专科(流浪猫救助中心)","address":"沙头角保税区8栋109","phone":"","category":"医疗保健服务;动物医疗场所;宠物诊所","area":"沙头角","lng":114.241204,"lat":22.555715,"amap_id":"B0LRK7II1K","order":6,"prev_distance_km":0.846,"cumulative_distance_km":2.527,"amap_marker_url":"https://uri.amap.com/marker?position=114.241204,22.555715&name=%E7%8C%AB%E4%B8%93%E7%A7%91%28%E6%B5%81%E6%B5%AA%E7%8C%AB%E6%95%91%E5%8A%A9%E4%B8%AD%E5%BF%83%29&src=vetmap&coordinate=gaode&callnative=1","route_id":"r1","route_name":"第1段"},{"name":"福宝宠物医院","address":"沙头角工业区8栋108(海山地铁站B口步行480米)","phone":"","category":"医疗保健服务;动物医疗场所;宠物诊所","area":"沙头角","lng":114.241225,"lat":22.555925,"amap_id":"B0LRKCJRAM","order":7,"prev_distance_km":0.023,"cumulative_distance_km":2.55,"amap_marker_url":"https://uri.amap.com/marker?position=114.241225,22.555925&name=%E7%A6%8F%E5%AE%9D%E5%AE%A0%E7%89%A9%E5%8C%BB%E9%99%A2&src=vetmap&coordinate=gaode&callnative=1","route_id":"r1","route_name":"第1段"},{"name":"派多格宠物医院(沙头角店)","address":"海山街道鹏湾社区海景二路1015号深中润君临海域C区C1商铺01","phone":"18923725948","category":"医疗保健服务;动物医疗场所;宠物诊所","area":"沙头角","lng":114.243524,"lat":22.556355,"amap_id":"B0H2BAJVF6","order":8,"prev_distance_km":0.241,"cumulative_distance_km":2.791,"amap_marker_url":"https://uri.amap.com/marker?position=114.243524,22.556355&name=%E6%B4%BE%E5%A4%9A%E6%A0%BC%E5%AE%A0%E7%89%A9%E5%8C%BB%E9%99%A2%28%E6%B2%99%E5%A4%B4%E8%A7%92%E5%BA%97%29&src=vetmap&coordinate=gaode&callnative=1","route_id":"r1","route_name":"第1段"},{"name":"珍宠动物医院","address":"和亨中心广场108号","phone":"","category":"医疗保健服务;动物医疗场所;宠物诊所","area":"","lng":114.251265,"lat":22.588203,"amap_id":"B0M605M09O","order":9,"prev_distance_km":3.629,"cumulative_distance_km":6.42,"amap_marker_url":"https://uri.amap.com/marker?position=114.251265,22.588203&name=%E7%8F%8D%E5%AE%A0%E5%8A%A8%E7%89%A9%E5%8C%BB%E9%99%A2&src=vetmap&coordinate=gaode&callnative=1","route_id":"r1","route_name":"第1段"},{"name":"优佳宠物医院(盐田港分院)","address":"南方明珠花园东海道187号","phone":"0755-89210729;15361056240","category":"医疗保健服务;动物医疗场所;宠物诊所","area":"","lng":114.260084,"lat":22.588177,"amap_id":"B0JUBLG5OJ","order":10,"prev_distance_km":0.905,"cumulative_distance_km":7.326,"amap_marker_url":"https://uri.amap.com/marker?position=114.260084,22.588177&name=%E4%BC%98%E4%BD%B3%E5%AE%A0%E7%89%A9%E5%8C%BB%E9%99%A2%28%E7%9B%90%E7%94%B0%E6%B8%AF%E5%88%86%E9%99%A2%29&src=vetmap&coordinate=gaode&callnative=1","route_id":"r1","route_name":"第1段"},{"name":"禧逗逗御景宠物医院","address":"御景佳园一期西门旁","phone":"19926494399","category":"医疗保健服务;动物医疗场所;宠物诊所","area":"","lng":114.261862,"lat":22.58465,"amap_id":"B0K11CRNTH","order":11,"prev_distance_km":0.433,"cumulative_distance_km":7.758,"amap_marker_url":"https://uri.amap.com/marker?position=114.261862,22.584650&name=%E7%A6%A7%E9%80%97%E9%80%97%E5%BE%A1%E6%99%AF%E5%AE%A0%E7%89%A9%E5%8C%BB%E9%99%A2&src=vetmap&coordinate=gaode&callnative=1","route_id":"r1","route_name":"第1段"},{"name":"阳光艾恩宠物服务","address":"大梅沙东海岸社区环碧路216号附39号","phone":"","category":"医疗保健服务;动物医疗场所;宠物诊所","area":"","lng":114.298884,"lat":22.59999,"amap_id":"B0L0P715F5","order":12,"prev_distance_km":4.166,"cumulative_distance_km":11.924,"amap_marker_url":"https://uri.amap.com/marker?position=114.298884,22.599990&name=%E9%98%B3%E5%85%89%E8%89%BE%E6%81%A9%E5%AE%A0%E7%89%A9%E6%9C%8D%E5%8A%A1&src=vetmap&coordinate=gaode&callnative=1","route_id":"r1","route_name":"第1段"}]}],"rows":[{"name":"张医生宠物医院","address":"沙头角棕榈湾花园107号商铺张医生宠物医院","phone":"0755-25804998","category":"医疗保健服务;动物医疗场所;宠物诊所","area":"","lng":114.237114,"lat":22.546943,"amap_id":"B0J1FNZ92P","order":1,"prev_distance_km":0.0,"cumulative_distance_km":0.0,"amap_marker_url":"https://uri.amap.com/marker?position=114.237114,22.546943&name=%E5%BC%A0%E5%8C%BB%E7%94%9F%E5%AE%A0%E7%89%A9%E5%8C%BB%E9%99%A2&src=vetmap&coordinate=gaode&callnative=1","route_id":"r1","route_name":"第1段","global_order":1},{"name":"棠花宠物美容店","address":"恩上路一巷2-1号","phone":"19574588226","category":"医疗保健服务;动物医疗场所;宠物诊所","area":"沙头角","lng":114.229846,"lat":22.550301,"amap_id":"B0LKC71P2N","order":2,"prev_distance_km":0.835,"cumulative_distance_km":0.835,"amap_marker_url":"https://uri.amap.com/marker?position=114.229846,22.550301&name=%E6%A3%A0%E8%8A%B1%E5%AE%A0%E7%89%A9%E7%BE%8E%E5%AE%B9%E5%BA%97&src=vetmap&coordinate=gaode&callnative=1","route_id":"r1","route_name":"第1段","global_order":2},{"name":"瑞派宠物医院(康德沙头角店)","address":"沙盐路3048-14","phone":"0755-25211194;13928474797","category":"医疗保健服务;动物医疗场所;宠物诊所","area":"沙头角","lng":114.230213,"lat":22.550531,"amap_id":"B0FFKZFBXZ","order":3,"prev_distance_km":0.046,"cumulative_distance_km":0.88,"amap_marker_url":"https://uri.amap.com/marker?position=114.230213,22.550531&name=%E7%91%9E%E6%B4%BE%E5%AE%A0%E7%89%A9%E5%8C%BB%E9%99%A2%28%E5%BA%B7%E5%BE%B7%E6%B2%99%E5%A4%B4%E8%A7%92%E5%BA%97%29&src=vetmap&coordinate=gaode&callnative=1","route_id":"r1","route_name":"第1段","global_order":3},{"name":"友佳宠物诊所","address":"深盐路3004号","phone":"","category":"医疗保健服务;动物医疗场所;宠物诊所","area":"沙头角","lng":114.230025,"lat":22.554125,"amap_id":"B0FFG72CGD","order":4,"prev_distance_km":0.4,"cumulative_distance_km":1.28,"amap_marker_url":"https://uri.amap.com/marker?position=114.230025,22.554125&name=%E5%8F%8B%E4%BD%B3%E5%AE%A0%E7%89%A9%E8%AF%8A%E6%89%80&src=vetmap&coordinate=gaode&callnative=1","route_id":"r1","route_name":"第1段","global_order":4},{"name":"瑞鹏宠物医院(沙盐分院)","address":"沙头角街道沙盐路3015号一楼(电信楼小区外围底商)","phone":"0755-25366220","category":"医疗保健服务;动物医疗场所;宠物诊所","area":"沙头角","lng":114.233623,"lat":22.552737,"amap_id":"B0FFJ39WMS","order":5,"prev_distance_km":0.4,"cumulative_distance_km":1.681,"amap_marker_url":"https://uri.amap.com/marker?position=114.233623,22.552737&name=%E7%91%9E%E9%B9%8F%E5%AE%A0%E7%89%A9%E5%8C%BB%E9%99%A2%28%E6%B2%99%E7%9B%90%E5%88%86%E9%99%A2%29&src=vetmap&coordinate=gaode&callnative=1","route_id":"r1","route_name":"第1段","global_order":5},{"name":"猫专科(流浪猫救助中心)","address":"沙头角保税区8栋109","phone":"","category":"医疗保健服务;动物医疗场所;宠物诊所","area":"沙头角","lng":114.241204,"lat":22.555715,"amap_id":"B0LRK7II1K","order":6,"prev_distance_km":0.846,"cumulative_distance_km":2.527,"amap_marker_url":"https://uri.amap.com/marker?position=114.241204,22.555715&name=%E7%8C%AB%E4%B8%93%E7%A7%91%28%E6%B5%81%E6%B5%AA%E7%8C%AB%E6%95%91%E5%8A%A9%E4%B8%AD%E5%BF%83%29&src=vetmap&coordinate=gaode&callnative=1","route_id":"r1","route_name":"第1段","global_order":6},{"name":"福宝宠物医院","address":"沙头角工业区8栋108(海山地铁站B口步行480米)","phone":"","category":"医疗保健服务;动物医疗场所;宠物诊所","area":"沙头角","lng":114.241225,"lat":22.555925,"amap_id":"B0LRKCJRAM","order":7,"prev_distance_km":0.023,"cumulative_distance_km":2.55,"amap_marker_url":"https://uri.amap.com/marker?position=114.241225,22.555925&name=%E7%A6%8F%E5%AE%9D%E5%AE%A0%E7%89%A9%E5%8C%BB%E9%99%A2&src=vetmap&coordinate=gaode&callnative=1","route_id":"r1","route_name":"第1段","global_order":7},{"name":"派多格宠物医院(沙头角店)","address":"海山街道鹏湾社区海景二路1015号深中润君临海域C区C1商铺01","phone":"18923725948","category":"医疗保健服务;动物医疗场所;宠物诊所","area":"沙头角","lng":114.243524,"lat":22.556355,"amap_id":"B0H2BAJVF6","order":8,"prev_distance_km":0.241,"cumulative_distance_km":2.791,"amap_marker_url":"https://uri.amap.com/marker?position=114.243524,22.556355&name=%E6%B4%BE%E5%A4%9A%E6%A0%BC%E5%AE%A0%E7%89%A9%E5%8C%BB%E9%99%A2%28%E6%B2%99%E5%A4%B4%E8%A7%92%E5%BA%97%29&src=vetmap&coordinate=gaode&callnative=1","route_id":"r1","route_name":"第1段","global_order":8},{"name":"珍宠动物医院","address":"和亨中心广场108号","phone":"","category":"医疗保健服务;动物医疗场所;宠物诊所","area":"","lng":114.251265,"lat":22.588203,"amap_id":"B0M605M09O","order":9,"prev_distance_km":3.629,"cumulative_distance_km":6.42,"amap_marker_url":"https://uri.amap.com/marker?position=114.251265,22.588203&name=%E7%8F%8D%E5%AE%A0%E5%8A%A8%E7%89%A9%E5%8C%BB%E9%99%A2&src=vetmap&coordinate=gaode&callnative=1","route_id":"r1","route_name":"第1段","global_order":9},{"name":"优佳宠物医院(盐田港分院)","address":"南方明珠花园东海道187号","phone":"0755-89210729;15361056240","category":"医疗保健服务;动物医疗场所;宠物诊所","area":"","lng":114.260084,"lat":22.588177,"amap_id":"B0JUBLG5OJ","order":10,"prev_distance_km":0.905,"cumulative_distance_km":7.326,"amap_marker_url":"https://uri.amap.com/marker?position=114.260084,22.588177&name=%E4%BC%98%E4%BD%B3%E5%AE%A0%E7%89%A9%E5%8C%BB%E9%99%A2%28%E7%9B%90%E7%94%B0%E6%B8%AF%E5%88%86%E9%99%A2%29&src=vetmap&coordinate=gaode&callnative=1","route_id":"r1","route_name":"第1段","global_order":10},{"name":"禧逗逗御景宠物医院","address":"御景佳园一期西门旁","phone":"19926494399","category":"医疗保健服务;动物医疗场所;宠物诊所","area":"","lng":114.261862,"lat":22.58465,"amap_id":"B0K11CRNTH","order":11,"prev_distance_km":0.433,"cumulative_distance_km":7.758,"amap_marker_url":"https://uri.amap.com/marker?position=114.261862,22.584650&name=%E7%A6%A7%E9%80%97%E9%80%97%E5%BE%A1%E6%99%AF%E5%AE%A0%E7%89%A9%E5%8C%BB%E9%99%A2&src=vetmap&coordinate=gaode&callnative=1","route_id":"r1","route_name":"第1段","global_order":11},{"name":"阳光艾恩宠物服务","address":"大梅沙东海岸社区环碧路216号附39号","phone":"","category":"医疗保健服务;动物医疗场所;宠物诊所","area":"","lng":114.298884,"lat":22.59999,"amap_id":"B0L0P715F5","order":12,"prev_distance_km":4.166,"cumulative_distance_km":11.924,"amap_marker_url":"https://uri.amap.com/marker?position=114.298884,22.599990&name=%E9%98%B3%E5%85%89%E8%89%BE%E6%81%A9%E5%AE%A0%E7%89%A9%E6%9C%8D%E5%8A%A1&src=vetmap&coordinate=gaode&callnative=1","route_id":"r1","route_name":"第1段","global_order":12}]}