{"summary":{"id":"d00654","province":"广东省","city":"茂名市","district":"化州市","count":17,"total_distance_km":125.525,"coordinate_system":"GCJ-02 / Amap","generated_at":"2026-05-07 19:56:44"},"rows":[{"name":"宝圩畜牧兽医站","address":"沿江路7号","phone":"","category":"医疗保健服务;动物医疗场所;兽医站","area":"","lng":110.669763,"lat":22.162723,"amap_id":"B029C021ZO","order":1,"prev_distance_km":0.0,"cumulative_distance_km":0.0,"amap_marker_url":"https://uri.amap.com/marker?position=110.669763,22.162723&name=%E5%AE%9D%E5%9C%A9%E7%95%9C%E7%89%A7%E5%85%BD%E5%8C%BB%E7%AB%99&src=vetmap&coordinate=gaode&callnative=1"},{"name":"海大集团畜禽技术服务站(化北站)","address":"331乡道与幸福路交叉口西160米","phone":"","category":"医疗保健服务;动物医疗场所;兽医站","area":"","lng":110.589173,"lat":22.115953,"amap_id":"B0G0ANQQBX","order":2,"prev_distance_km":9.795,"cumulative_distance_km":9.795,"amap_marker_url":"https://uri.amap.com/marker?position=110.589173,22.115953&name=%E6%B5%B7%E5%A4%A7%E9%9B%86%E5%9B%A2%E7%95%9C%E7%A6%BD%E6%8A%80%E6%9C%AF%E6%9C%8D%E5%8A%A1%E7%AB%99%28%E5%8C%96%E5%8C%97%E7%AB%99%29&src=vetmap&coordinate=gaode&callnative=1"},{"name":"中垌畜牧兽医事务所","address":"龙城路a15号","phone":"","category":"医疗保健服务;动物医疗场所;兽医站","area":"","lng":110.47591,"lat":21.844352,"amap_id":"B0K1KAI8O1","order":3,"prev_distance_km":32.38,"cumulative_distance_km":42.175,"amap_marker_url":"https://uri.amap.com/marker?position=110.475910,21.844352&name=%E4%B8%AD%E5%9E%8C%E7%95%9C%E7%89%A7%E5%85%BD%E5%8C%BB%E4%BA%8B%E5%8A%A1%E6%89%80&src=vetmap&coordinate=gaode&callnative=1"},{"name":"中垌志彪兽药店","address":"幸福路与三家店大道交叉口西北120米","phone":"","category":"医疗保健服务;动物医疗场所;动物医疗场所","area":"","lng":110.475025,"lat":21.836425,"amap_id":"B0LGNXVE4J","order":4,"prev_distance_km":0.886,"cumulative_distance_km":43.061,"amap_marker_url":"https://uri.amap.com/marker?position=110.475025,21.836425&name=%E4%B8%AD%E5%9E%8C%E5%BF%97%E5%BD%AA%E5%85%BD%E8%8D%AF%E5%BA%97&src=vetmap&coordinate=gaode&callnative=1"},{"name":"林尘畜牧兽医事务所","address":"林尘镇附近","phone":"","category":"医疗保健服务;动物医疗场所;兽医站","area":"","lng":110.570086,"lat":21.833024,"amap_id":"B0LKR56BHL","order":5,"prev_distance_km":9.819,"cumulative_distance_km":52.881,"amap_marker_url":"https://uri.amap.com/marker?position=110.570086,21.833024&name=%E6%9E%97%E5%B0%98%E7%95%9C%E7%89%A7%E5%85%BD%E5%8C%BB%E4%BA%8B%E5%8A%A1%E6%89%80&src=vetmap&coordinate=gaode&callnative=1"},{"name":"化州市南盛亚荣兽药店禽病防治点","address":"竹坡路与解放路交叉口北60米","phone":"13542308213","category":"医疗保健服务;动物医疗场所;动物医疗场所","area":"","lng":110.717387,"lat":21.730839,"amap_id":"B0I3F7R6A6","order":6,"prev_distance_km":18.985,"cumulative_distance_km":71.866,"amap_marker_url":"https://uri.amap.com/marker?position=110.717387,21.730839&name=%E5%8C%96%E5%B7%9E%E5%B8%82%E5%8D%97%E7%9B%9B%E4%BA%9A%E8%8D%A3%E5%85%BD%E8%8D%AF%E5%BA%97%E7%A6%BD%E7%97%85%E9%98%B2%E6%B2%BB%E7%82%B9&src=vetmap&coordinate=gaode&callnative=1"},{"name":"化州市兽医防疫检疫站","address":"人民中路与文卫路交叉口东南120米","phone":"","category":"医疗保健服务;动物医疗场所;动物医疗场所","area":"","lng":110.694925,"lat":21.594075,"amap_id":"B0L32U3PYM","order":7,"prev_distance_km":15.384,"cumulative_distance_km":87.25,"amap_marker_url":"https://uri.amap.com/marker?position=110.694925,21.594075&name=%E5%8C%96%E5%B7%9E%E5%B8%82%E5%85%BD%E5%8C%BB%E9%98%B2%E7%96%AB%E6%A3%80%E7%96%AB%E7%AB%99&src=vetmap&coordinate=gaode&callnative=1"},{"name":"光大兽医药店","address":"阳光幼儿园西北侧","phone":"15986200307","category":"医疗保健服务;动物医疗场所;动物医疗场所","area":"下郭","lng":110.639633,"lat":21.639627,"amap_id":"B0G07NZK2O","order":8,"prev_distance_km":7.637,"cumulative_distance_km":94.887,"amap_marker_url":"https://uri.amap.com/marker?position=110.639633,21.639627&name=%E5%85%89%E5%A4%A7%E5%85%BD%E5%8C%BB%E8%8D%AF%E5%BA%97&src=vetmap&coordinate=gaode&callnative=1"},{"name":"C家萌宠","address":"下郭大道88号","phone":"18675680682","category":"医疗保健服务;动物医疗场所;宠物诊所","area":"下郭","lng":110.634814,"lat":21.640966,"amap_id":"B0FFICUVXV","order":9,"prev_distance_km":0.52,"cumulative_distance_km":95.407,"amap_marker_url":"https://uri.amap.com/marker?position=110.634814,21.640966&name=C%E5%AE%B6%E8%90%8C%E5%AE%A0&src=vetmap&coordinate=gaode&callnative=1"},{"name":"化州市动物检疫申报点","address":"下街六路29号","phone":"","category":"医疗保健服务;动物医疗场所;动物医疗场所","area":"","lng":110.643991,"lat":21.648267,"amap_id":"B029C0P3T3","order":10,"prev_distance_km":1.248,"cumulative_distance_km":96.655,"amap_marker_url":"https://uri.amap.com/marker?position=110.643991,21.648267&name=%E5%8C%96%E5%B7%9E%E5%B8%82%E5%8A%A8%E7%89%A9%E6%A3%80%E7%96%AB%E7%94%B3%E6%8A%A5%E7%82%B9&src=vetmap&coordinate=gaode&callnative=1"},{"name":"豪天宠物医院","address":"沿江东路56号","phone":"17825461988","category":"医疗保健服务;动物医疗场所;宠物诊所","area":"","lng":110.637906,"lat":21.653157,"amap_id":"B0HDRNRCPB","order":11,"prev_distance_km":0.831,"cumulative_distance_km":97.487,"amap_marker_url":"https://uri.amap.com/marker?position=110.637906,21.653157&name=%E8%B1%AA%E5%A4%A9%E5%AE%A0%E7%89%A9%E5%8C%BB%E9%99%A2&src=vetmap&coordinate=gaode&callnative=1"},{"name":"思宠动物诊所","address":"北岸北京桥头(兆康麦当劳红绿灯直上来200米左右)柏茵美水漆旁边","phone":"13035847292;15089647462","category":"医疗保健服务;动物医疗场所;宠物诊所","area":"河西","lng":110.635079,"lat":21.660429,"amap_id":"B0H6KABBGK","order":12,"prev_distance_km":0.86,"cumulative_distance_km":98.346,"amap_marker_url":"https://uri.amap.com/marker?position=110.635079,21.660429&name=%E6%80%9D%E5%AE%A0%E5%8A%A8%E7%89%A9%E8%AF%8A%E6%89%80&src=vetmap&coordinate=gaode&callnative=1"},{"name":"舒元宠物诊所(北京西路店)","address":"北京西路汇景花园北京大桥头第间铺","phone":"15338486687","category":"医疗保健服务;动物医疗场所;宠物诊所","area":"","lng":110.63517,"lat":21.660919,"amap_id":"B0G0BL4IDW","order":13,"prev_distance_km":0.055,"cumulative_distance_km":98.402,"amap_marker_url":"https://uri.amap.com/marker?position=110.635170,21.660919&name=%E8%88%92%E5%85%83%E5%AE%A0%E7%89%A9%E8%AF%8A%E6%89%80%28%E5%8C%97%E4%BA%AC%E8%A5%BF%E8%B7%AF%E5%BA%97%29&src=vetmap&coordinate=gaode&callnative=1"},{"name":"化州市丽岗廖氏兽药经营部","address":"丽岗镇朱砂管区禾塘岭村","phone":"","category":"医疗保健服务;动物医疗场所;动物医疗场所","area":"","lng":110.621776,"lat":21.709096,"amap_id":"B0J3GHAIQH","order":14,"prev_distance_km":5.533,"cumulative_distance_km":103.935,"amap_marker_url":"https://uri.amap.com/marker?position=110.621776,21.709096&name=%E5%8C%96%E5%B7%9E%E5%B8%82%E4%B8%BD%E5%B2%97%E5%BB%96%E6%B0%8F%E5%85%BD%E8%8D%AF%E7%BB%8F%E8%90%A5%E9%83%A8&src=vetmap&coordinate=gaode&callnative=1"},{"name":"瑞海兽药店","address":"325国道与建设中路交叉口东440米","phone":"","category":"医疗保健服务;动物医疗场所;动物医疗场所","area":"","lng":110.431125,"lat":21.646975,"amap_id":"B0L3AZQCHT","order":15,"prev_distance_km":20.876,"cumulative_distance_km":124.811,"amap_marker_url":"https://uri.amap.com/marker?position=110.431125,21.646975&name=%E7%91%9E%E6%B5%B7%E5%85%BD%E8%8D%AF%E5%BA%97&src=vetmap&coordinate=gaode&callnative=1"},{"name":"海吉兽药店","address":"325国道与建设中路交叉口东南380米","phone":"","category":"医疗保健服务;动物医疗场所;动物医疗场所","area":"","lng":110.429863,"lat":21.646042,"amap_id":"B0JRB77BU3","order":16,"prev_distance_km":0.167,"cumulative_distance_km":124.977,"amap_marker_url":"https://uri.amap.com/marker?position=110.429863,21.646042&name=%E6%B5%B7%E5%90%89%E5%85%BD%E8%8D%AF%E5%BA%97&src=vetmap&coordinate=gaode&callnative=1"},{"name":"润垠兽药店","address":"438乡道与建设中路交叉口东北240米","phone":"","category":"医疗保健服务;动物医疗场所;动物医疗场所","area":"","lng":110.428225,"lat":21.650725,"amap_id":"B0LKH9RBM1","order":17,"prev_distance_km":0.548,"cumulative_distance_km":125.525,"amap_marker_url":"https://uri.amap.com/marker?position=110.428225,21.650725&name=%E6%B6%A6%E5%9E%A0%E5%85%BD%E8%8D%AF%E5%BA%97&src=vetmap&coordinate=gaode&callnative=1"}]}