{"summary":{"id":"d00672","province":"广西壮族自治区","city":"北海市","district":"合浦县","count":18,"total_distance_km":83.084,"coordinate_system":"GCJ-02 / Amap","generated_at":"2026-05-07 19:56:45"},"rows":[{"name":"李廿四兽药店(仓库)","address":"西部大道旁边","phone":"13978944308","category":"医疗保健服务;动物医疗场所;动物医疗场所","area":"","lng":109.737264,"lat":21.609746,"amap_id":"B0FFITCTVB","order":1,"prev_distance_km":0.0,"cumulative_distance_km":0.0,"amap_marker_url":"https://uri.amap.com/marker?position=109.737264,21.609746&name=%E6%9D%8E%E5%BB%BF%E5%9B%9B%E5%85%BD%E8%8D%AF%E5%BA%97%28%E4%BB%93%E5%BA%93%29&src=vetmap&coordinate=gaode&callnative=1"},{"name":"合浦县白沙镇水产畜牧兽医站","address":"白榄路与建设路交叉口西北20米","phone":"","category":"医疗保健服务;动物医疗场所;兽医站","area":"","lng":109.687714,"lat":21.705437,"amap_id":"B0G10UFQLV","order":2,"prev_distance_km":11.808,"cumulative_distance_km":11.808,"amap_marker_url":"https://uri.amap.com/marker?position=109.687714,21.705437&name=%E5%90%88%E6%B5%A6%E5%8E%BF%E7%99%BD%E6%B2%99%E9%95%87%E6%B0%B4%E4%BA%A7%E7%95%9C%E7%89%A7%E5%85%BD%E5%8C%BB%E7%AB%99&src=vetmap&coordinate=gaode&callnative=1"},{"name":"闸口镇动物检疫申报点","address":"解放街未来星艺术幼儿园东侧约190米","phone":"","category":"医疗保健服务;动物医疗场所;动物医疗场所","area":"","lng":109.484897,"lat":21.703015,"amap_id":"B0G26HLI8E","order":3,"prev_distance_km":20.955,"cumulative_distance_km":32.764,"amap_marker_url":"https://uri.amap.com/marker?position=109.484897,21.703015&name=%E9%97%B8%E5%8F%A3%E9%95%87%E5%8A%A8%E7%89%A9%E6%A3%80%E7%96%AB%E7%94%B3%E6%8A%A5%E7%82%B9&src=vetmap&coordinate=gaode&callnative=1"},{"name":"亚大兽药","address":"常乐街","phone":"","category":"医疗保健服务;动物医疗场所;动物医疗场所","area":"","lng":109.42382,"lat":21.828566,"amap_id":"B0FFGAG1TP","order":4,"prev_distance_km":15.319,"cumulative_distance_km":48.083,"amap_marker_url":"https://uri.amap.com/marker?position=109.423820,21.828566&name=%E4%BA%9A%E5%A4%A7%E5%85%BD%E8%8D%AF&src=vetmap&coordinate=gaode&callnative=1"},{"name":"黄建东兽药店","address":"中山路与政法路交叉口北420米","phone":"","category":"医疗保健服务;动物医疗场所;动物医疗场所","area":"","lng":109.335425,"lat":21.754225,"amap_id":"B0LAALENTS","order":5,"prev_distance_km":12.314,"cumulative_distance_km":60.397,"amap_marker_url":"https://uri.amap.com/marker?position=109.335425,21.754225&name=%E9%BB%84%E5%BB%BA%E4%B8%9C%E5%85%BD%E8%8D%AF%E5%BA%97&src=vetmap&coordinate=gaode&callnative=1"},{"name":"喵小柒宠物诊所(中泰店)","address":"民心路9-06","phone":"0779-7200159;18177927292","category":"医疗保健服务;动物医疗场所;宠物诊所","area":"","lng":109.213159,"lat":21.679541,"amap_id":"B0FFM6VLQ6","order":6,"prev_distance_km":15.116,"cumulative_distance_km":75.513,"amap_marker_url":"https://uri.amap.com/marker?position=109.213159,21.679541&name=%E5%96%B5%E5%B0%8F%E6%9F%92%E5%AE%A0%E7%89%A9%E8%AF%8A%E6%89%80%28%E4%B8%AD%E6%B3%B0%E5%BA%97%29&src=vetmap&coordinate=gaode&callnative=1"},{"name":"瑞轩宠物诊疗中心(合浦店)","address":"延安路万隆城1期3栋4号楼","phone":"13825673016","category":"医疗保健服务;动物医疗场所;宠物诊所","area":"","lng":109.210226,"lat":21.677314,"amap_id":"B0JUC6Z69S","order":7,"prev_distance_km":0.391,"cumulative_distance_km":75.904,"amap_marker_url":"https://uri.amap.com/marker?position=109.210226,21.677314&name=%E7%91%9E%E8%BD%A9%E5%AE%A0%E7%89%A9%E8%AF%8A%E7%96%97%E4%B8%AD%E5%BF%83%28%E5%90%88%E6%B5%A6%E5%BA%97%29&src=vetmap&coordinate=gaode&callnative=1"},{"name":"合浦斌斌宠物诊所","address":"廉州镇延安路城东新区21号","phone":"13877938010","category":"医疗保健服务;动物医疗场所;宠物诊所","area":"","lng":109.210881,"lat":21.675956,"amap_id":"B0FFM9XYJY","order":8,"prev_distance_km":0.165,"cumulative_distance_km":76.07,"amap_marker_url":"https://uri.amap.com/marker?position=109.210881,21.675956&name=%E5%90%88%E6%B5%A6%E6%96%8C%E6%96%8C%E5%AE%A0%E7%89%A9%E8%AF%8A%E6%89%80&src=vetmap&coordinate=gaode&callnative=1"},{"name":"合浦太投宠物医院","address":"廉州镇延安路隆鑫广场234号","phone":"18077935080;18177908803","category":"医疗保健服务;动物医疗场所;宠物诊所","area":"","lng":109.210527,"lat":21.674488,"amap_id":"B0LAY90JVT","order":9,"prev_distance_km":0.167,"cumulative_distance_km":76.237,"amap_marker_url":"https://uri.amap.com/marker?position=109.210527,21.674488&name=%E5%90%88%E6%B5%A6%E5%A4%AA%E6%8A%95%E5%AE%A0%E7%89%A9%E5%8C%BB%E9%99%A2&src=vetmap&coordinate=gaode&callnative=1"},{"name":"廖仔畜禽技术服务部","address":"延安路与白云路交叉口东北60米","phone":"18177985322","category":"医疗保健服务;动物医疗场所;兽医站","area":"","lng":109.209525,"lat":21.673161,"amap_id":"B0GR29CNYQ","order":10,"prev_distance_km":0.18,"cumulative_distance_km":76.417,"amap_marker_url":"https://uri.amap.com/marker?position=109.209525,21.673161&name=%E5%BB%96%E4%BB%94%E7%95%9C%E7%A6%BD%E6%8A%80%E6%9C%AF%E6%9C%8D%E5%8A%A1%E9%83%A8&src=vetmap&coordinate=gaode&callnative=1"},{"name":"廉州镇动物检疫申报点","address":"廉州大道与龙门西路交叉口西南100米","phone":"","category":"医疗保健服务;动物医疗场所;动物医疗场所","area":"","lng":109.215782,"lat":21.67127,"amap_id":"B0J607FNK3","order":11,"prev_distance_km":0.68,"cumulative_distance_km":77.097,"amap_marker_url":"https://uri.amap.com/marker?position=109.215782,21.671270&name=%E5%BB%89%E5%B7%9E%E9%95%87%E5%8A%A8%E7%89%A9%E6%A3%80%E7%96%AB%E7%94%B3%E6%8A%A5%E7%82%B9&src=vetmap&coordinate=gaode&callnative=1"},{"name":"农专宠物医院(合浦分院)","address":"廉州大道4号加油站旁","phone":"17707895800","category":"医疗保健服务;动物医疗场所;宠物诊所","area":"还珠南路商业街","lng":109.206183,"lat":21.657192,"amap_id":"B0KR392TUT","order":12,"prev_distance_km":1.853,"cumulative_distance_km":78.95,"amap_marker_url":"https://uri.amap.com/marker?position=109.206183,21.657192&name=%E5%86%9C%E4%B8%93%E5%AE%A0%E7%89%A9%E5%8C%BB%E9%99%A2%28%E5%90%88%E6%B5%A6%E5%88%86%E9%99%A2%29&src=vetmap&coordinate=gaode&callnative=1"},{"name":"陈小红兽药批发","address":"丁头坡路与金鸡路交叉口东北40米","phone":"13907897098","category":"医疗保健服务;动物医疗场所;动物医疗场所","area":"","lng":109.192271,"lat":21.657716,"amap_id":"B0FFFCOEMX","order":13,"prev_distance_km":1.439,"cumulative_distance_km":80.389,"amap_marker_url":"https://uri.amap.com/marker?position=109.192271,21.657716&name=%E9%99%88%E5%B0%8F%E7%BA%A2%E5%85%BD%E8%8D%AF%E6%89%B9%E5%8F%91&src=vetmap&coordinate=gaode&callnative=1"},{"name":"正农动物防疫技术","address":"廉州镇金鸡西路20号","phone":"18826840658;19897593297","category":"医疗保健服务;动物医疗场所;兽医站","area":"","lng":109.191312,"lat":21.657475,"amap_id":"B0J35CON9N","order":14,"prev_distance_km":0.103,"cumulative_distance_km":80.492,"amap_marker_url":"https://uri.amap.com/marker?position=109.191312,21.657475&name=%E6%AD%A3%E5%86%9C%E5%8A%A8%E7%89%A9%E9%98%B2%E7%96%AB%E6%8A%80%E6%9C%AF&src=vetmap&coordinate=gaode&callnative=1"},{"name":"田野兽药店","address":"丁头坡路与金鸡西路交叉口北60米","phone":"15278967071;18207793950","category":"医疗保健服务;动物医疗场所;动物医疗场所","area":"","lng":109.191974,"lat":21.657977,"amap_id":"B0HGJ6EZ3X","order":15,"prev_distance_km":0.088,"cumulative_distance_km":80.58,"amap_marker_url":"https://uri.amap.com/marker?position=109.191974,21.657977&name=%E7%94%B0%E9%87%8E%E5%85%BD%E8%8D%AF%E5%BA%97&src=vetmap&coordinate=gaode&callnative=1"},{"name":"合浦县水产畜牧局畜牧兽医技术服务部","address":"南乐街112号","phone":"","category":"医疗保健服务;动物医疗场所;兽医站","area":"","lng":109.194045,"lat":21.660917,"amap_id":"B0FFLC9E9C","order":16,"prev_distance_km":0.391,"cumulative_distance_km":80.971,"amap_marker_url":"https://uri.amap.com/marker?position=109.194045,21.660917&name=%E5%90%88%E6%B5%A6%E5%8E%BF%E6%B0%B4%E4%BA%A7%E7%95%9C%E7%89%A7%E5%B1%80%E7%95%9C%E7%89%A7%E5%85%BD%E5%8C%BB%E6%8A%80%E6%9C%AF%E6%9C%8D%E5%8A%A1%E9%83%A8&src=vetmap&coordinate=gaode&callnative=1"},{"name":"爱宠宠物医院(廉州店)","address":"还珠广场古典规划长廊10号","phone":"18277988347","category":"医疗保健服务;动物医疗场所;宠物诊所","area":"","lng":109.197839,"lat":21.667003,"amap_id":"B0I14H88IB","order":17,"prev_distance_km":0.782,"cumulative_distance_km":81.753,"amap_marker_url":"https://uri.amap.com/marker?position=109.197839,21.667003&name=%E7%88%B1%E5%AE%A0%E5%AE%A0%E7%89%A9%E5%8C%BB%E9%99%A2%28%E5%BB%89%E5%B7%9E%E5%BA%97%29&src=vetmap&coordinate=gaode&callnative=1"},{"name":"合浦盛利兽药店","address":"大江路口直入150米西侧第四间门面","phone":"13978988300","category":"医疗保健服务;动物医疗场所;动物医疗场所","area":"","lng":109.18632,"lat":21.672357,"amap_id":"B0J265ON67","order":18,"prev_distance_km":1.331,"cumulative_distance_km":83.084,"amap_marker_url":"https://uri.amap.com/marker?position=109.186320,21.672357&name=%E5%90%88%E6%B5%A6%E7%9B%9B%E5%88%A9%E5%85%BD%E8%8D%AF%E5%BA%97&src=vetmap&coordinate=gaode&callnative=1"}]}