{"summary":{"id":"d00652","province":"广东省","city":"肇庆市","district":"鼎湖区","count":9,"total_distance_km":27.301,"coordinate_system":"GCJ-02 / Amap","generated_at":"2026-05-07 19:56:44"},"rows":[{"name":"佳萌宠物医院(鼎湖店)","address":"一米阳光家园A1-06卡","phone":"17303019345","category":"医疗保健服务;动物医疗场所;宠物诊所","area":"","lng":112.565075,"lat":23.14531,"amap_id":"B0JA37RPO6","order":1,"prev_distance_km":0.0,"cumulative_distance_km":0.0,"amap_marker_url":"https://uri.amap.com/marker?position=112.565075,23.145310&name=%E4%BD%B3%E8%90%8C%E5%AE%A0%E7%89%A9%E5%8C%BB%E9%99%A2%28%E9%BC%8E%E6%B9%96%E5%BA%97%29&src=vetmap&coordinate=gaode&callnative=1"},{"name":"好好宠物医疗","address":"坑口街道华鼎一街东国道路口鼎湖森邻小区对面","phone":"13929836658","category":"医疗保健服务;动物医疗场所;宠物诊所","area":"","lng":112.56951,"lat":23.151174,"amap_id":"B0HAJS62PC","order":2,"prev_distance_km":0.794,"cumulative_distance_km":0.794,"amap_marker_url":"https://uri.amap.com/marker?position=112.569510,23.151174&name=%E5%A5%BD%E5%A5%BD%E5%AE%A0%E7%89%A9%E5%8C%BB%E7%96%97&src=vetmap&coordinate=gaode&callnative=1"},{"name":"鼎湖健牧动物保健技术部","address":"阳光家园北2门旁","phone":"","category":"医疗保健服务;动物医疗场所;动物医疗场所","area":"","lng":112.563661,"lat":23.154182,"amap_id":"B02F60PXY1","order":3,"prev_distance_km":0.685,"cumulative_distance_km":1.479,"amap_marker_url":"https://uri.amap.com/marker?position=112.563661,23.154182&name=%E9%BC%8E%E6%B9%96%E5%81%A5%E7%89%A7%E5%8A%A8%E7%89%A9%E4%BF%9D%E5%81%A5%E6%8A%80%E6%9C%AF%E9%83%A8&src=vetmap&coordinate=gaode&callnative=1"},{"name":"挚爱宠物医院(鼎湖区)","address":"鼎湖新城19区华庭花园(D-E幢)13卡","phone":"0758-2699785;18023614235","category":"医疗保健服务;动物医疗场所;宠物诊所","area":"","lng":112.575789,"lat":23.178548,"amap_id":"B0FFM18XUZ","order":4,"prev_distance_km":2.98,"cumulative_distance_km":4.459,"amap_marker_url":"https://uri.amap.com/marker?position=112.575789,23.178548&name=%E6%8C%9A%E7%88%B1%E5%AE%A0%E7%89%A9%E5%8C%BB%E9%99%A2%28%E9%BC%8E%E6%B9%96%E5%8C%BA%29&src=vetmap&coordinate=gaode&callnative=1"},{"name":"鼎爱宠物医疗","address":"桂城鼎湖大道50号丽港新天地花园3栋","phone":"18029800499","category":"医疗保健服务;动物医疗场所;宠物诊所","area":"","lng":112.577564,"lat":23.183269,"amap_id":"B0I3TK4M8U","order":5,"prev_distance_km":0.555,"cumulative_distance_km":5.014,"amap_marker_url":"https://uri.amap.com/marker?position=112.577564,23.183269&name=%E9%BC%8E%E7%88%B1%E5%AE%A0%E7%89%A9%E5%8C%BB%E7%96%97&src=vetmap&coordinate=gaode&callnative=1"},{"name":"鼎湖区聚谊动物保健品有限公司","address":"广利街道办事处和平北路17号(广利镇文化楼北起第三卡)","phone":"","category":"医疗保健服务;动物医疗场所;动物医疗场所","area":"","lng":112.617987,"lat":23.185898,"amap_id":"B02F60PX9O","order":6,"prev_distance_km":4.142,"cumulative_distance_km":9.157,"amap_marker_url":"https://uri.amap.com/marker?position=112.617987,23.185898&name=%E9%BC%8E%E6%B9%96%E5%8C%BA%E8%81%9A%E8%B0%8A%E5%8A%A8%E7%89%A9%E4%BF%9D%E5%81%A5%E5%93%81%E6%9C%89%E9%99%90%E5%85%AC%E5%8F%B8&src=vetmap&coordinate=gaode&callnative=1"},{"name":"广兴兽药店","address":"永安镇永和街中国电信对面","phone":"","category":"医疗保健服务;动物医疗场所;动物医疗场所","area":"","lng":112.699959,"lat":23.17908,"amap_id":"B0KB177LCF","order":7,"prev_distance_km":8.413,"cumulative_distance_km":17.57,"amap_marker_url":"https://uri.amap.com/marker?position=112.699959,23.179080&name=%E5%B9%BF%E5%85%B4%E5%85%BD%E8%8D%AF%E5%BA%97&src=vetmap&coordinate=gaode&callnative=1"},{"name":"英仔兽药店","address":"丽市街北30米","phone":"","category":"医疗保健服务;动物医疗场所;动物医疗场所","area":"","lng":112.683124,"lat":23.258465,"amap_id":"B0H2MG1UUH","order":8,"prev_distance_km":8.993,"cumulative_distance_km":26.563,"amap_marker_url":"https://uri.amap.com/marker?position=112.683124,23.258465&name=%E8%8B%B1%E4%BB%94%E5%85%BD%E8%8D%AF%E5%BA%97&src=vetmap&coordinate=gaode&callnative=1"},{"name":"莲花镇畜牧兽医技术咨询部","address":"莲兴路与莲合路交叉口东南100米","phone":"","category":"医疗保健服务;动物医疗场所;兽医站","area":"","lng":112.688715,"lat":23.26267,"amap_id":"B0L05NSEQ9","order":9,"prev_distance_km":0.738,"cumulative_distance_km":27.301,"amap_marker_url":"https://uri.amap.com/marker?position=112.688715,23.262670&name=%E8%8E%B2%E8%8A%B1%E9%95%87%E7%95%9C%E7%89%A7%E5%85%BD%E5%8C%BB%E6%8A%80%E6%9C%AF%E5%92%A8%E8%AF%A2%E9%83%A8&src=vetmap&coordinate=gaode&callnative=1"}]}