{"summary":{"id":"d00607","province":"广东省","city":"江门市","district":"江海区","count":10,"total_distance_km":11.5,"coordinate_system":"GCJ-02 / Amap","generated_at":"2026-05-07 19:56:40"},"rows":[{"name":"乐巢宠物诊所(礼乐店)","address":"礼昌二街28号附近","phone":"18802552826","category":"医疗保健服务;动物医疗场所;宠物诊所","area":"文昌","lng":113.084072,"lat":22.554839,"amap_id":"B0FFJISJQ3","order":1,"prev_distance_km":0.0,"cumulative_distance_km":0.0,"amap_marker_url":"https://uri.amap.com/marker?position=113.084072,22.554839&name=%E4%B9%90%E5%B7%A2%E5%AE%A0%E7%89%A9%E8%AF%8A%E6%89%80%28%E7%A4%BC%E4%B9%90%E5%BA%97%29&src=vetmap&coordinate=gaode&callnative=1"},{"name":"泰萌宠物诊所","address":"礼乐文昌花园文锦园首座76号","phone":"13104951913","category":"医疗保健服务;动物医疗场所;宠物诊所","area":"文昌","lng":113.083554,"lat":22.562564,"amap_id":"B0K1R7YK3D","order":2,"prev_distance_km":0.861,"cumulative_distance_km":0.861,"amap_marker_url":"https://uri.amap.com/marker?position=113.083554,22.562564&name=%E6%B3%B0%E8%90%8C%E5%AE%A0%E7%89%A9%E8%AF%8A%E6%89%80&src=vetmap&coordinate=gaode&callnative=1"},{"name":"博恩宠物诊疗中心","address":"东海路34号104室","phone":"15800111790","category":"医疗保健服务;动物医疗场所;宠物诊所","area":"","lng":113.102364,"lat":22.571909,"amap_id":"B0I32SL8MP","order":3,"prev_distance_km":2.193,"cumulative_distance_km":3.054,"amap_marker_url":"https://uri.amap.com/marker?position=113.102364,22.571909&name=%E5%8D%9A%E6%81%A9%E5%AE%A0%E7%89%A9%E8%AF%8A%E7%96%97%E4%B8%AD%E5%BF%83&src=vetmap&coordinate=gaode&callnative=1"},{"name":"康顺宠物诊疗中心(永南里店)","address":"东海路105号","phone":"13822334104;18165665192","category":"医疗保健服务;动物医疗场所;宠物诊所","area":"中环","lng":113.10494,"lat":22.568024,"amap_id":"B0FFJ2OUK9","order":4,"prev_distance_km":0.507,"cumulative_distance_km":3.56,"amap_marker_url":"https://uri.amap.com/marker?position=113.104940,22.568024&name=%E5%BA%B7%E9%A1%BA%E5%AE%A0%E7%89%A9%E8%AF%8A%E7%96%97%E4%B8%AD%E5%BF%83%28%E6%B0%B8%E5%8D%97%E9%87%8C%E5%BA%97%29&src=vetmap&coordinate=gaode&callnative=1"},{"name":"福福宠物医院","address":"五邑路203号109室","phone":"18026776674","category":"医疗保健服务;动物医疗场所;宠物诊所","area":"","lng":113.105635,"lat":22.562929,"amap_id":"B0JA6UKFZE","order":5,"prev_distance_km":0.571,"cumulative_distance_km":4.131,"amap_marker_url":"https://uri.amap.com/marker?position=113.105635,22.562929&name=%E7%A6%8F%E7%A6%8F%E5%AE%A0%E7%89%A9%E5%8C%BB%E9%99%A2&src=vetmap&coordinate=gaode&callnative=1"},{"name":"凯尔动物医院江海店","address":"东海路康城3栋115铺凯尔动物医院江海店","phone":"0750-3815884","category":"医疗保健服务;动物医疗场所;宠物诊所","area":"","lng":113.106854,"lat":22.560258,"amap_id":"B0IG77SY1J","order":6,"prev_distance_km":0.322,"cumulative_distance_km":4.454,"amap_marker_url":"https://uri.amap.com/marker?position=113.106854,22.560258&name=%E5%87%AF%E5%B0%94%E5%8A%A8%E7%89%A9%E5%8C%BB%E9%99%A2%E6%B1%9F%E6%B5%B7%E5%BA%97&src=vetmap&coordinate=gaode&callnative=1"},{"name":"世纪缘动物诊所","address":"外海麻三元山里下路22号首层4号商铺","phone":"18933140538","category":"医疗保健服务;动物医疗场所;宠物诊所","area":"","lng":113.11618,"lat":22.571773,"amap_id":"B0GRH5V5J5","order":7,"prev_distance_km":1.599,"cumulative_distance_km":6.053,"amap_marker_url":"https://uri.amap.com/marker?position=113.116180,22.571773&name=%E4%B8%96%E7%BA%AA%E7%BC%98%E5%8A%A8%E7%89%A9%E8%AF%8A%E6%89%80&src=vetmap&coordinate=gaode&callnative=1"},{"name":"瑞希动物诊疗中心·医保定点","address":"海逸星宸花园6号108-109室","phone":"13702596829","category":"医疗保健服务;动物医疗场所;动物医疗场所","area":"","lng":113.161083,"lat":22.592451,"amap_id":"B0JKVSLPFO","order":8,"prev_distance_km":5.152,"cumulative_distance_km":11.204,"amap_marker_url":"https://uri.amap.com/marker?position=113.161083,22.592451&name=%E7%91%9E%E5%B8%8C%E5%8A%A8%E7%89%A9%E8%AF%8A%E7%96%97%E4%B8%AD%E5%BF%83%C2%B7%E5%8C%BB%E4%BF%9D%E5%AE%9A%E7%82%B9&src=vetmap&coordinate=gaode&callnative=1"},{"name":"开心宠物诊疗中心","address":"外海海逸星宸花园星逸国际公寓1幢103室","phone":"15819921980","category":"医疗保健服务;动物医疗场所;宠物诊所","area":"","lng":113.162322,"lat":22.591631,"amap_id":"B0I09RLNAC","order":9,"prev_distance_km":0.157,"cumulative_distance_km":11.361,"amap_marker_url":"https://uri.amap.com/marker?position=113.162322,22.591631&name=%E5%BC%80%E5%BF%83%E5%AE%A0%E7%89%A9%E8%AF%8A%E7%96%97%E4%B8%AD%E5%BF%83&src=vetmap&coordinate=gaode&callnative=1"},{"name":"爱宠宠物诊疗中心","address":"海伦心苑9橦101室","phone":"13318669097","category":"医疗保健服务;动物医疗场所;宠物诊所","area":"","lng":113.163405,"lat":22.590871,"amap_id":"B0H6BMFPJE","order":10,"prev_distance_km":0.14,"cumulative_distance_km":11.5,"amap_marker_url":"https://uri.amap.com/marker?position=113.163405,22.590871&name=%E7%88%B1%E5%AE%A0%E5%AE%A0%E7%89%A9%E8%AF%8A%E7%96%97%E4%B8%AD%E5%BF%83&src=vetmap&coordinate=gaode&callnative=1"}]}