{"summary":{"id":"d00627","province":"广东省","city":"清远市","district":"英德市","count":20,"total_distance_km":104.438,"coordinate_system":"GCJ-02 / Amap","generated_at":"2026-05-07 20:22:17"},"rows":[{"name":"国猪大健康养猪服务部","address":"石牯塘镇长江路37号","phone":"","category":"医疗保健服务;动物医疗场所;动物医疗场所","area":"","lng":113.162525,"lat":24.370625,"amap_id":"B0L01UGQOR","order":1,"prev_distance_km":0.0,"cumulative_distance_km":0.0,"amap_marker_url":"https://uri.amap.com/marker?position=113.162525,24.370625&name=%E5%9B%BD%E7%8C%AA%E5%A4%A7%E5%81%A5%E5%BA%B7%E5%85%BB%E7%8C%AA%E6%9C%8D%E5%8A%A1%E9%83%A8&src=vetmap&coordinate=gaode&callnative=1"},{"name":"英德根农兽药渔药有限公司","address":"358国道","phone":"15015084897;18934295148","category":"医疗保健服务;动物医疗场所;动物医疗场所","area":"","lng":113.193779,"lat":24.26441,"amap_id":"B0G0HKE8EU","order":2,"prev_distance_km":12.228,"cumulative_distance_km":12.228,"amap_marker_url":"https://uri.amap.com/marker?position=113.193779,24.264410&name=%E8%8B%B1%E5%BE%B7%E6%A0%B9%E5%86%9C%E5%85%BD%E8%8D%AF%E6%B8%94%E8%8D%AF%E6%9C%89%E9%99%90%E5%85%AC%E5%8F%B8&src=vetmap&coordinate=gaode&callnative=1"},{"name":"匠心动物医院-骨科-急诊","address":"茶园北路金月湾10号","phone":"19926331900","category":"医疗保健服务;动物医疗场所;动物医疗场所","area":"","lng":113.398051,"lat":24.195414,"amap_id":"B0I03H0ACI","order":3,"prev_distance_km":22.088,"cumulative_distance_km":34.316,"amap_marker_url":"https://uri.amap.com/marker?position=113.398051,24.195414&name=%E5%8C%A0%E5%BF%83%E5%8A%A8%E7%89%A9%E5%8C%BB%E9%99%A2-%E9%AA%A8%E7%A7%91-%E6%80%A5%E8%AF%8A&src=vetmap&coordinate=gaode&callnative=1"},{"name":"多可爱宠物医院","address":"环秀中路以东莲花园南园6.7栋首层39号商铺多可爱宠物医院","phone":"15768559583","category":"医疗保健服务;动物医疗场所;宠物诊所","area":"","lng":113.402819,"lat":24.197683,"amap_id":"B0JD7AE5ZJ","order":4,"prev_distance_km":0.545,"cumulative_distance_km":34.862,"amap_marker_url":"https://uri.amap.com/marker?position=113.402819,24.197683&name=%E5%A4%9A%E5%8F%AF%E7%88%B1%E5%AE%A0%E7%89%A9%E5%8C%BB%E9%99%A2&src=vetmap&coordinate=gaode&callnative=1"},{"name":"康牧动物医院•骨科中心•心脏彩超","address":"英州大道192号康牧动物医院","phone":"18826618451","category":"医疗保健服务;动物医疗场所;动物医疗场所","area":"英州大道","lng":113.402675,"lat":24.194553,"amap_id":"B0ID7AT48I","order":5,"prev_distance_km":0.348,"cumulative_distance_km":35.21,"amap_marker_url":"https://uri.amap.com/marker?position=113.402675,24.194553&name=%E5%BA%B7%E7%89%A7%E5%8A%A8%E7%89%A9%E5%8C%BB%E9%99%A2%E2%80%A2%E9%AA%A8%E7%A7%91%E4%B8%AD%E5%BF%83%E2%80%A2%E5%BF%83%E8%84%8F%E5%BD%A9%E8%B6%85&src=vetmap&coordinate=gaode&callnative=1"},{"name":"帝宠动物医疗(教育路店)","address":"西门町东门西200米","phone":"18620425778","category":"医疗保健服务;动物医疗场所;宠物诊所","area":"峰光路","lng":113.398314,"lat":24.189294,"amap_id":"B0FFKCK5XG","order":6,"prev_distance_km":0.733,"cumulative_distance_km":35.943,"amap_marker_url":"https://uri.amap.com/marker?position=113.398314,24.189294&name=%E5%B8%9D%E5%AE%A0%E5%8A%A8%E7%89%A9%E5%8C%BB%E7%96%97%28%E6%95%99%E8%82%B2%E8%B7%AF%E5%BA%97%29&src=vetmap&coordinate=gaode&callnative=1"},{"name":"贝贝康动物医院","address":"英德市英城茶园路西质监局东侧金润花园H幢首层4-5号","phone":"0763-2231618;15915161340","category":"医疗保健服务;动物医疗场所;宠物诊所","area":"峰光路","lng":113.397166,"lat":24.185464,"amap_id":"B0FFG8FA5O","order":7,"prev_distance_km":0.442,"cumulative_distance_km":36.385,"amap_marker_url":"https://uri.amap.com/marker?position=113.397166,24.185464&name=%E8%B4%9D%E8%B4%9D%E5%BA%B7%E5%8A%A8%E7%89%A9%E5%8C%BB%E9%99%A2&src=vetmap&coordinate=gaode&callnative=1"},{"name":"康满动物医院","address":"城西公园三巷与仙水南路交叉口东80米","phone":"19864956313","category":"医疗保健服务;动物医疗场所;宠物诊所","area":"","lng":113.394539,"lat":24.179327,"amap_id":"B0GRTACUGA","order":8,"prev_distance_km":0.733,"cumulative_distance_km":37.117,"amap_marker_url":"https://uri.amap.com/marker?position=113.394539,24.179327&name=%E5%BA%B7%E6%BB%A1%E5%8A%A8%E7%89%A9%E5%8C%BB%E9%99%A2&src=vetmap&coordinate=gaode&callnative=1"},{"name":"谢记家禽服务部","address":"英州大道南与浈阳中路交叉口东220米","phone":"","category":"医疗保健服务;动物医疗场所;动物医疗场所","area":"","lng":113.404625,"lat":24.179775,"amap_id":"B0KU9XNXLE","order":9,"prev_distance_km":1.024,"cumulative_distance_km":38.142,"amap_marker_url":"https://uri.amap.com/marker?position=113.404625,24.179775&name=%E8%B0%A2%E8%AE%B0%E5%AE%B6%E7%A6%BD%E6%9C%8D%E5%8A%A1%E9%83%A8&src=vetmap&coordinate=gaode&callnative=1"},{"name":"广东广牧粤北畜禽技术服务部","address":"裕光路与裕光西三巷交叉口南100米","phone":"","category":"医疗保健服务;动物医疗场所;兽医站","area":"","lng":113.412875,"lat":24.175475,"amap_id":"B0M6BRIASS","order":10,"prev_distance_km":0.964,"cumulative_distance_km":39.105,"amap_marker_url":"https://uri.amap.com/marker?position=113.412875,24.175475&name=%E5%B9%BF%E4%B8%9C%E5%B9%BF%E7%89%A7%E7%B2%A4%E5%8C%97%E7%95%9C%E7%A6%BD%E6%8A%80%E6%9C%AF%E6%9C%8D%E5%8A%A1%E9%83%A8&src=vetmap&coordinate=gaode&callnative=1"},{"name":"小犬座宠物诊所(龙山庄店)","address":"富强东路龙山庄东门h041-42号铺","phone":"13360923788","category":"医疗保健服务;动物医疗场所;宠物诊所","area":"富强","lng":113.419389,"lat":24.182133,"amap_id":"B0FFFTQBSM","order":11,"prev_distance_km":0.992,"cumulative_distance_km":40.098,"amap_marker_url":"https://uri.amap.com/marker?position=113.419389,24.182133&name=%E5%B0%8F%E7%8A%AC%E5%BA%A7%E5%AE%A0%E7%89%A9%E8%AF%8A%E6%89%80%28%E9%BE%99%E5%B1%B1%E5%BA%84%E5%BA%97%29&src=vetmap&coordinate=gaode&callnative=1"},{"name":"宠爱动物诊所(英德店)","address":"峰光路4号","phone":"0763-2222762;18127220847","category":"医疗保健服务;动物医疗场所;宠物诊所","area":"和平中路","lng":113.412168,"lat":24.186802,"amap_id":"B0FFJC11H3","order":12,"prev_distance_km":0.898,"cumulative_distance_km":40.996,"amap_marker_url":"https://uri.amap.com/marker?position=113.412168,24.186802&name=%E5%AE%A0%E7%88%B1%E5%8A%A8%E7%89%A9%E8%AF%8A%E6%89%80%28%E8%8B%B1%E5%BE%B7%E5%BA%97%29&src=vetmap&coordinate=gaode&callnative=1"},{"name":"英德市英城畜牧兽医站","address":"农林路5号","phone":"","category":"医疗保健服务;动物医疗场所;兽医站","area":"","lng":113.414848,"lat":24.191007,"amap_id":"B02FB0OXRD","order":13,"prev_distance_km":0.541,"cumulative_distance_km":41.536,"amap_marker_url":"https://uri.amap.com/marker?position=113.414848,24.191007&name=%E8%8B%B1%E5%BE%B7%E5%B8%82%E8%8B%B1%E5%9F%8E%E7%95%9C%E7%89%A7%E5%85%BD%E5%8C%BB%E7%AB%99&src=vetmap&coordinate=gaode&callnative=1"},{"name":"冠通兽药店","address":"552乡道与望河大街交叉口东南260米","phone":"13679523877;13828526715","category":"医疗保健服务;动物医疗场所;动物医疗场所","area":"","lng":113.478545,"lat":24.264007,"amap_id":"B0FFG02X04","order":14,"prev_distance_km":10.373,"cumulative_distance_km":51.91,"amap_marker_url":"https://uri.amap.com/marker?position=113.478545,24.264007&name=%E5%86%A0%E9%80%9A%E5%85%BD%E8%8D%AF%E5%BA%97&src=vetmap&coordinate=gaode&callnative=1"},{"name":"英德市沙口镇杰发兽药店","address":"河边街1号","phone":"","category":"医疗保健服务;动物医疗场所;动物医疗场所","area":"","lng":113.522078,"lat":24.418484,"amap_id":"B0LRTD9S3Y","order":15,"prev_distance_km":17.734,"cumulative_distance_km":69.644,"amap_marker_url":"https://uri.amap.com/marker?position=113.522078,24.418484&name=%E8%8B%B1%E5%BE%B7%E5%B8%82%E6%B2%99%E5%8F%A3%E9%95%87%E6%9D%B0%E5%8F%91%E5%85%BD%E8%8D%AF%E5%BA%97&src=vetmap&coordinate=gaode&callnative=1"},{"name":"英德市启烟畜禽水产服务部","address":"东华镇英青路即九围路口对面","phone":"18938626581","category":"医疗保健服务;动物医疗场所;兽医站","area":"","lng":113.672783,"lat":24.266564,"amap_id":"B0FFG05F83","order":16,"prev_distance_km":22.77,"cumulative_distance_km":92.414,"amap_marker_url":"https://uri.amap.com/marker?position=113.672783,24.266564&name=%E8%8B%B1%E5%BE%B7%E5%B8%82%E5%90%AF%E7%83%9F%E7%95%9C%E7%A6%BD%E6%B0%B4%E4%BA%A7%E6%9C%8D%E5%8A%A1%E9%83%A8&src=vetmap&coordinate=gaode&callnative=1"},{"name":"英德市恒进兽药店","address":"桥头镇建设路160号","phone":"0763-2810680","category":"医疗保健服务;动物医疗场所;动物医疗场所","area":"","lng":113.767024,"lat":24.246684,"amap_id":"B0IGA7VANF","order":17,"prev_distance_km":9.806,"cumulative_distance_km":102.22,"amap_marker_url":"https://uri.amap.com/marker?position=113.767024,24.246684&name=%E8%8B%B1%E5%BE%B7%E5%B8%82%E6%81%92%E8%BF%9B%E5%85%BD%E8%8D%AF%E5%BA%97&src=vetmap&coordinate=gaode&callnative=1"},{"name":"鸽动卫康兽医药","address":"358国道与人民南路交叉口西40米","phone":"","category":"医疗保健服务;动物医疗场所;动物医疗场所","area":"","lng":113.775725,"lat":24.243025,"amap_id":"B0L1DCUR6Y","order":18,"prev_distance_km":0.971,"cumulative_distance_km":103.192,"amap_marker_url":"https://uri.amap.com/marker?position=113.775725,24.243025&name=%E9%B8%BD%E5%8A%A8%E5%8D%AB%E5%BA%B7%E5%85%BD%E5%8C%BB%E8%8D%AF&src=vetmap&coordinate=gaode&callnative=1"},{"name":"桥头群牧兽药店","address":"桥头镇桥头街吉祥路东和平大道北","phone":"","category":"医疗保健服务;动物医疗场所;动物医疗场所","area":"","lng":113.778326,"lat":24.246836,"amap_id":"B0K1OR2VIH","order":19,"prev_distance_km":0.499,"cumulative_distance_km":103.691,"amap_marker_url":"https://uri.amap.com/marker?position=113.778326,24.246836&name=%E6%A1%A5%E5%A4%B4%E7%BE%A4%E7%89%A7%E5%85%BD%E8%8D%AF%E5%BA%97&src=vetmap&coordinate=gaode&callnative=1"},{"name":"英德市星牧畜牧技术服务部","address":"桥西路62号","phone":"13539510404;17612002202","category":"医疗保健服务;动物医疗场所;兽医站","area":"","lng":113.776922,"lat":24.253435,"amap_id":"B0LRVHJI2P","order":20,"prev_distance_km":0.747,"cumulative_distance_km":104.438,"amap_marker_url":"https://uri.amap.com/marker?position=113.776922,24.253435&name=%E8%8B%B1%E5%BE%B7%E5%B8%82%E6%98%9F%E7%89%A7%E7%95%9C%E7%89%A7%E6%8A%80%E6%9C%AF%E6%9C%8D%E5%8A%A1%E9%83%A8&src=vetmap&coordinate=gaode&callnative=1"}]}