{"summary":{"id":"d00601","province":"广东省","city":"汕尾市","district":"陆丰市","count":8,"total_distance_km":51.192,"coordinate_system":"GCJ-02 / Amap","generated_at":"2026-05-07 20:22:13"},"rows":[{"name":"宠呗动物诊所","address":"东海镇东海大道月桂路南月中路北侧锦绣明珠花园2栋A单元2号商铺","phone":"0660-8122696;18102890625","category":"医疗保健服务;动物医疗场所;宠物诊所","area":"","lng":115.630314,"lat":22.939707,"amap_id":"B0J0NUGWY0","order":1,"prev_distance_km":0.0,"cumulative_distance_km":0.0,"amap_marker_url":"https://uri.amap.com/marker?position=115.630314,22.939707&name=%E5%AE%A0%E5%91%97%E5%8A%A8%E7%89%A9%E8%AF%8A%E6%89%80&src=vetmap&coordinate=gaode&callnative=1"},{"name":"佰联宠物医院","address":"东海翡翠苑南门东南60米","phone":"15014005252","category":"医疗保健服务;动物医疗场所;宠物诊所","area":"","lng":115.629785,"lat":22.94923,"amap_id":"B0JKLZ45Z3","order":2,"prev_distance_km":1.06,"cumulative_distance_km":1.06,"amap_marker_url":"https://uri.amap.com/marker?position=115.629785,22.949230&name=%E4%BD%B0%E8%81%94%E5%AE%A0%E7%89%A9%E5%8C%BB%E9%99%A2&src=vetmap&coordinate=gaode&callnative=1"},{"name":"福贝动物诊所","address":"建设西路(海关后面)","phone":"0660-8887377;13500081817;15800029471","category":"医疗保健服务;动物医疗场所;宠物诊所","area":"","lng":115.627568,"lat":22.950849,"amap_id":"B0FFKL5GJT","order":3,"prev_distance_km":0.29,"cumulative_distance_km":1.35,"amap_marker_url":"https://uri.amap.com/marker?position=115.627568,22.950849&name=%E7%A6%8F%E8%B4%9D%E5%8A%A8%E7%89%A9%E8%AF%8A%E6%89%80&src=vetmap&coordinate=gaode&callnative=1"},{"name":"佰联宠物医院","address":"东海花园","phone":"","category":"医疗保健服务;动物医疗场所;宠物诊所","area":"","lng":115.636146,"lat":22.95766,"amap_id":"B0G26OO4BH","order":4,"prev_distance_km":1.16,"cumulative_distance_km":2.51,"amap_marker_url":"https://uri.amap.com/marker?position=115.636146,22.957660&name=%E4%BD%B0%E8%81%94%E5%AE%A0%E7%89%A9%E5%8C%BB%E9%99%A2&src=vetmap&coordinate=gaode&callnative=1"},{"name":"爱宠动物诊所(新马路)","address":"东海新马路33号爱宠动物诊所","phone":"","category":"医疗保健服务;动物医疗场所;宠物诊所","area":"","lng":115.645609,"lat":22.948432,"amap_id":"B0FFF91776","order":5,"prev_distance_km":1.411,"cumulative_distance_km":3.921,"amap_marker_url":"https://uri.amap.com/marker?position=115.645609,22.948432&name=%E7%88%B1%E5%AE%A0%E5%8A%A8%E7%89%A9%E8%AF%8A%E6%89%80%28%E6%96%B0%E9%A9%AC%E8%B7%AF%29&src=vetmap&coordinate=gaode&callnative=1"},{"name":"利洋水产药店(博美店)","address":"324国道北50米","phone":"18666048389","category":"医疗保健服务;动物医疗场所;兽医站","area":"","lng":115.779442,"lat":22.946042,"amap_id":"B0FFHMN67Y","order":6,"prev_distance_km":13.706,"cumulative_distance_km":17.628,"amap_marker_url":"https://uri.amap.com/marker?position=115.779442,22.946042&name=%E5%88%A9%E6%B4%8B%E6%B0%B4%E4%BA%A7%E8%8D%AF%E5%BA%97%28%E5%8D%9A%E7%BE%8E%E5%BA%97%29&src=vetmap&coordinate=gaode&callnative=1"},{"name":"陆丰市美辉畜牧兽医经营部","address":"坚鑫三鸟批发零售销售部东侧60米","phone":"","category":"医疗保健服务;动物医疗场所;兽医站","area":"","lng":115.901569,"lat":22.990002,"amap_id":"B0IA75BZ8D","order":7,"prev_distance_km":13.425,"cumulative_distance_km":31.052,"amap_marker_url":"https://uri.amap.com/marker?position=115.901569,22.990002&name=%E9%99%86%E4%B8%B0%E5%B8%82%E7%BE%8E%E8%BE%89%E7%95%9C%E7%89%A7%E5%85%BD%E5%8C%BB%E7%BB%8F%E8%90%A5%E9%83%A8&src=vetmap&coordinate=gaode&callnative=1"},{"name":"迈特宠物诊疗(碣石店)","address":"菜园坑迎恩北路33号","phone":"15360229890","category":"医疗保健服务;动物医疗场所;宠物诊所","area":"","lng":115.832728,"lat":22.820349,"amap_id":"B0LUS43VV7","order":8,"prev_distance_km":20.139,"cumulative_distance_km":51.192,"amap_marker_url":"https://uri.amap.com/marker?position=115.832728,22.820349&name=%E8%BF%88%E7%89%B9%E5%AE%A0%E7%89%A9%E8%AF%8A%E7%96%97%28%E7%A2%A3%E7%9F%B3%E5%BA%97%29&src=vetmap&coordinate=gaode&callnative=1"}]}