{"summary":{"id":"d00604","province":"广东省","city":"江门市","district":"开平市","count":17,"route_count":1,"max_route_clinics":17,"total_distance_km":73.866,"coordinate_system":"GCJ-02 / Amap","generated_at":"2026-05-07 21:28:13"},"routes":[{"id":"r1","name":"第1段","count":17,"total_distance_km":73.866,"rows":[{"name":"广东叁匀生物科技有限公司","address":"275省道与780乡道交叉口南100米","phone":"","category":"医疗保健服务;动物医疗场所;动物医疗场所","area":"","lng":112.486451,"lat":22.159185,"amap_id":"B0HKVA9I5R","order":1,"prev_distance_km":0.0,"cumulative_distance_km":0.0,"amap_marker_url":"https://uri.amap.com/marker?position=112.486451,22.159185&name=%E5%B9%BF%E4%B8%9C%E5%8F%81%E5%8C%80%E7%94%9F%E7%89%A9%E7%A7%91%E6%8A%80%E6%9C%89%E9%99%90%E5%85%AC%E5%8F%B8&src=vetmap&coordinate=gaode&callnative=1","route_id":"r1","route_name":"第1段"},{"name":"远驹动保","address":"开平市人民法院赤水人民法庭东侧90米","phone":"","category":"医疗保健服务;动物医疗场所;动物医疗场所","area":"","lng":112.583825,"lat":22.141475,"amap_id":"B0M6X5QAGW","order":2,"prev_distance_km":10.22,"cumulative_distance_km":10.22,"amap_marker_url":"https://uri.amap.com/marker?position=112.583825,22.141475&name=%E8%BF%9C%E9%A9%B9%E5%8A%A8%E4%BF%9D&src=vetmap&coordinate=gaode&callnative=1","route_id":"r1","route_name":"第1段"},{"name":"宠贝宠物医院","address":"三埠街道办事处中山大道1号6幢104铺位","phone":"13528395387","category":"医疗保健服务;动物医疗场所;宠物诊所","area":"","lng":112.710017,"lat":22.353048,"amap_id":"B0JK615CIT","order":3,"prev_distance_km":26.873,"cumulative_distance_km":37.093,"amap_marker_url":"https://uri.amap.com/marker?position=112.710017,22.353048&name=%E5%AE%A0%E8%B4%9D%E5%AE%A0%E7%89%A9%E5%8C%BB%E9%99%A2&src=vetmap&coordinate=gaode&callnative=1","route_id":"r1","route_name":"第1段"},{"name":"立仁宠物医院","address":"光明东路94号105铺","phone":"13431737566","category":"医疗保健服务;动物医疗场所;宠物诊所","area":"长沙","lng":112.701269,"lat":22.374071,"amap_id":"B0I0MR57P3","order":4,"prev_distance_km":2.505,"cumulative_distance_km":39.597,"amap_marker_url":"https://uri.amap.com/marker?position=112.701269,22.374071&name=%E7%AB%8B%E4%BB%81%E5%AE%A0%E7%89%A9%E5%8C%BB%E9%99%A2&src=vetmap&coordinate=gaode&callnative=1","route_id":"r1","route_name":"第1段"},{"name":"安宜宠物医院(雅乐苑店)","address":"东兴大道人民西路6号2幢102","phone":"18929083369","category":"医疗保健服务;动物医疗场所;宠物诊所","area":"长沙","lng":112.696144,"lat":22.377321,"amap_id":"B02EE0OHO0","order":5,"prev_distance_km":0.639,"cumulative_distance_km":40.236,"amap_marker_url":"https://uri.amap.com/marker?position=112.696144,22.377321&name=%E5%AE%89%E5%AE%9C%E5%AE%A0%E7%89%A9%E5%8C%BB%E9%99%A2%28%E9%9B%85%E4%B9%90%E8%8B%91%E5%BA%97%29&src=vetmap&coordinate=gaode&callnative=1","route_id":"r1","route_name":"第1段"},{"name":"萌小宠宠物药店","address":"人民西路1号3幢之首层106号","phone":"15062592659","category":"医疗保健服务;动物医疗场所;动物医疗场所","area":"长沙","lng":112.695247,"lat":22.37863,"amap_id":"B0LK6CKAUU","order":6,"prev_distance_km":0.172,"cumulative_distance_km":40.409,"amap_marker_url":"https://uri.amap.com/marker?position=112.695247,22.378630&name=%E8%90%8C%E5%B0%8F%E5%AE%A0%E5%AE%A0%E7%89%A9%E8%8D%AF%E5%BA%97&src=vetmap&coordinate=gaode&callnative=1","route_id":"r1","route_name":"第1段"},{"name":"咪咕宠物洗护(南岛店)","address":"长沙街道金都花苑东区4号第一幢首层104号商铺","phone":"","category":"医疗保健服务;动物医疗场所;动物医疗场所","area":"长沙","lng":112.682459,"lat":22.372658,"amap_id":"B0J2BAG60Q","order":7,"prev_distance_km":1.473,"cumulative_distance_km":41.882,"amap_marker_url":"https://uri.amap.com/marker?position=112.682459,22.372658&name=%E5%92%AA%E5%92%95%E5%AE%A0%E7%89%A9%E6%B4%97%E6%8A%A4%28%E5%8D%97%E5%B2%9B%E5%BA%97%29&src=vetmap&coordinate=gaode&callnative=1","route_id":"r1","route_name":"第1段"},{"name":"宝乐宠物医院","address":"长沙街道幕桥西路13号首层1314号铺位","phone":"15815900775","category":"医疗保健服务;动物医疗场所;宠物诊所","area":"长沙","lng":112.679233,"lat":22.371531,"amap_id":"B0J1M7028B","order":8,"prev_distance_km":0.355,"cumulative_distance_km":42.236,"amap_marker_url":"https://uri.amap.com/marker?position=112.679233,22.371531&name=%E5%AE%9D%E4%B9%90%E5%AE%A0%E7%89%A9%E5%8C%BB%E9%99%A2&src=vetmap&coordinate=gaode&callnative=1","route_id":"r1","route_name":"第1段"},{"name":"金贝动物诊所(开平店)","address":"宝堤东路与宝源西路交叉口西100米","phone":"","category":"医疗保健服务;动物医疗场所;宠物诊所","area":"长沙","lng":112.67874,"lat":22.370298,"amap_id":"B0IALCZOLM","order":9,"prev_distance_km":0.146,"cumulative_distance_km":42.382,"amap_marker_url":"https://uri.amap.com/marker?position=112.678740,22.370298&name=%E9%87%91%E8%B4%9D%E5%8A%A8%E7%89%A9%E8%AF%8A%E6%89%80%28%E5%BC%80%E5%B9%B3%E5%BA%97%29&src=vetmap&coordinate=gaode&callnative=1","route_id":"r1","route_name":"第1段"},{"name":"瑞宠康宠物医院","address":"325国道柏丽花园1幢108号","phone":"13356579120","category":"医疗保健服务;动物医疗场所;宠物诊所","area":"长沙","lng":112.6733,"lat":22.375826,"amap_id":"B0FFFFY2H2","order":10,"prev_distance_km":0.831,"cumulative_distance_km":43.214,"amap_marker_url":"https://uri.amap.com/marker?position=112.673300,22.375826&name=%E7%91%9E%E5%AE%A0%E5%BA%B7%E5%AE%A0%E7%89%A9%E5%8C%BB%E9%99%A2&src=vetmap&coordinate=gaode&callnative=1","route_id":"r1","route_name":"第1段"},{"name":"侨城宠物医院(开平院)","address":"长沙街冲澄新田村新城路1号2卡侨城宠物医院","phone":"18033141671","category":"医疗保健服务;动物医疗场所;宠物诊所","area":"长沙","lng":112.678584,"lat":22.37795,"amap_id":"B0J3RCTXUE","order":11,"prev_distance_km":0.592,"cumulative_distance_km":43.806,"amap_marker_url":"https://uri.amap.com/marker?position=112.678584,22.377950&name=%E4%BE%A8%E5%9F%8E%E5%AE%A0%E7%89%A9%E5%8C%BB%E9%99%A2%28%E5%BC%80%E5%B9%B3%E9%99%A2%29&src=vetmap&coordinate=gaode&callnative=1","route_id":"r1","route_name":"第1段"},{"name":"开平市动物疫病预防控制中心","address":"良园路东北30米","phone":"","category":"医疗保健服务;动物医疗场所;动物医疗场所","area":"","lng":112.678838,"lat":22.390618,"amap_id":"B0FFM1HRAR","order":12,"prev_distance_km":1.409,"cumulative_distance_km":45.215,"amap_marker_url":"https://uri.amap.com/marker?position=112.678838,22.390618&name=%E5%BC%80%E5%B9%B3%E5%B8%82%E5%8A%A8%E7%89%A9%E7%96%AB%E7%97%85%E9%A2%84%E9%98%B2%E6%8E%A7%E5%88%B6%E4%B8%AD%E5%BF%83&src=vetmap&coordinate=gaode&callnative=1","route_id":"r1","route_name":"第1段"},{"name":"越和宠物医院(宠物疾病诊疗体检.宠物用品零食.宠物美容)","address":"锦绣东路3号123铺位","phone":"13822453054","category":"医疗保健服务;动物医疗场所;宠物诊所","area":"长沙","lng":112.689455,"lat":22.384159,"amap_id":"B0HGXAWN1T","order":13,"prev_distance_km":1.307,"cumulative_distance_km":46.522,"amap_marker_url":"https://uri.amap.com/marker?position=112.689455,22.384159&name=%E8%B6%8A%E5%92%8C%E5%AE%A0%E7%89%A9%E5%8C%BB%E9%99%A2%28%E5%AE%A0%E7%89%A9%E7%96%BE%E7%97%85%E8%AF%8A%E7%96%97%E4%BD%93%E6%A3%80.%E5%AE%A0%E7%89%A9%E7%94%A8%E5%93%81%E9%9B%B6%E9%A3%9F.%E5%AE%A0%E7%89%A9%E7%BE%8E%E5%AE%B9%29&src=vetmap&coordinate=gaode&callnative=1","route_id":"r1","route_name":"第1段"},{"name":"瑞佳宠物诊所","address":"水口镇民乐路52号苹果园首层8号商铺","phone":"","category":"医疗保健服务;动物医疗场所;宠物诊所","area":"","lng":112.779041,"lat":22.44268,"amap_id":"B0J3VD39JX","order":14,"prev_distance_km":11.276,"cumulative_distance_km":57.798,"amap_marker_url":"https://uri.amap.com/marker?position=112.779041,22.442680&name=%E7%91%9E%E4%BD%B3%E5%AE%A0%E7%89%A9%E8%AF%8A%E6%89%80&src=vetmap&coordinate=gaode&callnative=1","route_id":"r1","route_name":"第1段"},{"name":"挚诚宠物诊所","address":"水口镇民福路39号绿苑山庄6区商铺171铺位","phone":"15015023880","category":"医疗保健服务;动物医疗场所;宠物诊所","area":"","lng":112.778541,"lat":22.446265,"amap_id":"B0IDP5R2H7","order":15,"prev_distance_km":0.402,"cumulative_distance_km":58.2,"amap_marker_url":"https://uri.amap.com/marker?position=112.778541,22.446265&name=%E6%8C%9A%E8%AF%9A%E5%AE%A0%E7%89%A9%E8%AF%8A%E6%89%80&src=vetmap&coordinate=gaode&callnative=1","route_id":"r1","route_name":"第1段"},{"name":"祥牧兽药店","address":"556县道与769乡道交叉口东180米","phone":"","category":"医疗保健服务;动物医疗场所;动物医疗场所","area":"","lng":112.707304,"lat":22.470652,"amap_id":"B0KGZBUOC7","order":16,"prev_distance_km":7.807,"cumulative_distance_km":66.006,"amap_marker_url":"https://uri.amap.com/marker?position=112.707304,22.470652&name=%E7%A5%A5%E7%89%A7%E5%85%BD%E8%8D%AF%E5%BA%97&src=vetmap&coordinate=gaode&callnative=1","route_id":"r1","route_name":"第1段"},{"name":"鸽动卫康兽医药","address":"273省道与水一大道交叉口东南40米","phone":"","category":"医疗保健服务;动物医疗场所;动物医疗场所","area":"","lng":112.702075,"lat":22.541175,"amap_id":"B0M6FDXSM2","order":17,"prev_distance_km":7.86,"cumulative_distance_km":73.866,"amap_marker_url":"https://uri.amap.com/marker?position=112.702075,22.541175&name=%E9%B8%BD%E5%8A%A8%E5%8D%AB%E5%BA%B7%E5%85%BD%E5%8C%BB%E8%8D%AF&src=vetmap&coordinate=gaode&callnative=1","route_id":"r1","route_name":"第1段"}]}],"rows":[{"name":"广东叁匀生物科技有限公司","address":"275省道与780乡道交叉口南100米","phone":"","category":"医疗保健服务;动物医疗场所;动物医疗场所","area":"","lng":112.486451,"lat":22.159185,"amap_id":"B0HKVA9I5R","order":1,"prev_distance_km":0.0,"cumulative_distance_km":0.0,"amap_marker_url":"https://uri.amap.com/marker?position=112.486451,22.159185&name=%E5%B9%BF%E4%B8%9C%E5%8F%81%E5%8C%80%E7%94%9F%E7%89%A9%E7%A7%91%E6%8A%80%E6%9C%89%E9%99%90%E5%85%AC%E5%8F%B8&src=vetmap&coordinate=gaode&callnative=1","route_id":"r1","route_name":"第1段","global_order":1},{"name":"远驹动保","address":"开平市人民法院赤水人民法庭东侧90米","phone":"","category":"医疗保健服务;动物医疗场所;动物医疗场所","area":"","lng":112.583825,"lat":22.141475,"amap_id":"B0M6X5QAGW","order":2,"prev_distance_km":10.22,"cumulative_distance_km":10.22,"amap_marker_url":"https://uri.amap.com/marker?position=112.583825,22.141475&name=%E8%BF%9C%E9%A9%B9%E5%8A%A8%E4%BF%9D&src=vetmap&coordinate=gaode&callnative=1","route_id":"r1","route_name":"第1段","global_order":2},{"name":"宠贝宠物医院","address":"三埠街道办事处中山大道1号6幢104铺位","phone":"13528395387","category":"医疗保健服务;动物医疗场所;宠物诊所","area":"","lng":112.710017,"lat":22.353048,"amap_id":"B0JK615CIT","order":3,"prev_distance_km":26.873,"cumulative_distance_km":37.093,"amap_marker_url":"https://uri.amap.com/marker?position=112.710017,22.353048&name=%E5%AE%A0%E8%B4%9D%E5%AE%A0%E7%89%A9%E5%8C%BB%E9%99%A2&src=vetmap&coordinate=gaode&callnative=1","route_id":"r1","route_name":"第1段","global_order":3},{"name":"立仁宠物医院","address":"光明东路94号105铺","phone":"13431737566","category":"医疗保健服务;动物医疗场所;宠物诊所","area":"长沙","lng":112.701269,"lat":22.374071,"amap_id":"B0I0MR57P3","order":4,"prev_distance_km":2.505,"cumulative_distance_km":39.597,"amap_marker_url":"https://uri.amap.com/marker?position=112.701269,22.374071&name=%E7%AB%8B%E4%BB%81%E5%AE%A0%E7%89%A9%E5%8C%BB%E9%99%A2&src=vetmap&coordinate=gaode&callnative=1","route_id":"r1","route_name":"第1段","global_order":4},{"name":"安宜宠物医院(雅乐苑店)","address":"东兴大道人民西路6号2幢102","phone":"18929083369","category":"医疗保健服务;动物医疗场所;宠物诊所","area":"长沙","lng":112.696144,"lat":22.377321,"amap_id":"B02EE0OHO0","order":5,"prev_distance_km":0.639,"cumulative_distance_km":40.236,"amap_marker_url":"https://uri.amap.com/marker?position=112.696144,22.377321&name=%E5%AE%89%E5%AE%9C%E5%AE%A0%E7%89%A9%E5%8C%BB%E9%99%A2%28%E9%9B%85%E4%B9%90%E8%8B%91%E5%BA%97%29&src=vetmap&coordinate=gaode&callnative=1","route_id":"r1","route_name":"第1段","global_order":5},{"name":"萌小宠宠物药店","address":"人民西路1号3幢之首层106号","phone":"15062592659","category":"医疗保健服务;动物医疗场所;动物医疗场所","area":"长沙","lng":112.695247,"lat":22.37863,"amap_id":"B0LK6CKAUU","order":6,"prev_distance_km":0.172,"cumulative_distance_km":40.409,"amap_marker_url":"https://uri.amap.com/marker?position=112.695247,22.378630&name=%E8%90%8C%E5%B0%8F%E5%AE%A0%E5%AE%A0%E7%89%A9%E8%8D%AF%E5%BA%97&src=vetmap&coordinate=gaode&callnative=1","route_id":"r1","route_name":"第1段","global_order":6},{"name":"咪咕宠物洗护(南岛店)","address":"长沙街道金都花苑东区4号第一幢首层104号商铺","phone":"","category":"医疗保健服务;动物医疗场所;动物医疗场所","area":"长沙","lng":112.682459,"lat":22.372658,"amap_id":"B0J2BAG60Q","order":7,"prev_distance_km":1.473,"cumulative_distance_km":41.882,"amap_marker_url":"https://uri.amap.com/marker?position=112.682459,22.372658&name=%E5%92%AA%E5%92%95%E5%AE%A0%E7%89%A9%E6%B4%97%E6%8A%A4%28%E5%8D%97%E5%B2%9B%E5%BA%97%29&src=vetmap&coordinate=gaode&callnative=1","route_id":"r1","route_name":"第1段","global_order":7},{"name":"宝乐宠物医院","address":"长沙街道幕桥西路13号首层1314号铺位","phone":"15815900775","category":"医疗保健服务;动物医疗场所;宠物诊所","area":"长沙","lng":112.679233,"lat":22.371531,"amap_id":"B0J1M7028B","order":8,"prev_distance_km":0.355,"cumulative_distance_km":42.236,"amap_marker_url":"https://uri.amap.com/marker?position=112.679233,22.371531&name=%E5%AE%9D%E4%B9%90%E5%AE%A0%E7%89%A9%E5%8C%BB%E9%99%A2&src=vetmap&coordinate=gaode&callnative=1","route_id":"r1","route_name":"第1段","global_order":8},{"name":"金贝动物诊所(开平店)","address":"宝堤东路与宝源西路交叉口西100米","phone":"","category":"医疗保健服务;动物医疗场所;宠物诊所","area":"长沙","lng":112.67874,"lat":22.370298,"amap_id":"B0IALCZOLM","order":9,"prev_distance_km":0.146,"cumulative_distance_km":42.382,"amap_marker_url":"https://uri.amap.com/marker?position=112.678740,22.370298&name=%E9%87%91%E8%B4%9D%E5%8A%A8%E7%89%A9%E8%AF%8A%E6%89%80%28%E5%BC%80%E5%B9%B3%E5%BA%97%29&src=vetmap&coordinate=gaode&callnative=1","route_id":"r1","route_name":"第1段","global_order":9},{"name":"瑞宠康宠物医院","address":"325国道柏丽花园1幢108号","phone":"13356579120","category":"医疗保健服务;动物医疗场所;宠物诊所","area":"长沙","lng":112.6733,"lat":22.375826,"amap_id":"B0FFFFY2H2","order":10,"prev_distance_km":0.831,"cumulative_distance_km":43.214,"amap_marker_url":"https://uri.amap.com/marker?position=112.673300,22.375826&name=%E7%91%9E%E5%AE%A0%E5%BA%B7%E5%AE%A0%E7%89%A9%E5%8C%BB%E9%99%A2&src=vetmap&coordinate=gaode&callnative=1","route_id":"r1","route_name":"第1段","global_order":10},{"name":"侨城宠物医院(开平院)","address":"长沙街冲澄新田村新城路1号2卡侨城宠物医院","phone":"18033141671","category":"医疗保健服务;动物医疗场所;宠物诊所","area":"长沙","lng":112.678584,"lat":22.37795,"amap_id":"B0J3RCTXUE","order":11,"prev_distance_km":0.592,"cumulative_distance_km":43.806,"amap_marker_url":"https://uri.amap.com/marker?position=112.678584,22.377950&name=%E4%BE%A8%E5%9F%8E%E5%AE%A0%E7%89%A9%E5%8C%BB%E9%99%A2%28%E5%BC%80%E5%B9%B3%E9%99%A2%29&src=vetmap&coordinate=gaode&callnative=1","route_id":"r1","route_name":"第1段","global_order":11},{"name":"开平市动物疫病预防控制中心","address":"良园路东北30米","phone":"","category":"医疗保健服务;动物医疗场所;动物医疗场所","area":"","lng":112.678838,"lat":22.390618,"amap_id":"B0FFM1HRAR","order":12,"prev_distance_km":1.409,"cumulative_distance_km":45.215,"amap_marker_url":"https://uri.amap.com/marker?position=112.678838,22.390618&name=%E5%BC%80%E5%B9%B3%E5%B8%82%E5%8A%A8%E7%89%A9%E7%96%AB%E7%97%85%E9%A2%84%E9%98%B2%E6%8E%A7%E5%88%B6%E4%B8%AD%E5%BF%83&src=vetmap&coordinate=gaode&callnative=1","route_id":"r1","route_name":"第1段","global_order":12},{"name":"越和宠物医院(宠物疾病诊疗体检.宠物用品零食.宠物美容)","address":"锦绣东路3号123铺位","phone":"13822453054","category":"医疗保健服务;动物医疗场所;宠物诊所","area":"长沙","lng":112.689455,"lat":22.384159,"amap_id":"B0HGXAWN1T","order":13,"prev_distance_km":1.307,"cumulative_distance_km":46.522,"amap_marker_url":"https://uri.amap.com/marker?position=112.689455,22.384159&name=%E8%B6%8A%E5%92%8C%E5%AE%A0%E7%89%A9%E5%8C%BB%E9%99%A2%28%E5%AE%A0%E7%89%A9%E7%96%BE%E7%97%85%E8%AF%8A%E7%96%97%E4%BD%93%E6%A3%80.%E5%AE%A0%E7%89%A9%E7%94%A8%E5%93%81%E9%9B%B6%E9%A3%9F.%E5%AE%A0%E7%89%A9%E7%BE%8E%E5%AE%B9%29&src=vetmap&coordinate=gaode&callnative=1","route_id":"r1","route_name":"第1段","global_order":13},{"name":"瑞佳宠物诊所","address":"水口镇民乐路52号苹果园首层8号商铺","phone":"","category":"医疗保健服务;动物医疗场所;宠物诊所","area":"","lng":112.779041,"lat":22.44268,"amap_id":"B0J3VD39JX","order":14,"prev_distance_km":11.276,"cumulative_distance_km":57.798,"amap_marker_url":"https://uri.amap.com/marker?position=112.779041,22.442680&name=%E7%91%9E%E4%BD%B3%E5%AE%A0%E7%89%A9%E8%AF%8A%E6%89%80&src=vetmap&coordinate=gaode&callnative=1","route_id":"r1","route_name":"第1段","global_order":14},{"name":"挚诚宠物诊所","address":"水口镇民福路39号绿苑山庄6区商铺171铺位","phone":"15015023880","category":"医疗保健服务;动物医疗场所;宠物诊所","area":"","lng":112.778541,"lat":22.446265,"amap_id":"B0IDP5R2H7","order":15,"prev_distance_km":0.402,"cumulative_distance_km":58.2,"amap_marker_url":"https://uri.amap.com/marker?position=112.778541,22.446265&name=%E6%8C%9A%E8%AF%9A%E5%AE%A0%E7%89%A9%E8%AF%8A%E6%89%80&src=vetmap&coordinate=gaode&callnative=1","route_id":"r1","route_name":"第1段","global_order":15},{"name":"祥牧兽药店","address":"556县道与769乡道交叉口东180米","phone":"","category":"医疗保健服务;动物医疗场所;动物医疗场所","area":"","lng":112.707304,"lat":22.470652,"amap_id":"B0KGZBUOC7","order":16,"prev_distance_km":7.807,"cumulative_distance_km":66.006,"amap_marker_url":"https://uri.amap.com/marker?position=112.707304,22.470652&name=%E7%A5%A5%E7%89%A7%E5%85%BD%E8%8D%AF%E5%BA%97&src=vetmap&coordinate=gaode&callnative=1","route_id":"r1","route_name":"第1段","global_order":16},{"name":"鸽动卫康兽医药","address":"273省道与水一大道交叉口东南40米","phone":"","category":"医疗保健服务;动物医疗场所;动物医疗场所","area":"","lng":112.702075,"lat":22.541175,"amap_id":"B0M6FDXSM2","order":17,"prev_distance_km":7.86,"cumulative_distance_km":73.866,"amap_marker_url":"https://uri.amap.com/marker?position=112.702075,22.541175&name=%E9%B8%BD%E5%8A%A8%E5%8D%AB%E5%BA%B7%E5%85%BD%E5%8C%BB%E8%8D%AF&src=vetmap&coordinate=gaode&callnative=1","route_id":"r1","route_name":"第1段","global_order":17}]}