{"summary":{"id":"d00622","province":"广东省","city":"深圳市","district":"龙华区","count":95,"total_distance_km":81.378,"coordinate_system":"GCJ-02 / Amap","generated_at":"2026-05-07 19:56:42"},"rows":[{"name":"甜琪宠物诊所","address":"华兴路5-2号","phone":"15323980482","category":"医疗保健服务;动物医疗场所;宠物诊所","area":"大浪","lng":113.986979,"lat":22.67891,"amap_id":"B0FFJQXHQ7","order":1,"prev_distance_km":0.0,"cumulative_distance_km":0.0,"amap_marker_url":"https://uri.amap.com/marker?position=113.986979,22.678910&name=%E7%94%9C%E7%90%AA%E5%AE%A0%E7%89%A9%E8%AF%8A%E6%89%80&src=vetmap&coordinate=gaode&callnative=1"},{"name":"龙华利是宠物诊所","address":"大浪街道华兴路劳动者广场对面人人商务宾馆隔壁","phone":"0755-61350627","category":"医疗保健服务;动物医疗场所;宠物诊所","area":"龙华","lng":113.991694,"lat":22.67895,"amap_id":"B0FFMCWYCV","order":2,"prev_distance_km":0.484,"cumulative_distance_km":0.484,"amap_marker_url":"https://uri.amap.com/marker?position=113.991694,22.678950&name=%E9%BE%99%E5%8D%8E%E5%88%A9%E6%98%AF%E5%AE%A0%E7%89%A9%E8%AF%8A%E6%89%80&src=vetmap&coordinate=gaode&callnative=1"},{"name":"可乐宠物(华繁路店)","address":"华旺路69-19号后浪新天地","phone":"","category":"医疗保健服务;动物医疗场所;动物医疗场所","area":"大浪","lng":113.995519,"lat":22.677012,"amap_id":"B0LGCZM9EN","order":3,"prev_distance_km":0.448,"cumulative_distance_km":0.931,"amap_marker_url":"https://uri.amap.com/marker?position=113.995519,22.677012&name=%E5%8F%AF%E4%B9%90%E5%AE%A0%E7%89%A9%28%E5%8D%8E%E7%B9%81%E8%B7%AF%E5%BA%97%29&src=vetmap&coordinate=gaode&callnative=1"},{"name":"医佳宠物医院","address":"大浪街道同胜社区金龙路1号悠山美地家园2栋B136商铺","phone":"18565692234","category":"医疗保健服务;动物医疗场所;宠物诊所","area":"龙华","lng":113.994999,"lat":22.665229,"amap_id":"B0FFLCLJE7","order":4,"prev_distance_km":1.311,"cumulative_distance_km":2.243,"amap_marker_url":"https://uri.amap.com/marker?position=113.994999,22.665229&name=%E5%8C%BB%E4%BD%B3%E5%AE%A0%E7%89%A9%E5%8C%BB%E9%99%A2&src=vetmap&coordinate=gaode&callnative=1"},{"name":"医诺宠物医院","address":"大浪浪口三区西北3门旁","phone":"18318066578","category":"医疗保健服务;动物医疗场所;宠物诊所","area":"龙华","lng":114.008588,"lat":22.677471,"amap_id":"B0JKR92M4G","order":5,"prev_distance_km":1.949,"cumulative_distance_km":4.191,"amap_marker_url":"https://uri.amap.com/marker?position=114.008588,22.677471&name=%E5%8C%BB%E8%AF%BA%E5%AE%A0%E7%89%A9%E5%8C%BB%E9%99%A2&src=vetmap&coordinate=gaode&callnative=1"},{"name":"瑞鹏宠物医院(大浪南路分院)","address":"大浪南路新城市花园","phone":"18038166931","category":"医疗保健服务;动物医疗场所;宠物诊所","area":"三联","lng":114.021149,"lat":22.664473,"amap_id":"B0I6LR557F","order":6,"prev_distance_km":1.936,"cumulative_distance_km":6.128,"amap_marker_url":"https://uri.amap.com/marker?position=114.021149,22.664473&name=%E7%91%9E%E9%B9%8F%E5%AE%A0%E7%89%A9%E5%8C%BB%E9%99%A2%28%E5%A4%A7%E6%B5%AA%E5%8D%97%E8%B7%AF%E5%88%86%E9%99%A2%29&src=vetmap&coordinate=gaode&callnative=1"},{"name":"康嘉宠物医院","address":"龙华街道和联社区狮头岭新村西区商住楼东环一路683号","phone":"0755-28106559","category":"医疗保健服务;动物医疗场所;宠物诊所","area":"三联","lng":114.021583,"lat":22.662822,"amap_id":"B0HGSU4KLB","order":7,"prev_distance_km":0.189,"cumulative_distance_km":6.317,"amap_marker_url":"https://uri.amap.com/marker?position=114.021583,22.662822&name=%E5%BA%B7%E5%98%89%E5%AE%A0%E7%89%A9%E5%8C%BB%E9%99%A2&src=vetmap&coordinate=gaode&callnative=1"},{"name":"贝康宠物医院(龙华店)","address":"龙华街道龙华公园路469号荔园新村50栋一楼","phone":"19129518708","category":"医疗保健服务;动物医疗场所;宠物诊所","area":"龙华","lng":114.018133,"lat":22.656646,"amap_id":"B0G0RYCC1U","order":8,"prev_distance_km":0.773,"cumulative_distance_km":7.089,"amap_marker_url":"https://uri.amap.com/marker?position=114.018133,22.656646&name=%E8%B4%9D%E5%BA%B7%E5%AE%A0%E7%89%A9%E5%8C%BB%E9%99%A2%28%E9%BE%99%E5%8D%8E%E5%BA%97%29&src=vetmap&coordinate=gaode&callnative=1"},{"name":"旺康宠物诊所(工业路店)","address":"工业西路177号(龙华中学对面)","phone":"0755-28106976","category":"医疗保健服务;动物医疗场所;宠物诊所","area":"龙华","lng":114.013674,"lat":22.655813,"amap_id":"B0FFJYANK0","order":9,"prev_distance_km":0.467,"cumulative_distance_km":7.556,"amap_marker_url":"https://uri.amap.com/marker?position=114.013674,22.655813&name=%E6%97%BA%E5%BA%B7%E5%AE%A0%E7%89%A9%E8%AF%8A%E6%89%80%28%E5%B7%A5%E4%B8%9A%E8%B7%AF%E5%BA%97%29&src=vetmap&coordinate=gaode&callnative=1"},{"name":"宠安动物医院(24小时)","address":"羊龙新村27栋101","phone":"17302679621","category":"医疗保健服务;动物医疗场所;宠物诊所","area":"大浪","lng":114.008636,"lat":22.652275,"amap_id":"B0K1NZSITQ","order":10,"prev_distance_km":0.65,"cumulative_distance_km":8.206,"amap_marker_url":"https://uri.amap.com/marker?position=114.008636,22.652275&name=%E5%AE%A0%E5%AE%89%E5%8A%A8%E7%89%A9%E5%8C%BB%E9%99%A2%2824%E5%B0%8F%E6%97%B6%29&src=vetmap&coordinate=gaode&callnative=1"},{"name":"芭比堂动物医院(金庸阁分院)","address":"龙华街道景龙社区金庸阁和平路305号","phone":"0755-88360626;18138817527","category":"医疗保健服务;动物医疗场所;宠物诊所","area":"龙华","lng":114.020768,"lat":22.650054,"amap_id":"B0IB77A64W","order":11,"prev_distance_km":1.269,"cumulative_distance_km":9.475,"amap_marker_url":"https://uri.amap.com/marker?position=114.020768,22.650054&name=%E8%8A%AD%E6%AF%94%E5%A0%82%E5%8A%A8%E7%89%A9%E5%8C%BB%E9%99%A2%28%E9%87%91%E5%BA%B8%E9%98%81%E5%88%86%E9%99%A2%29&src=vetmap&coordinate=gaode&callnative=1"},{"name":"好好宠物医院(龙华分院)","address":"和平路和平花园A栋9号商铺","phone":"13316552676","category":"医疗保健服务;动物医疗场所;宠物诊所","area":"大浪","lng":114.021008,"lat":22.650812,"amap_id":"B0G0UCO1TG","order":12,"prev_distance_km":0.088,"cumulative_distance_km":9.563,"amap_marker_url":"https://uri.amap.com/marker?position=114.021008,22.650812&name=%E5%A5%BD%E5%A5%BD%E5%AE%A0%E7%89%A9%E5%8C%BB%E9%99%A2%28%E9%BE%99%E5%8D%8E%E5%88%86%E9%99%A2%29&src=vetmap&coordinate=gaode&callnative=1"},{"name":"凯特堡猫友医院","address":"景龙中环路185号(龙华地铁站D口步行210米)","phone":"","category":"医疗保健服务;动物医疗场所;宠物诊所","area":"大浪","lng":114.022233,"lat":22.649483,"amap_id":"B0LDR5GPWG","order":13,"prev_distance_km":0.194,"cumulative_distance_km":9.757,"amap_marker_url":"https://uri.amap.com/marker?position=114.022233,22.649483&name=%E5%87%AF%E7%89%B9%E5%A0%A1%E7%8C%AB%E5%8F%8B%E5%8C%BB%E9%99%A2&src=vetmap&coordinate=gaode&callnative=1"},{"name":"花菱猫专科友好医院","address":"景龙中环路大信花园185号","phone":"0755-28099120;18124596319","category":"医疗保健服务;动物医疗场所;宠物诊所","area":"大浪","lng":114.022233,"lat":22.649483,"amap_id":"B0LDR5GI6C","order":14,"prev_distance_km":0.0,"cumulative_distance_km":9.757,"amap_marker_url":"https://uri.amap.com/marker?position=114.022233,22.649483&name=%E8%8A%B1%E8%8F%B1%E7%8C%AB%E4%B8%93%E7%A7%91%E5%8F%8B%E5%A5%BD%E5%8C%BB%E9%99%A2&src=vetmap&coordinate=gaode&callnative=1"},{"name":"花菱宠物医院·心脏内科·骨科·异宠(龙华分院)","address":"景龙中环路大信花园185号","phone":"0755-28099120","category":"医疗保健服务;动物医疗场所;宠物诊所","area":"龙华","lng":114.022245,"lat":22.649448,"amap_id":"B0H105V8P7","order":15,"prev_distance_km":0.004,"cumulative_distance_km":9.761,"amap_marker_url":"https://uri.amap.com/marker?position=114.022245,22.649448&name=%E8%8A%B1%E8%8F%B1%E5%AE%A0%E7%89%A9%E5%8C%BB%E9%99%A2%C2%B7%E5%BF%83%E8%84%8F%E5%86%85%E7%A7%91%C2%B7%E9%AA%A8%E7%A7%91%C2%B7%E5%BC%82%E5%AE%A0%28%E9%BE%99%E5%8D%8E%E5%88%86%E9%99%A2%29&src=vetmap&coordinate=gaode&callnative=1"},{"name":"代安宠物医院·骨科·肿瘤科·24H急重症接诊(壹城分院)","address":"龙华地铁站A出口金碧世家小区15-16号商铺","phone":"18098905357","category":"医疗保健服务;动物医疗场所;宠物诊所","area":"龙华","lng":114.025003,"lat":22.651539,"amap_id":"B0I2VS4VW3","order":16,"prev_distance_km":0.366,"cumulative_distance_km":10.127,"amap_marker_url":"https://uri.amap.com/marker?position=114.025003,22.651539&name=%E4%BB%A3%E5%AE%89%E5%AE%A0%E7%89%A9%E5%8C%BB%E9%99%A2%C2%B7%E9%AA%A8%E7%A7%91%C2%B7%E8%82%BF%E7%98%A4%E7%A7%91%C2%B724H%E6%80%A5%E9%87%8D%E7%97%87%E6%8E%A5%E8%AF%8A%28%E5%A3%B9%E5%9F%8E%E5%88%86%E9%99%A2%29&src=vetmap&coordinate=gaode&callnative=1"},{"name":"瑞派宠物医院·骨外专科·绝育中心·猫犬全科(佰佳东环店)","address":"东环一路与和平路交汇处赛龙豪轩a栋楼1层4647号","phone":"0755-21010659","category":"医疗保健服务;动物医疗场所;宠物诊所","area":"三联","lng":114.026794,"lat":22.655447,"amap_id":"B0IBR7WY1Q","order":17,"prev_distance_km":0.472,"cumulative_distance_km":10.599,"amap_marker_url":"https://uri.amap.com/marker?position=114.026794,22.655447&name=%E7%91%9E%E6%B4%BE%E5%AE%A0%E7%89%A9%E5%8C%BB%E9%99%A2%C2%B7%E9%AA%A8%E5%A4%96%E4%B8%93%E7%A7%91%C2%B7%E7%BB%9D%E8%82%B2%E4%B8%AD%E5%BF%83%C2%B7%E7%8C%AB%E7%8A%AC%E5%85%A8%E7%A7%91%28%E4%BD%B0%E4%BD%B3%E4%B8%9C%E7%8E%AF%E5%BA%97%29&src=vetmap&coordinate=gaode&callnative=1"},{"name":"大河马宠物医院(龙猫院)","address":"龙华街道景龙社区东环一路246号乐景花园1栋107-109-111","phone":"0755-61357996;18813902664","category":"医疗保健服务;动物医疗场所;宠物诊所","area":"龙华","lng":114.028138,"lat":22.655303,"amap_id":"B0H1U91XXD","order":18,"prev_distance_km":0.139,"cumulative_distance_km":10.738,"amap_marker_url":"https://uri.amap.com/marker?position=114.028138,22.655303&name=%E5%A4%A7%E6%B2%B3%E9%A9%AC%E5%AE%A0%E7%89%A9%E5%8C%BB%E9%99%A2%28%E9%BE%99%E7%8C%AB%E9%99%A2%29&src=vetmap&coordinate=gaode&callnative=1"},{"name":"联合宠物医院(龙华店)","address":"龙华街道和平路196号","phone":"15361872756","category":"医疗保健服务;动物医疗场所;宠物诊所","area":"三联","lng":114.028364,"lat":22.656394,"amap_id":"B0FFI6S848","order":19,"prev_distance_km":0.124,"cumulative_distance_km":10.861,"amap_marker_url":"https://uri.amap.com/marker?position=114.028364,22.656394&name=%E8%81%94%E5%90%88%E5%AE%A0%E7%89%A9%E5%8C%BB%E9%99%A2%28%E9%BE%99%E5%8D%8E%E5%BA%97%29&src=vetmap&coordinate=gaode&callnative=1"},{"name":"爱贝思宠物医院(南国丽园店)","address":"龙华街道南国丽园1栋13号","phone":"0755-89481330","category":"医疗保健服务;动物医疗场所;宠物诊所","area":"龙华","lng":114.029434,"lat":22.653859,"amap_id":"B0FFK4NDMG","order":20,"prev_distance_km":0.303,"cumulative_distance_km":11.164,"amap_marker_url":"https://uri.amap.com/marker?position=114.029434,22.653859&name=%E7%88%B1%E8%B4%9D%E6%80%9D%E5%AE%A0%E7%89%A9%E5%8C%BB%E9%99%A2%28%E5%8D%97%E5%9B%BD%E4%B8%BD%E5%9B%AD%E5%BA%97%29&src=vetmap&coordinate=gaode&callnative=1"},{"name":"瑞鹏宠物医院龙华中心医院·24小时(景龙店)","address":"东环一路与建设路交汇处南国丽园2栋3号","phone":"0755-83396366;18126497120","category":"医疗保健服务;动物医疗场所;宠物诊所","area":"龙华","lng":114.030605,"lat":22.653228,"amap_id":"B02F38X6MQ","order":21,"prev_distance_km":0.139,"cumulative_distance_km":11.303,"amap_marker_url":"https://uri.amap.com/marker?position=114.030605,22.653228&name=%E7%91%9E%E9%B9%8F%E5%AE%A0%E7%89%A9%E5%8C%BB%E9%99%A2%E9%BE%99%E5%8D%8E%E4%B8%AD%E5%BF%83%E5%8C%BB%E9%99%A2%C2%B724%E5%B0%8F%E6%97%B6%28%E6%99%AF%E9%BE%99%E5%BA%97%29&src=vetmap&coordinate=gaode&callnative=1"},{"name":"医诺宠物医院(和平路分院)","address":"和平路162号","phone":"13713785345","category":"医疗保健服务;动物医疗场所;宠物诊所","area":"龙华","lng":114.031025,"lat":22.658175,"amap_id":"B0KAVUB78H","order":22,"prev_distance_km":0.552,"cumulative_distance_km":11.855,"amap_marker_url":"https://uri.amap.com/marker?position=114.031025,22.658175&name=%E5%8C%BB%E8%AF%BA%E5%AE%A0%E7%89%A9%E5%8C%BB%E9%99%A2%28%E5%92%8C%E5%B9%B3%E8%B7%AF%E5%88%86%E9%99%A2%29&src=vetmap&coordinate=gaode&callnative=1"},{"name":"泰咛宠物医院(龙华总院)","address":"东环二路美丽家园北区3栋107-109商铺","phone":"0755-27700002","category":"医疗保健服务;动物医疗场所;宠物诊所","area":"龙华","lng":114.03305,"lat":22.658077,"amap_id":"B0FFI5G9PM","order":23,"prev_distance_km":0.208,"cumulative_distance_km":12.063,"amap_marker_url":"https://uri.amap.com/marker?position=114.033050,22.658077&name=%E6%B3%B0%E5%92%9B%E5%AE%A0%E7%89%A9%E5%8C%BB%E9%99%A2%28%E9%BE%99%E5%8D%8E%E6%80%BB%E9%99%A2%29&src=vetmap&coordinate=gaode&callnative=1"},{"name":"大风动物医院(聚豪国际店)","address":"龙华街道三联社区建设路150号聚豪国际8","phone":"18026901718","category":"医疗保健服务;动物医疗场所;宠物诊所","area":"龙华","lng":114.035732,"lat":22.657064,"amap_id":"B0IRM5MLLA","order":24,"prev_distance_km":0.297,"cumulative_distance_km":12.36,"amap_marker_url":"https://uri.amap.com/marker?position=114.035732,22.657064&name=%E5%A4%A7%E9%A3%8E%E5%8A%A8%E7%89%A9%E5%8C%BB%E9%99%A2%28%E8%81%9A%E8%B1%AA%E5%9B%BD%E9%99%85%E5%BA%97%29&src=vetmap&coordinate=gaode&callnative=1"},{"name":"好好宠物医院(清湖分院)","address":"龙华街道清泉路13-1(清湖地铁站D口步行390米)","phone":"0755-21035687;13510957289;18123775905","category":"医疗保健服务;动物医疗场所;宠物诊所","area":"龙华","lng":114.036668,"lat":22.660383,"amap_id":"B0HU2SUYXR","order":25,"prev_distance_km":0.381,"cumulative_distance_km":12.742,"amap_marker_url":"https://uri.amap.com/marker?position=114.036668,22.660383&name=%E5%A5%BD%E5%A5%BD%E5%AE%A0%E7%89%A9%E5%8C%BB%E9%99%A2%28%E6%B8%85%E6%B9%96%E5%88%86%E9%99%A2%29&src=vetmap&coordinate=gaode&callnative=1"},{"name":"添安宠物医院店","address":"龙华街道清泉路A1栋2层","phone":"13246721207","category":"医疗保健服务;动物医疗场所;宠物诊所","area":"龙华","lng":114.033723,"lat":22.664592,"amap_id":"B0ID4ZN97U","order":26,"prev_distance_km":0.557,"cumulative_distance_km":13.299,"amap_marker_url":"https://uri.amap.com/marker?position=114.033723,22.664592&name=%E6%B7%BB%E5%AE%89%E5%AE%A0%E7%89%A9%E5%8C%BB%E9%99%A2%E5%BA%97&src=vetmap&coordinate=gaode&callnative=1"},{"name":"宝龙宠物医院","address":"东环二路美丽365花园106号商铺","phone":"13265826266","category":"医疗保健服务;动物医疗场所;宠物诊所","area":"三联","lng":114.0309,"lat":22.661516,"amap_id":"B0FFG7MUU4","order":27,"prev_distance_km":0.448,"cumulative_distance_km":13.747,"amap_marker_url":"https://uri.amap.com/marker?position=114.030900,22.661516&name=%E5%AE%9D%E9%BE%99%E5%AE%A0%E7%89%A9%E5%8C%BB%E9%99%A2&src=vetmap&coordinate=gaode&callnative=1"},{"name":"五洲猫专科·心脏科·骨外科(龙华店)","address":"龙环二路369号2层","phone":"0755-29415077;13410069725","category":"医疗保健服务;动物医疗场所;宠物诊所","area":"三联","lng":114.031155,"lat":22.660317,"amap_id":"B0FFG8VA7T","order":28,"prev_distance_km":0.136,"cumulative_distance_km":13.883,"amap_marker_url":"https://uri.amap.com/marker?position=114.031155,22.660317&name=%E4%BA%94%E6%B4%B2%E7%8C%AB%E4%B8%93%E7%A7%91%C2%B7%E5%BF%83%E8%84%8F%E7%A7%91%C2%B7%E9%AA%A8%E5%A4%96%E7%A7%91%28%E9%BE%99%E5%8D%8E%E5%BA%97%29&src=vetmap&coordinate=gaode&callnative=1"},{"name":"瑞格宠物医院·24H·急重证医学","address":"龙华街道玉翠社区清泉路89号107英伦国际酒店附近","phone":"13430452473","category":"医疗保健服务;动物医疗场所;宠物诊所","area":"龙华","lng":114.028893,"lat":22.669675,"amap_id":"B0FFL5TX01","order":29,"prev_distance_km":1.066,"cumulative_distance_km":14.949,"amap_marker_url":"https://uri.amap.com/marker?position=114.028893,22.669675&name=%E7%91%9E%E6%A0%BC%E5%AE%A0%E7%89%A9%E5%8C%BB%E9%99%A2%C2%B724H%C2%B7%E6%80%A5%E9%87%8D%E8%AF%81%E5%8C%BB%E5%AD%A6&src=vetmap&coordinate=gaode&callnative=1"},{"name":"一佳优宠·宠物洗护工作室","address":"深圳市龙华区玉翠新村A区99栋103","phone":"","category":"医疗保健服务;动物医疗场所;动物医疗场所","area":"龙华","lng":114.029989,"lat":22.674576,"amap_id":"B0K3VAJRBL","order":30,"prev_distance_km":0.556,"cumulative_distance_km":15.505,"amap_marker_url":"https://uri.amap.com/marker?position=114.029989,22.674576&name=%E4%B8%80%E4%BD%B3%E4%BC%98%E5%AE%A0%C2%B7%E5%AE%A0%E7%89%A9%E6%B4%97%E6%8A%A4%E5%B7%A5%E4%BD%9C%E5%AE%A4&src=vetmap&coordinate=gaode&callnative=1"},{"name":"萌宠康舍","address":"福城街道新和社区观澜大道75-1","phone":"","category":"医疗保健服务;动物医疗场所;动物医疗场所","area":"","lng":114.040005,"lat":22.690452,"amap_id":"B0LU9ZBLGW","order":31,"prev_distance_km":2.043,"cumulative_distance_km":17.548,"amap_marker_url":"https://uri.amap.com/marker?position=114.040005,22.690452&name=%E8%90%8C%E5%AE%A0%E5%BA%B7%E8%88%8D&src=vetmap&coordinate=gaode&callnative=1"},{"name":"珍妮宠物医院(邻嘉汇MINIMALL)","address":"福城街道观澜大道100号芷峪湾花园106","phone":"15986798026","category":"医疗保健服务;动物医疗场所;宠物诊所","area":"","lng":114.041244,"lat":22.693227,"amap_id":"B0IRCC4U69","order":32,"prev_distance_km":0.334,"cumulative_distance_km":17.882,"amap_marker_url":"https://uri.amap.com/marker?position=114.041244,22.693227&name=%E7%8F%8D%E5%A6%AE%E5%AE%A0%E7%89%A9%E5%8C%BB%E9%99%A2%28%E9%82%BB%E5%98%89%E6%B1%87MINIMALL%29&src=vetmap&coordinate=gaode&callnative=1"},{"name":"好好宠物医院·观澜格澜郡分院","address":"观澜大和路中航格澜郡2期10栋","phone":"18124676796","category":"医疗保健服务;动物医疗场所;宠物诊所","area":"","lng":114.049307,"lat":22.692573,"amap_id":"B0FFI0JUZG","order":33,"prev_distance_km":0.83,"cumulative_distance_km":18.712,"amap_marker_url":"https://uri.amap.com/marker?position=114.049307,22.692573&name=%E5%A5%BD%E5%A5%BD%E5%AE%A0%E7%89%A9%E5%8C%BB%E9%99%A2%C2%B7%E8%A7%82%E6%BE%9C%E6%A0%BC%E6%BE%9C%E9%83%A1%E5%88%86%E9%99%A2&src=vetmap&coordinate=gaode&callnative=1"},{"name":"艾美宠物医院(中航格澜阳光花园二期店)","address":"观湖街道润城社区中航格澜郡二期商业街1231铺","phone":"18126113020","category":"医疗保健服务;动物医疗场所;宠物诊所","area":"","lng":114.049252,"lat":22.691583,"amap_id":"B0I09UPY1T","order":34,"prev_distance_km":0.11,"cumulative_distance_km":18.822,"amap_marker_url":"https://uri.amap.com/marker?position=114.049252,22.691583&name=%E8%89%BE%E7%BE%8E%E5%AE%A0%E7%89%A9%E5%8C%BB%E9%99%A2%28%E4%B8%AD%E8%88%AA%E6%A0%BC%E6%BE%9C%E9%98%B3%E5%85%89%E8%8A%B1%E5%9B%AD%E4%BA%8C%E6%9C%9F%E5%BA%97%29&src=vetmap&coordinate=gaode&callnative=1"},{"name":"普思宠物医院","address":"观湖街道环观南路104-1号","phone":"0755-23760405;15323853807","category":"医疗保健服务;动物医疗场所;宠物诊所","area":"","lng":114.050211,"lat":22.689904,"amap_id":"B0H2OBAAFN","order":35,"prev_distance_km":0.211,"cumulative_distance_km":19.033,"amap_marker_url":"https://uri.amap.com/marker?position=114.050211,22.689904&name=%E6%99%AE%E6%80%9D%E5%AE%A0%E7%89%A9%E5%8C%BB%E9%99%A2&src=vetmap&coordinate=gaode&callnative=1"},{"name":"深圳从从宠物医院","address":"观湖街道大和社区环观南路225-2号","phone":"13979272293;18979222743;19876123359","category":"医疗保健服务;动物医疗场所;宠物诊所","area":"","lng":114.050925,"lat":22.689875,"amap_id":"B0JK9UEN3F","order":36,"prev_distance_km":0.073,"cumulative_distance_km":19.107,"amap_marker_url":"https://uri.amap.com/marker?position=114.050925,22.689875&name=%E6%B7%B1%E5%9C%B3%E4%BB%8E%E4%BB%8E%E5%AE%A0%E7%89%A9%E5%8C%BB%E9%99%A2&src=vetmap&coordinate=gaode&callnative=1"},{"name":"联合宠物医院(观澜分院)","address":"观湖街道大和社区龙华大道6416号","phone":"13302431384","category":"医疗保健服务;动物医疗场所;宠物诊所","area":"","lng":114.049649,"lat":22.698311,"amap_id":"B0I12H7Z90","order":37,"prev_distance_km":0.947,"cumulative_distance_km":20.054,"amap_marker_url":"https://uri.amap.com/marker?position=114.049649,22.698311&name=%E8%81%94%E5%90%88%E5%AE%A0%E7%89%A9%E5%8C%BB%E9%99%A2%28%E8%A7%82%E6%BE%9C%E5%88%86%E9%99%A2%29&src=vetmap&coordinate=gaode&callnative=1"},{"name":"宠联观澜宠物中心医院","address":"观澜人民路与龙华大道交叉口12","phone":"18929397609","category":"医疗保健服务;动物医疗场所;宠物诊所","area":"","lng":114.04932,"lat":22.701599,"amap_id":"B0G13PYO2E","order":38,"prev_distance_km":0.367,"cumulative_distance_km":20.421,"amap_marker_url":"https://uri.amap.com/marker?position=114.049320,22.701599&name=%E5%AE%A0%E8%81%94%E8%A7%82%E6%BE%9C%E5%AE%A0%E7%89%A9%E4%B8%AD%E5%BF%83%E5%8C%BB%E9%99%A2&src=vetmap&coordinate=gaode&callnative=1"},{"name":"润泰宠物医院24H·猫科医学转诊中心(观澜院)","address":"观澜人民路51号","phone":"13380367273","category":"医疗保健服务;动物医疗场所;宠物诊所","area":"","lng":114.043067,"lat":22.702937,"amap_id":"B0K1UDHDR2","order":39,"prev_distance_km":0.658,"cumulative_distance_km":21.079,"amap_marker_url":"https://uri.amap.com/marker?position=114.043067,22.702937&name=%E6%B6%A6%E6%B3%B0%E5%AE%A0%E7%89%A9%E5%8C%BB%E9%99%A224H%C2%B7%E7%8C%AB%E7%A7%91%E5%8C%BB%E5%AD%A6%E8%BD%AC%E8%AF%8A%E4%B8%AD%E5%BF%83%28%E8%A7%82%E6%BE%9C%E9%99%A2%29&src=vetmap&coordinate=gaode&callnative=1"},{"name":"银星智界三期迈瑞动物医疗","address":"丹霞路1号","phone":"","category":"医疗保健服务;动物医疗场所;宠物诊所","area":"","lng":114.048842,"lat":22.722576,"amap_id":"B0JB1K4LRC","order":40,"prev_distance_km":2.263,"cumulative_distance_km":23.342,"amap_marker_url":"https://uri.amap.com/marker?position=114.048842,22.722576&name=%E9%93%B6%E6%98%9F%E6%99%BA%E7%95%8C%E4%B8%89%E6%9C%9F%E8%BF%88%E7%91%9E%E5%8A%A8%E7%89%A9%E5%8C%BB%E7%96%97&src=vetmap&coordinate=gaode&callnative=1"},{"name":"仟宠乐动物诊所","address":"观澜大道512号101(松元厦地铁站D1口旁)","phone":"17688918686","category":"医疗保健服务;动物医疗场所;宠物诊所","area":"","lng":114.063541,"lat":22.720782,"amap_id":"B0FFLFQDRO","order":41,"prev_distance_km":1.521,"cumulative_distance_km":24.863,"amap_marker_url":"https://uri.amap.com/marker?position=114.063541,22.720782&name=%E4%BB%9F%E5%AE%A0%E4%B9%90%E5%8A%A8%E7%89%A9%E8%AF%8A%E6%89%80&src=vetmap&coordinate=gaode&callnative=1"},{"name":"宠一生宠物医院猫专科(观澜分院)","address":"观澜街道新澜社区观兴东路60号(鸿基新都1栋宠一生宠物医院)","phone":"17744977084","category":"医疗保健服务;动物医疗场所;宠物诊所","area":"","lng":114.032689,"lat":22.723286,"amap_id":"B0L0NUS4M0","order":42,"prev_distance_km":3.177,"cumulative_distance_km":28.039,"amap_marker_url":"https://uri.amap.com/marker?position=114.032689,22.723286&name=%E5%AE%A0%E4%B8%80%E7%94%9F%E5%AE%A0%E7%89%A9%E5%8C%BB%E9%99%A2%E7%8C%AB%E4%B8%93%E7%A7%91%28%E8%A7%82%E6%BE%9C%E5%88%86%E9%99%A2%29&src=vetmap&coordinate=gaode&callnative=1"},{"name":"宠倾心宠物医院·泌尿·肿瘤·CT(中心医院)","address":"福城街道福民社区观兴东路13-3号","phone":"","category":"医疗保健服务;动物医疗场所;宠物诊所","area":"","lng":114.032177,"lat":22.721801,"amap_id":"B0L30CLQD4","order":43,"prev_distance_km":0.173,"cumulative_distance_km":28.213,"amap_marker_url":"https://uri.amap.com/marker?position=114.032177,22.721801&name=%E5%AE%A0%E5%80%BE%E5%BF%83%E5%AE%A0%E7%89%A9%E5%8C%BB%E9%99%A2%C2%B7%E6%B3%8C%E5%B0%BF%C2%B7%E8%82%BF%E7%98%A4%C2%B7CT%28%E4%B8%AD%E5%BF%83%E5%8C%BB%E9%99%A2%29&src=vetmap&coordinate=gaode&callnative=1"},{"name":"深圳众联宠物诊所有限责任公司","address":"福前路399-1号锦文章阁广场","phone":"","category":"医疗保健服务;动物医疗场所;宠物诊所","area":"","lng":114.018851,"lat":22.743248,"amap_id":"B0KKVD37V7","order":44,"prev_distance_km":2.749,"cumulative_distance_km":30.961,"amap_marker_url":"https://uri.amap.com/marker?position=114.018851,22.743248&name=%E6%B7%B1%E5%9C%B3%E4%BC%97%E8%81%94%E5%AE%A0%E7%89%A9%E8%AF%8A%E6%89%80%E6%9C%89%E9%99%90%E8%B4%A3%E4%BB%BB%E5%85%AC%E5%8F%B8&src=vetmap&coordinate=gaode&callnative=1"},{"name":"宠星缘宠物医院骨科·心脏专科(龙华店)","address":"福城街道章阁路271号","phone":"0755-28026120;18927428509","category":"医疗保健服务;动物医疗场所;宠物诊所","area":"","lng":114.018815,"lat":22.743238,"amap_id":"B0KKB5IOEH","order":45,"prev_distance_km":0.004,"cumulative_distance_km":30.965,"amap_marker_url":"https://uri.amap.com/marker?position=114.018815,22.743238&name=%E5%AE%A0%E6%98%9F%E7%BC%98%E5%AE%A0%E7%89%A9%E5%8C%BB%E9%99%A2%E9%AA%A8%E7%A7%91%C2%B7%E5%BF%83%E8%84%8F%E4%B8%93%E7%A7%91%28%E9%BE%99%E5%8D%8E%E5%BA%97%29&src=vetmap&coordinate=gaode&callnative=1"},{"name":"亚洲宠物医院","address":"福城街道澳门工业区路30-6尚品雅居8号","phone":"18819034791","category":"医疗保健服务;动物医疗场所;宠物诊所","area":"","lng":114.021635,"lat":22.748268,"amap_id":"B0KRCDDKZ8","order":46,"prev_distance_km":0.63,"cumulative_distance_km":31.595,"amap_marker_url":"https://uri.amap.com/marker?position=114.021635,22.748268&name=%E4%BA%9A%E6%B4%B2%E5%AE%A0%E7%89%A9%E5%8C%BB%E9%99%A2&src=vetmap&coordinate=gaode&callnative=1"},{"name":"新医佳宠物医院·夜诊·全科","address":"大浪街道新石社区石凹路十八匠汽车店旁105号","phone":"15622851710","category":"医疗保健服务;动物医疗场所;宠物诊所","area":"","lng":113.991215,"lat":22.697465,"amap_id":"B0JBMSZJ3C","order":47,"prev_distance_km":6.453,"cumulative_distance_km":38.048,"amap_marker_url":"https://uri.amap.com/marker?position=113.991215,22.697465&name=%E6%96%B0%E5%8C%BB%E4%BD%B3%E5%AE%A0%E7%89%A9%E5%8C%BB%E9%99%A2%C2%B7%E5%A4%9C%E8%AF%8A%C2%B7%E5%85%A8%E7%A7%91&src=vetmap&coordinate=gaode&callnative=1"},{"name":"好好联盟宠物医院上塘分院","address":"民治街道龙塘社区御龙华庭183号","phone":"15919774489","category":"医疗保健服务;动物医疗场所;宠物诊所","area":"民治","lng":114.015876,"lat":22.637565,"amap_id":"B0HA6Y6SCA","order":48,"prev_distance_km":7.125,"cumulative_distance_km":45.173,"amap_marker_url":"https://uri.amap.com/marker?position=114.015876,22.637565&name=%E5%A5%BD%E5%A5%BD%E8%81%94%E7%9B%9F%E5%AE%A0%E7%89%A9%E5%8C%BB%E9%99%A2%E4%B8%8A%E5%A1%98%E5%88%86%E9%99%A2&src=vetmap&coordinate=gaode&callnative=1"},{"name":"联合宠物医院(民塘分院)","address":"御龙华庭东南门西南90米(上芬地铁站D口步行420米)","phone":"18018714527","category":"医疗保健服务;动物医疗场所;宠物诊所","area":"民治","lng":114.01611,"lat":22.63718,"amap_id":"B0FFMDSHUX","order":49,"prev_distance_km":0.049,"cumulative_distance_km":45.222,"amap_marker_url":"https://uri.amap.com/marker?position=114.016110,22.637180&name=%E8%81%94%E5%90%88%E5%AE%A0%E7%89%A9%E5%8C%BB%E9%99%A2%28%E6%B0%91%E5%A1%98%E5%88%86%E9%99%A2%29&src=vetmap&coordinate=gaode&callnative=1"},{"name":"念宠宠物.善终服务(龙华民治店)","address":"松仔园二区58号102","phone":"13148711659","category":"医疗保健服务;动物医疗场所;宠物诊所","area":"民治村","lng":114.023164,"lat":22.634281,"amap_id":"B0LK9LB4KA","order":50,"prev_distance_km":0.792,"cumulative_distance_km":46.015,"amap_marker_url":"https://uri.amap.com/marker?position=114.023164,22.634281&name=%E5%BF%B5%E5%AE%A0%E5%AE%A0%E7%89%A9.%E5%96%84%E7%BB%88%E6%9C%8D%E5%8A%A1%28%E9%BE%99%E5%8D%8E%E6%B0%91%E6%B2%BB%E5%BA%97%29&src=vetmap&coordinate=gaode&callnative=1"},{"name":"宠旭动物医院·犬猫·全科(龙华民治分院)","address":"民塘路与龙华人民路交叉口西60米","phone":"","category":"医疗保健服务;动物医疗场所;宠物诊所","area":"民治村","lng":114.023359,"lat":22.630454,"amap_id":"B0KUXXXHPZ","order":51,"prev_distance_km":0.426,"cumulative_distance_km":46.441,"amap_marker_url":"https://uri.amap.com/marker?position=114.023359,22.630454&name=%E5%AE%A0%E6%97%AD%E5%8A%A8%E7%89%A9%E5%8C%BB%E9%99%A2%C2%B7%E7%8A%AC%E7%8C%AB%C2%B7%E5%85%A8%E7%A7%91%28%E9%BE%99%E5%8D%8E%E6%B0%91%E6%B2%BB%E5%88%86%E9%99%A2%29&src=vetmap&coordinate=gaode&callnative=1"},{"name":"瑞景宠物医院(龙华民治院)","address":"民治街道大岭社区中央原著花园藏珑苑25-26号","phone":"19147909056","category":"医疗保健服务;动物医疗场所;宠物诊所","area":"民治村","lng":114.023331,"lat":22.630324,"amap_id":"B0K23H0XFE","order":52,"prev_distance_km":0.015,"cumulative_distance_km":46.456,"amap_marker_url":"https://uri.amap.com/marker?position=114.023331,22.630324&name=%E7%91%9E%E6%99%AF%E5%AE%A0%E7%89%A9%E5%8C%BB%E9%99%A2%28%E9%BE%99%E5%8D%8E%E6%B0%91%E6%B2%BB%E9%99%A2%29&src=vetmap&coordinate=gaode&callnative=1"},{"name":"瑞派宠物医院·眼科·急重症转诊中心·24H(福华龙华院)","address":"人民南路龙华二线扩展区七里香榭小区一期30号铺","phone":"13798396061","category":"医疗保健服务;动物医疗场所;宠物诊所","area":"民治村","lng":114.025511,"lat":22.629966,"amap_id":"B0FFIS0JUM","order":53,"prev_distance_km":0.227,"cumulative_distance_km":46.683,"amap_marker_url":"https://uri.amap.com/marker?position=114.025511,22.629966&name=%E7%91%9E%E6%B4%BE%E5%AE%A0%E7%89%A9%E5%8C%BB%E9%99%A2%C2%B7%E7%9C%BC%E7%A7%91%C2%B7%E6%80%A5%E9%87%8D%E7%97%87%E8%BD%AC%E8%AF%8A%E4%B8%AD%E5%BF%83%C2%B724H%28%E7%A6%8F%E5%8D%8E%E9%BE%99%E5%8D%8E%E9%99%A2%29&src=vetmap&coordinate=gaode&callnative=1"},{"name":"宠中医","address":"民塘路与龙华人民路交叉口东南120米","phone":"","category":"医疗保健服务;动物医疗场所;宠物诊所","area":"民治村","lng":114.02556,"lat":22.629955,"amap_id":"B0LGYU3J6A","order":54,"prev_distance_km":0.005,"cumulative_distance_km":46.688,"amap_marker_url":"https://uri.amap.com/marker?position=114.025560,22.629955&name=%E5%AE%A0%E4%B8%AD%E5%8C%BB&src=vetmap&coordinate=gaode&callnative=1"},{"name":"莱泽中西医动物医院","address":"民塘路与中梅路交叉口东40米","phone":"","category":"医疗保健服务;动物医疗场所;宠物诊所","area":"民治村","lng":114.027625,"lat":22.627475,"amap_id":"B0LGH7SSDF","order":55,"prev_distance_km":0.348,"cumulative_distance_km":47.036,"amap_marker_url":"https://uri.amap.com/marker?position=114.027625,22.627475&name=%E8%8E%B1%E6%B3%BD%E4%B8%AD%E8%A5%BF%E5%8C%BB%E5%8A%A8%E7%89%A9%E5%8C%BB%E9%99%A2&src=vetmap&coordinate=gaode&callnative=1"},{"name":"大河马宠物医院·猫科CT·兔科·异宠转诊中心","address":"民治街道大岭社区幸福枫景1栋012-013","phone":"0755-66668700;13612966786","category":"医疗保健服务;动物医疗场所;宠物诊所","area":"民治村","lng":114.029436,"lat":22.63081,"amap_id":"B0FFKLMSXV","order":56,"prev_distance_km":0.415,"cumulative_distance_km":47.451,"amap_marker_url":"https://uri.amap.com/marker?position=114.029436,22.630810&name=%E5%A4%A7%E6%B2%B3%E9%A9%AC%E5%AE%A0%E7%89%A9%E5%8C%BB%E9%99%A2%C2%B7%E7%8C%AB%E7%A7%91CT%C2%B7%E5%85%94%E7%A7%91%C2%B7%E5%BC%82%E5%AE%A0%E8%BD%AC%E8%AF%8A%E4%B8%AD%E5%BF%83&src=vetmap&coordinate=gaode&callnative=1"},{"name":"瑞美宠物美容(世纪春城店)","address":"龙华民治街道世纪春城4期3栋38号铺瑞美宠物美容","phone":"18098915603","category":"医疗保健服务;动物医疗场所;动物医疗场所","area":"民治村","lng":114.03218,"lat":22.628202,"amap_id":"B0FFH2IHBB","order":57,"prev_distance_km":0.404,"cumulative_distance_km":47.855,"amap_marker_url":"https://uri.amap.com/marker?position=114.032180,22.628202&name=%E7%91%9E%E7%BE%8E%E5%AE%A0%E7%89%A9%E7%BE%8E%E5%AE%B9%28%E4%B8%96%E7%BA%AA%E6%98%A5%E5%9F%8E%E5%BA%97%29&src=vetmap&coordinate=gaode&callnative=1"},{"name":"晨和宠物医院(犬猫血液病专科医院)","address":"民治街道世纪春城四期1-24-25商铺","phone":"0755-21001801","category":"医疗保健服务;动物医疗场所;宠物诊所","area":"民治","lng":114.031649,"lat":22.62675,"amap_id":"B0FFIVS4K1","order":58,"prev_distance_km":0.17,"cumulative_distance_km":48.025,"amap_marker_url":"https://uri.amap.com/marker?position=114.031649,22.626750&name=%E6%99%A8%E5%92%8C%E5%AE%A0%E7%89%A9%E5%8C%BB%E9%99%A2%28%E7%8A%AC%E7%8C%AB%E8%A1%80%E6%B6%B2%E7%97%85%E4%B8%93%E7%A7%91%E5%8C%BB%E9%99%A2%29&src=vetmap&coordinate=gaode&callnative=1"},{"name":"狗仔队宠物诊所","address":"民治街道民强社区世纪春城二期9栋97","phone":"15818645592","category":"医疗保健服务;动物医疗场所;宠物诊所","area":"民治","lng":114.03189,"lat":22.625506,"amap_id":"B0HROUJV59","order":59,"prev_distance_km":0.141,"cumulative_distance_km":48.166,"amap_marker_url":"https://uri.amap.com/marker?position=114.031890,22.625506&name=%E7%8B%97%E4%BB%94%E9%98%9F%E5%AE%A0%E7%89%A9%E8%AF%8A%E6%89%80&src=vetmap&coordinate=gaode&callnative=1"},{"name":"医诺宠物医院·24小时龙华总院转诊中心","address":"民治街道红山社区东泉新村22-27栋22-23栋101","phone":"14771199456","category":"医疗保健服务;动物医疗场所;宠物诊所","area":"民治","lng":114.031826,"lat":22.623242,"amap_id":"B0KKU7KNUA","order":60,"prev_distance_km":0.252,"cumulative_distance_km":48.418,"amap_marker_url":"https://uri.amap.com/marker?position=114.031826,22.623242&name=%E5%8C%BB%E8%AF%BA%E5%AE%A0%E7%89%A9%E5%8C%BB%E9%99%A2%C2%B724%E5%B0%8F%E6%97%B6%E9%BE%99%E5%8D%8E%E6%80%BB%E9%99%A2%E8%BD%AC%E8%AF%8A%E4%B8%AD%E5%BF%83&src=vetmap&coordinate=gaode&callnative=1"},{"name":"卡拉宠物医院24小时·心脏专科·转诊中心(深圳龙华总院)","address":"南源新村42栋42-1-1层1号","phone":"0755-21002134;18998906455","category":"医疗保健服务;动物医疗场所;宠物诊所","area":"民治村","lng":114.029416,"lat":22.622122,"amap_id":"B0FFLCSLLT","order":61,"prev_distance_km":0.277,"cumulative_distance_km":48.695,"amap_marker_url":"https://uri.amap.com/marker?position=114.029416,22.622122&name=%E5%8D%A1%E6%8B%89%E5%AE%A0%E7%89%A9%E5%8C%BB%E9%99%A224%E5%B0%8F%E6%97%B6%C2%B7%E5%BF%83%E8%84%8F%E4%B8%93%E7%A7%91%C2%B7%E8%BD%AC%E8%AF%8A%E4%B8%AD%E5%BF%83%28%E6%B7%B1%E5%9C%B3%E9%BE%99%E5%8D%8E%E6%80%BB%E9%99%A2%29&src=vetmap&coordinate=gaode&callnative=1"},{"name":"宠未来动物医院(龙华分院)","address":"民塘路435号","phone":"","category":"医疗保健服务;动物医疗场所;宠物诊所","area":"民治村","lng":114.028912,"lat":22.622041,"amap_id":"B0J6HMGBME","order":62,"prev_distance_km":0.053,"cumulative_distance_km":48.747,"amap_marker_url":"https://uri.amap.com/marker?position=114.028912,22.622041&name=%E5%AE%A0%E6%9C%AA%E6%9D%A5%E5%8A%A8%E7%89%A9%E5%8C%BB%E9%99%A2%28%E9%BE%99%E5%8D%8E%E5%88%86%E9%99%A2%29&src=vetmap&coordinate=gaode&callnative=1"},{"name":"卡拉宠物医院(影像中心·住院部)","address":"汇龙湾27号商铺","phone":"","category":"医疗保健服务;动物医疗场所;宠物诊所","area":"民治村","lng":114.028849,"lat":22.622661,"amap_id":"B0J67ROS6P","order":63,"prev_distance_km":0.069,"cumulative_distance_km":48.816,"amap_marker_url":"https://uri.amap.com/marker?position=114.028849,22.622661&name=%E5%8D%A1%E6%8B%89%E5%AE%A0%E7%89%A9%E5%8C%BB%E9%99%A2%28%E5%BD%B1%E5%83%8F%E4%B8%AD%E5%BF%83%C2%B7%E4%BD%8F%E9%99%A2%E9%83%A8%29&src=vetmap&coordinate=gaode&callnative=1"},{"name":"顾宠宠物服务馆","address":"旺民街与红棉路交叉口东100米","phone":"","category":"医疗保健服务;动物医疗场所;宠物诊所","area":"民治村","lng":114.022254,"lat":22.621784,"amap_id":"B0M6O7MZ4W","order":64,"prev_distance_km":0.684,"cumulative_distance_km":49.5,"amap_marker_url":"https://uri.amap.com/marker?position=114.022254,22.621784&name=%E9%A1%BE%E5%AE%A0%E5%AE%A0%E7%89%A9%E6%9C%8D%E5%8A%A1%E9%A6%86&src=vetmap&coordinate=gaode&callnative=1"},{"name":"蓝宝宠物医院","address":"民治街道龙塘社区卓越皇后道名苑一期商业街12号","phone":"17796398650","category":"医疗保健服务;动物医疗场所;宠物诊所","area":"","lng":114.013077,"lat":22.629862,"amap_id":"B0L1CD5CJ9","order":65,"prev_distance_km":1.302,"cumulative_distance_km":50.802,"amap_marker_url":"https://uri.amap.com/marker?position=114.013077,22.629862&name=%E8%93%9D%E5%AE%9D%E5%AE%A0%E7%89%A9%E5%8C%BB%E9%99%A2&src=vetmap&coordinate=gaode&callnative=1"},{"name":"贝贝安宠物医院","address":"锦绣江南三期龙胜路55号","phone":"13713720877","category":"医疗保健服务;动物医疗场所;宠物诊所","area":"民治","lng":114.029115,"lat":22.637812,"amap_id":"B0LKY548QB","order":66,"prev_distance_km":1.868,"cumulative_distance_km":52.67,"amap_marker_url":"https://uri.amap.com/marker?position=114.029115,22.637812&name=%E8%B4%9D%E8%B4%9D%E5%AE%89%E5%AE%A0%E7%89%A9%E5%8C%BB%E9%99%A2&src=vetmap&coordinate=gaode&callnative=1"},{"name":"瑞鹏宠物医院(梅龙分院)","address":"民治街道上塘居委锦绣江南四期I栋1034-1035室商铺","phone":"0755-83860096","category":"医疗保健服务;动物医疗场所;宠物诊所","area":"龙华","lng":114.031006,"lat":22.636177,"amap_id":"B0FFFX7IFG","order":67,"prev_distance_km":0.266,"cumulative_distance_km":52.936,"amap_marker_url":"https://uri.amap.com/marker?position=114.031006,22.636177&name=%E7%91%9E%E9%B9%8F%E5%AE%A0%E7%89%A9%E5%8C%BB%E9%99%A2%28%E6%A2%85%E9%BE%99%E5%88%86%E9%99%A2%29&src=vetmap&coordinate=gaode&callnative=1"},{"name":"康乐熊宠物医院·眼科·微创绝育中心·犬猫全科(锦绣江南分院)","address":"民治街道新牛社区铭统江南四期5-8陈梅龙公路672号","phone":"18923789169","category":"医疗保健服务;动物医疗场所;宠物诊所","area":"民治","lng":114.031735,"lat":22.638055,"amap_id":"B0I0YSXOMT","order":68,"prev_distance_km":0.222,"cumulative_distance_km":53.158,"amap_marker_url":"https://uri.amap.com/marker?position=114.031735,22.638055&name=%E5%BA%B7%E4%B9%90%E7%86%8A%E5%AE%A0%E7%89%A9%E5%8C%BB%E9%99%A2%C2%B7%E7%9C%BC%E7%A7%91%C2%B7%E5%BE%AE%E5%88%9B%E7%BB%9D%E8%82%B2%E4%B8%AD%E5%BF%83%C2%B7%E7%8A%AC%E7%8C%AB%E5%85%A8%E7%A7%91%28%E9%94%A6%E7%BB%A3%E6%B1%9F%E5%8D%97%E5%88%86%E9%99%A2%29&src=vetmap&coordinate=gaode&callnative=1"},{"name":"壹方宠物医院","address":"龙华大道3698-3","phone":"15817309687","category":"医疗保健服务;动物医疗场所;宠物诊所","area":"龙华","lng":114.037308,"lat":22.64538,"amap_id":"B0J2472LF2","order":69,"prev_distance_km":0.995,"cumulative_distance_km":54.153,"amap_marker_url":"https://uri.amap.com/marker?position=114.037308,22.645380&name=%E5%A3%B9%E6%96%B9%E5%AE%A0%E7%89%A9%E5%8C%BB%E9%99%A2&src=vetmap&coordinate=gaode&callnative=1"},{"name":"医诺宠物医院24H门诊","address":"香缇雅苑东北门西北50米","phone":"","category":"医疗保健服务;动物医疗场所;宠物诊所","area":"龙华","lng":114.043415,"lat":22.643353,"amap_id":"B0L029PKLL","order":70,"prev_distance_km":0.666,"cumulative_distance_km":54.819,"amap_marker_url":"https://uri.amap.com/marker?position=114.043415,22.643353&name=%E5%8C%BB%E8%AF%BA%E5%AE%A0%E7%89%A9%E5%8C%BB%E9%99%A224H%E9%97%A8%E8%AF%8A&src=vetmap&coordinate=gaode&callnative=1"},{"name":"宠一生宠物医院猫专科","address":"油松综合市场49A栋14号","phone":"17796354933","category":"医疗保健服务;动物医疗场所;宠物诊所","area":"民治","lng":114.04422,"lat":22.638069,"amap_id":"B0J33SNCCJ","order":71,"prev_distance_km":0.593,"cumulative_distance_km":55.412,"amap_marker_url":"https://uri.amap.com/marker?position=114.044220,22.638069&name=%E5%AE%A0%E4%B8%80%E7%94%9F%E5%AE%A0%E7%89%A9%E5%8C%BB%E9%99%A2%E7%8C%AB%E4%B8%93%E7%A7%91&src=vetmap&coordinate=gaode&callnative=1"},{"name":"联合宠物医院(民治分院)","address":"民治大道水尾2区12栋2层","phone":"18123833920","category":"医疗保健服务;动物医疗场所;宠物诊所","area":"万众城","lng":114.037242,"lat":22.626935,"amap_id":"B0FFG97X1Z","order":72,"prev_distance_km":1.43,"cumulative_distance_km":56.843,"amap_marker_url":"https://uri.amap.com/marker?position=114.037242,22.626935&name=%E8%81%94%E5%90%88%E5%AE%A0%E7%89%A9%E5%8C%BB%E9%99%A2%28%E6%B0%91%E6%B2%BB%E5%88%86%E9%99%A2%29&src=vetmap&coordinate=gaode&callnative=1"},{"name":"宠域动物医院24H急诊·牙科·中兽医中心(民治店)","address":"民治大道306-5号","phone":"18603063147","category":"医疗保健服务;动物医疗场所;宠物诊所","area":"龙华","lng":114.040977,"lat":22.622645,"amap_id":"B0LK390PEX","order":73,"prev_distance_km":0.612,"cumulative_distance_km":57.455,"amap_marker_url":"https://uri.amap.com/marker?position=114.040977,22.622645&name=%E5%AE%A0%E5%9F%9F%E5%8A%A8%E7%89%A9%E5%8C%BB%E9%99%A224H%E6%80%A5%E8%AF%8A%C2%B7%E7%89%99%E7%A7%91%C2%B7%E4%B8%AD%E5%85%BD%E5%8C%BB%E4%B8%AD%E5%BF%83%28%E6%B0%91%E6%B2%BB%E5%BA%97%29&src=vetmap&coordinate=gaode&callnative=1"},{"name":"意生宠物-龙华民治店","address":"民埔路1970文化创意产业园C栋104号","phone":"19926485055","category":"医疗保健服务;动物医疗场所;动物医疗场所","area":"民治村","lng":114.044517,"lat":22.619282,"amap_id":"B0MBNRU889","order":74,"prev_distance_km":0.521,"cumulative_distance_km":57.976,"amap_marker_url":"https://uri.amap.com/marker?position=114.044517,22.619282&name=%E6%84%8F%E7%94%9F%E5%AE%A0%E7%89%A9-%E9%BE%99%E5%8D%8E%E6%B0%91%E6%B2%BB%E5%BA%97&src=vetmap&coordinate=gaode&callnative=1"},{"name":"瑞鹏宠物医院(北站分院)","address":"民治街道横岭二区三栋二楼瑞鹏宠物医院北站分院","phone":"18903026930","category":"医疗保健服务;动物医疗场所;宠物诊所","area":"民治村","lng":114.042553,"lat":22.614417,"amap_id":"B0FFFGVAHQ","order":75,"prev_distance_km":0.577,"cumulative_distance_km":58.553,"amap_marker_url":"https://uri.amap.com/marker?position=114.042553,22.614417&name=%E7%91%9E%E9%B9%8F%E5%AE%A0%E7%89%A9%E5%8C%BB%E9%99%A2%28%E5%8C%97%E7%AB%99%E5%88%86%E9%99%A2%29&src=vetmap&coordinate=gaode&callnative=1"},{"name":"亿生护宠大药房","address":"民治街道樟坑三区86-1(龙华大道1504)","phone":"13302445853","category":"医疗保健服务;动物医疗场所;宠物诊所","area":"民治","lng":114.038752,"lat":22.611291,"amap_id":"B0JU1MGWL1","order":76,"prev_distance_km":0.523,"cumulative_distance_km":59.076,"amap_marker_url":"https://uri.amap.com/marker?position=114.038752,22.611291&name=%E4%BA%BF%E7%94%9F%E6%8A%A4%E5%AE%A0%E5%A4%A7%E8%8D%AF%E6%88%BF&src=vetmap&coordinate=gaode&callnative=1"},{"name":"派胤宠物医院","address":"民治街道鑫茂花园A1栋117号","phone":"17727975332","category":"医疗保健服务;动物医疗场所;宠物诊所","area":"民治村","lng":114.044593,"lat":22.609653,"amap_id":"B0M6BAG22Z","order":77,"prev_distance_km":0.627,"cumulative_distance_km":59.703,"amap_marker_url":"https://uri.amap.com/marker?position=114.044593,22.609653&name=%E6%B4%BE%E8%83%A4%E5%AE%A0%E7%89%A9%E5%8C%BB%E9%99%A2&src=vetmap&coordinate=gaode&callnative=1"},{"name":"诺念动物医院·转诊中心(民治潜龙花园店)","address":"民治大道113号","phone":"19066358479","category":"医疗保健服务;动物医疗场所;宠物诊所","area":"民治村","lng":114.04461,"lat":22.609615,"amap_id":"B0K3XS5L3L","order":78,"prev_distance_km":0.005,"cumulative_distance_km":59.707,"amap_marker_url":"https://uri.amap.com/marker?position=114.044610,22.609615&name=%E8%AF%BA%E5%BF%B5%E5%8A%A8%E7%89%A9%E5%8C%BB%E9%99%A2%C2%B7%E8%BD%AC%E8%AF%8A%E4%B8%AD%E5%BF%83%28%E6%B0%91%E6%B2%BB%E6%BD%9C%E9%BE%99%E8%8A%B1%E5%9B%AD%E5%BA%97%29&src=vetmap&coordinate=gaode&callnative=1"},{"name":"瑞派宠物医院·眼科·口腔科·影像专科(民治院)","address":"民治街道民治大道横岭五区悦湖商住楼商铺(民治大道26-4号)","phone":"0755-23705586;19926433385","category":"医疗保健服务;动物医疗场所;宠物诊所","area":"民治","lng":114.045936,"lat":22.607296,"amap_id":"B0FFHWEE4G","order":79,"prev_distance_km":0.292,"cumulative_distance_km":59.999,"amap_marker_url":"https://uri.amap.com/marker?position=114.045936,22.607296&name=%E7%91%9E%E6%B4%BE%E5%AE%A0%E7%89%A9%E5%8C%BB%E9%99%A2%C2%B7%E7%9C%BC%E7%A7%91%C2%B7%E5%8F%A3%E8%85%94%E7%A7%91%C2%B7%E5%BD%B1%E5%83%8F%E4%B8%93%E7%A7%91%28%E6%B0%91%E6%B2%BB%E9%99%A2%29&src=vetmap&coordinate=gaode&callnative=1"},{"name":"正安宠物医院","address":"民治街道龙华大道1276号","phone":"18148560213","category":"医疗保健服务;动物医疗场所;宠物诊所","area":"民治","lng":114.044322,"lat":22.604437,"amap_id":"B0K1CR7U14","order":80,"prev_distance_km":0.358,"cumulative_distance_km":60.357,"amap_marker_url":"https://uri.amap.com/marker?position=114.044322,22.604437&name=%E6%AD%A3%E5%AE%89%E5%AE%A0%E7%89%A9%E5%8C%BB%E9%99%A2&src=vetmap&coordinate=gaode&callnative=1"},{"name":"好好宠物医院总院","address":"民治办事处汇龙苑9幢107","phone":"15919489194","category":"医疗保健服务;动物医疗场所;宠物诊所","area":"民治村","lng":114.042839,"lat":22.604258,"amap_id":"B0FFF9ZR0E","order":81,"prev_distance_km":0.154,"cumulative_distance_km":60.511,"amap_marker_url":"https://uri.amap.com/marker?position=114.042839,22.604258&name=%E5%A5%BD%E5%A5%BD%E5%AE%A0%E7%89%A9%E5%8C%BB%E9%99%A2%E6%80%BB%E9%99%A2&src=vetmap&coordinate=gaode&callnative=1"},{"name":"一心宠物","address":"葡京路与龙华大道交叉口西南80米","phone":"","category":"医疗保健服务;动物医疗场所;动物医疗场所|购物服务;专卖店;专营店","area":"民治村","lng":114.045875,"lat":22.600775,"amap_id":"B0LR7AHJXT","order":82,"prev_distance_km":0.497,"cumulative_distance_km":61.008,"amap_marker_url":"https://uri.amap.com/marker?position=114.045875,22.600775&name=%E4%B8%80%E5%BF%83%E5%AE%A0%E7%89%A9&src=vetmap&coordinate=gaode&callnative=1"},{"name":"创凡宠物医院·牙科·心脏科·猫科·体检科(龙华分院)","address":"民治街道民泰社区惠鑫公寓B栋127","phone":"0755-28014314;18165745065","category":"医疗保健服务;动物医疗场所;宠物诊所","area":"民治","lng":114.046076,"lat":22.600508,"amap_id":"B0IDFCRMZB","order":83,"prev_distance_km":0.036,"cumulative_distance_km":61.044,"amap_marker_url":"https://uri.amap.com/marker?position=114.046076,22.600508&name=%E5%88%9B%E5%87%A1%E5%AE%A0%E7%89%A9%E5%8C%BB%E9%99%A2%C2%B7%E7%89%99%E7%A7%91%C2%B7%E5%BF%83%E8%84%8F%E7%A7%91%C2%B7%E7%8C%AB%E7%A7%91%C2%B7%E4%BD%93%E6%A3%80%E7%A7%91%28%E9%BE%99%E5%8D%8E%E5%88%86%E9%99%A2%29&src=vetmap&coordinate=gaode&callnative=1"},{"name":"谢博士宠物医院(宠联民治院)","address":"民治街道民泰社区万科金域华府二期荣悦府123","phone":"18923732331","category":"医疗保健服务;动物医疗场所;宠物诊所","area":"民治","lng":114.04457,"lat":22.598813,"amap_id":"B0HAX5LLPU","order":84,"prev_distance_km":0.244,"cumulative_distance_km":61.288,"amap_marker_url":"https://uri.amap.com/marker?position=114.044570,22.598813&name=%E8%B0%A2%E5%8D%9A%E5%A3%AB%E5%AE%A0%E7%89%A9%E5%8C%BB%E9%99%A2%28%E5%AE%A0%E8%81%94%E6%B0%91%E6%B2%BB%E9%99%A2%29&src=vetmap&coordinate=gaode&callnative=1"},{"name":"默克动物医院龙华中心医院","address":"逸秀新村74栋1楼10-11号商铺","phone":"18938029114","category":"医疗保健服务;动物医疗场所;宠物诊所","area":"","lng":114.036686,"lat":22.600497,"amap_id":"B0L1ARK6TQ","order":85,"prev_distance_km":0.831,"cumulative_distance_km":62.119,"amap_marker_url":"https://uri.amap.com/marker?position=114.036686,22.600497&name=%E9%BB%98%E5%85%8B%E5%8A%A8%E7%89%A9%E5%8C%BB%E9%99%A2%E9%BE%99%E5%8D%8E%E4%B8%AD%E5%BF%83%E5%8C%BB%E9%99%A2&src=vetmap&coordinate=gaode&callnative=1"},{"name":"迪爱丝宠物诊所","address":"万家灯火4栋121商铺(梅坂大道180号)","phone":"","category":"医疗保健服务;动物医疗场所;宠物诊所","area":"民治","lng":114.054244,"lat":22.601292,"amap_id":"B0FFGXG80N","order":86,"prev_distance_km":1.805,"cumulative_distance_km":63.923,"amap_marker_url":"https://uri.amap.com/marker?position=114.054244,22.601292&name=%E8%BF%AA%E7%88%B1%E4%B8%9D%E5%AE%A0%E7%89%A9%E8%AF%8A%E6%89%80&src=vetmap&coordinate=gaode&callnative=1"},{"name":"简壹宠物诊所","address":"梅坂大道184号万家灯火4栋119号商铺","phone":"0755-21040414","category":"医疗保健服务;动物医疗场所;宠物诊所","area":"民治","lng":114.054245,"lat":22.601312,"amap_id":"B0FFM6VM4N","order":87,"prev_distance_km":0.002,"cumulative_distance_km":63.925,"amap_marker_url":"https://uri.amap.com/marker?position=114.054245,22.601312&name=%E7%AE%80%E5%A3%B9%E5%AE%A0%E7%89%A9%E8%AF%8A%E6%89%80&src=vetmap&coordinate=gaode&callnative=1"},{"name":"联合宠物医院(民乐分院)","address":"民治街道万家灯火4栋116","phone":"17376826866","category":"医疗保健服务;动物医疗场所;宠物诊所","area":"民治","lng":114.054405,"lat":22.60134,"amap_id":"B0FFK5C50E","order":88,"prev_distance_km":0.017,"cumulative_distance_km":63.942,"amap_marker_url":"https://uri.amap.com/marker?position=114.054405,22.601340&name=%E8%81%94%E5%90%88%E5%AE%A0%E7%89%A9%E5%8C%BB%E9%99%A2%28%E6%B0%91%E4%B9%90%E5%88%86%E9%99%A2%29&src=vetmap&coordinate=gaode&callnative=1"},{"name":"瑞派宠物医院(福华四季园院)","address":"民治街道民治社区春华四季园34栋131号132号","phone":"0755-21076972","category":"医疗保健服务;动物医疗场所;宠物诊所","area":"民治村","lng":114.053917,"lat":22.619474,"amap_id":"B0G3DR4R2T","order":89,"prev_distance_km":2.017,"cumulative_distance_km":65.959,"amap_marker_url":"https://uri.amap.com/marker?position=114.053917,22.619474&name=%E7%91%9E%E6%B4%BE%E5%AE%A0%E7%89%A9%E5%8C%BB%E9%99%A2%28%E7%A6%8F%E5%8D%8E%E5%9B%9B%E5%AD%A3%E5%9B%AD%E9%99%A2%29&src=vetmap&coordinate=gaode&callnative=1"},{"name":"贝思特动物医院(骨科、皮肤科、碎石中心)","address":"民治街道春华四季园12栋66号(华南路105)","phone":"13760302307","category":"医疗保健服务;动物医疗场所;宠物诊所","area":"龙华","lng":114.055206,"lat":22.62169,"amap_id":"B0LULL8O7A","order":90,"prev_distance_km":0.28,"cumulative_distance_km":66.239,"amap_marker_url":"https://uri.amap.com/marker?position=114.055206,22.621690&name=%E8%B4%9D%E6%80%9D%E7%89%B9%E5%8A%A8%E7%89%A9%E5%8C%BB%E9%99%A2%28%E9%AA%A8%E7%A7%91%E3%80%81%E7%9A%AE%E8%82%A4%E7%A7%91%E3%80%81%E7%A2%8E%E7%9F%B3%E4%B8%AD%E5%BF%83%29&src=vetmap&coordinate=gaode&callnative=1"},{"name":"佳贝宠爱洗护馆","address":"龙华街道佳贝宠爱洗护馆","phone":"13713668236","category":"医疗保健服务;动物医疗场所;动物医疗场所","area":"龙华","lng":114.043165,"lat":22.652044,"amap_id":"B0J39LD8ZH","order":91,"prev_distance_km":3.594,"cumulative_distance_km":69.833,"amap_marker_url":"https://uri.amap.com/marker?position=114.043165,22.652044&name=%E4%BD%B3%E8%B4%9D%E5%AE%A0%E7%88%B1%E6%B4%97%E6%8A%A4%E9%A6%86&src=vetmap&coordinate=gaode&callnative=1"},{"name":"珍妮宠物医院","address":"环观南路150-12","phone":"13714612409","category":"医疗保健服务;动物医疗场所;宠物诊所","area":"","lng":114.06301,"lat":22.689002,"amap_id":"B0H1U91QM0","order":92,"prev_distance_km":4.586,"cumulative_distance_km":74.419,"amap_marker_url":"https://uri.amap.com/marker?position=114.063010,22.689002&name=%E7%8F%8D%E5%A6%AE%E5%AE%A0%E7%89%A9%E5%8C%BB%E9%99%A2&src=vetmap&coordinate=gaode&callnative=1"},{"name":"米诺宠物医院","address":"观湖街道招商观园求知二路25号(公交站旁边)","phone":"15828397936","category":"医疗保健服务;动物医疗场所;宠物诊所","area":"","lng":114.063857,"lat":22.689787,"amap_id":"B0IROUX5JV","order":93,"prev_distance_km":0.123,"cumulative_distance_km":74.543,"amap_marker_url":"https://uri.amap.com/marker?position=114.063857,22.689787&name=%E7%B1%B3%E8%AF%BA%E5%AE%A0%E7%89%A9%E5%8C%BB%E9%99%A2&src=vetmap&coordinate=gaode&callnative=1"},{"name":"博群宠物医院","address":"观湖街道办新田社区新田名苑110号1层","phone":"18118734121","category":"医疗保健服务;动物医疗场所;宠物诊所","area":"","lng":114.085536,"lat":22.698028,"amap_id":"B0FFLASUKF","order":94,"prev_distance_km":2.405,"cumulative_distance_km":76.948,"amap_marker_url":"https://uri.amap.com/marker?position=114.085536,22.698028&name=%E5%8D%9A%E7%BE%A4%E5%AE%A0%E7%89%A9%E5%8C%BB%E9%99%A2&src=vetmap&coordinate=gaode&callnative=1"},{"name":"乐善宠物服务(龙华店)","address":"环观南路与观澜三号路交叉口东南80米","phone":"","category":"医疗保健服务;动物医疗场所;宠物诊所","area":"","lng":114.098525,"lat":22.736025,"amap_id":"B0M6M7VTSG","order":95,"prev_distance_km":4.43,"cumulative_distance_km":81.378,"amap_marker_url":"https://uri.amap.com/marker?position=114.098525,22.736025&name=%E4%B9%90%E5%96%84%E5%AE%A0%E7%89%A9%E6%9C%8D%E5%8A%A1%28%E9%BE%99%E5%8D%8E%E5%BA%97%29&src=vetmap&coordinate=gaode&callnative=1"}]}