{"summary":{"id":"d00769","province":"广西壮族自治区","city":"贺州市","district":"平桂区","count":6,"total_distance_km":38.613,"coordinate_system":"GCJ-02 / Amap","generated_at":"2026-05-07 20:22:22"},"rows":[{"name":"公会镇兽医门诊部","address":"爱民路与希望街交叉口北80米","phone":"","category":"医疗保健服务;动物医疗场所;兽医站","area":"","lng":111.325925,"lat":24.234275,"amap_id":"B0L0O9JUYW","order":1,"prev_distance_km":0.0,"cumulative_distance_km":0.0,"amap_marker_url":"https://uri.amap.com/marker?position=111.325925,24.234275&name=%E5%85%AC%E4%BC%9A%E9%95%87%E5%85%BD%E5%8C%BB%E9%97%A8%E8%AF%8A%E9%83%A8&src=vetmap&coordinate=gaode&callnative=1"},{"name":"道石村兽医店","address":"沙田镇327","phone":"","category":"医疗保健服务;动物医疗场所;兽医站","area":"","lng":111.492722,"lat":24.37524,"amap_id":"B0FFG6GGWJ","order":2,"prev_distance_km":23.052,"cumulative_distance_km":23.052,"amap_marker_url":"https://uri.amap.com/marker?position=111.492722,24.375240&name=%E9%81%93%E7%9F%B3%E6%9D%91%E5%85%BD%E5%8C%BB%E5%BA%97&src=vetmap&coordinate=gaode&callnative=1"},{"name":"平桂区鹅塘宏农兽药店","address":"鹅塘镇鹅塘街","phone":"13978416040","category":"医疗保健服务;动物医疗场所;动物医疗场所","area":"","lng":111.55051,"lat":24.363593,"amap_id":"B0FFKGED3C","order":3,"prev_distance_km":5.995,"cumulative_distance_km":29.047,"amap_marker_url":"https://uri.amap.com/marker?position=111.550510,24.363593&name=%E5%B9%B3%E6%A1%82%E5%8C%BA%E9%B9%85%E5%A1%98%E5%AE%8F%E5%86%9C%E5%85%BD%E8%8D%AF%E5%BA%97&src=vetmap&coordinate=gaode&callnative=1"},{"name":"平桂区鹅塘镇宏农兽药店","address":"凤田小学东南侧240米","phone":"","category":"医疗保健服务;动物医疗场所;动物医疗场所","area":"","lng":111.549816,"lat":24.364495,"amap_id":"B0LAZRXZPQ","order":4,"prev_distance_km":0.122,"cumulative_distance_km":29.17,"amap_marker_url":"https://uri.amap.com/marker?position=111.549816,24.364495&name=%E5%B9%B3%E6%A1%82%E5%8C%BA%E9%B9%85%E5%A1%98%E9%95%87%E5%AE%8F%E5%86%9C%E5%85%BD%E8%8D%AF%E5%BA%97&src=vetmap&coordinate=gaode&callnative=1"},{"name":"悦宠宠物诊疗","address":"光明大道279号8栋108号109号商铺","phone":"19997989540","category":"医疗保健服务;动物医疗场所;宠物诊所","area":"","lng":111.533294,"lat":24.418783,"amap_id":"B0KUBCZ858","order":5,"prev_distance_km":6.264,"cumulative_distance_km":35.434,"amap_marker_url":"https://uri.amap.com/marker?position=111.533294,24.418783&name=%E6%82%A6%E5%AE%A0%E5%AE%A0%E7%89%A9%E8%AF%8A%E7%96%97&src=vetmap&coordinate=gaode&callnative=1"},{"name":"国民兽药经营处","address":"黄田镇中心小学西北门旁","phone":"","category":"医疗保健服务;动物医疗场所;兽医站","area":"","lng":111.546585,"lat":24.444686,"amap_id":"B0FFK7TB19","order":6,"prev_distance_km":3.179,"cumulative_distance_km":38.613,"amap_marker_url":"https://uri.amap.com/marker?position=111.546585,24.444686&name=%E5%9B%BD%E6%B0%91%E5%85%BD%E8%8D%AF%E7%BB%8F%E8%90%A5%E5%A4%84&src=vetmap&coordinate=gaode&callnative=1"}]}