{"summary":{"id":"d00745","province":"广西壮族自治区","city":"玉林市","district":"北流市","count":12,"route_count":1,"max_route_clinics":12,"total_distance_km":69.891,"coordinate_system":"GCJ-02 / Amap","generated_at":"2026-05-07 21:28:27"},"routes":[{"id":"r1","name":"第1段","count":12,"total_distance_km":69.891,"rows":[{"name":"新圩镇水产畜牧兽医站","address":"西宁街245号北流市新圩中心卫生院","phone":"","category":"医疗保健服务;动物医疗场所;兽医站","area":"","lng":110.233672,"lat":22.741467,"amap_id":"B0FFKM4FZD","order":1,"prev_distance_km":0.0,"cumulative_distance_km":0.0,"amap_marker_url":"https://uri.amap.com/marker?position=110.233672,22.741467&name=%E6%96%B0%E5%9C%A9%E9%95%87%E6%B0%B4%E4%BA%A7%E7%95%9C%E7%89%A7%E5%85%BD%E5%8C%BB%E7%AB%99&src=vetmap&coordinate=gaode&callnative=1","route_id":"r1","route_name":"第1段"},{"name":"旺福宠物医院","address":"丰顺路35号","phone":"19978978903","category":"医疗保健服务;动物医疗场所;宠物诊所","area":"","lng":110.340747,"lat":22.697779,"amap_id":"B0HKDC0ZXD","order":2,"prev_distance_km":12.009,"cumulative_distance_km":12.009,"amap_marker_url":"https://uri.amap.com/marker?position=110.340747,22.697779&name=%E6%97%BA%E7%A6%8F%E5%AE%A0%E7%89%A9%E5%8C%BB%E9%99%A2&src=vetmap&coordinate=gaode&callnative=1","route_id":"r1","route_name":"第1段"},{"name":"爱诺宠物诊所(城南一路店)","address":"城南一路0092号","phone":"19148176232","category":"医疗保健服务;动物医疗场所;宠物诊所","area":"","lng":110.35162,"lat":22.699158,"amap_id":"B0K037Q54K","order":3,"prev_distance_km":1.126,"cumulative_distance_km":13.135,"amap_marker_url":"https://uri.amap.com/marker?position=110.351620,22.699158&name=%E7%88%B1%E8%AF%BA%E5%AE%A0%E7%89%A9%E8%AF%8A%E6%89%80%28%E5%9F%8E%E5%8D%97%E4%B8%80%E8%B7%AF%E5%BA%97%29&src=vetmap&coordinate=gaode&callnative=1","route_id":"r1","route_name":"第1段"},{"name":"真平兽药店","address":"新芝路与城南一路交叉口东北80米","phone":"18276036039","category":"医疗保健服务;动物医疗场所;动物医疗场所","area":"","lng":110.350631,"lat":22.702054,"amap_id":"B0FFHIILFJ","order":4,"prev_distance_km":0.338,"cumulative_distance_km":13.472,"amap_marker_url":"https://uri.amap.com/marker?position=110.350631,22.702054&name=%E7%9C%9F%E5%B9%B3%E5%85%BD%E8%8D%AF%E5%BA%97&src=vetmap&coordinate=gaode&callnative=1","route_id":"r1","route_name":"第1段"},{"name":"旺福宠物医院","address":"永安路0080号","phone":"18934858140","category":"医疗保健服务;动物医疗场所;宠物诊所","area":"陵城","lng":110.355111,"lat":22.706425,"amap_id":"B0FFHYDFAI","order":5,"prev_distance_km":0.669,"cumulative_distance_km":14.141,"amap_marker_url":"https://uri.amap.com/marker?position=110.355111,22.706425&name=%E6%97%BA%E7%A6%8F%E5%AE%A0%E7%89%A9%E5%8C%BB%E9%99%A2&src=vetmap&coordinate=gaode&callnative=1","route_id":"r1","route_name":"第1段"},{"name":"北流市北流镇水产畜牧兽医站","address":"河东路14号","phone":"","category":"医疗保健服务;动物医疗场所;兽医站","area":"","lng":110.358331,"lat":22.706896,"amap_id":"B0HA1BDRMI","order":6,"prev_distance_km":0.334,"cumulative_distance_km":14.476,"amap_marker_url":"https://uri.amap.com/marker?position=110.358331,22.706896&name=%E5%8C%97%E6%B5%81%E5%B8%82%E5%8C%97%E6%B5%81%E9%95%87%E6%B0%B4%E4%BA%A7%E7%95%9C%E7%89%A7%E5%85%BD%E5%8C%BB%E7%AB%99&src=vetmap&coordinate=gaode&callnative=1","route_id":"r1","route_name":"第1段"},{"name":"桂宠动物医院","address":"环城村十七组36号","phone":"19175208870","category":"医疗保健服务;动物医疗场所;宠物诊所","area":"","lng":110.359597,"lat":22.692173,"amap_id":"B0L6675H0O","order":7,"prev_distance_km":1.642,"cumulative_distance_km":16.118,"amap_marker_url":"https://uri.amap.com/marker?position=110.359597,22.692173&name=%E6%A1%82%E5%AE%A0%E5%8A%A8%E7%89%A9%E5%8C%BB%E9%99%A2&src=vetmap&coordinate=gaode&callnative=1","route_id":"r1","route_name":"第1段"},{"name":"名望宠物医院","address":"二环西路181号","phone":"13807851419","category":"医疗保健服务;动物医疗场所;宠物诊所","area":"","lng":110.349119,"lat":22.691258,"amap_id":"B0L62SPAI8","order":8,"prev_distance_km":1.08,"cumulative_distance_km":17.198,"amap_marker_url":"https://uri.amap.com/marker?position=110.349119,22.691258&name=%E5%90%8D%E6%9C%9B%E5%AE%A0%E7%89%A9%E5%8C%BB%E9%99%A2&src=vetmap&coordinate=gaode&callnative=1","route_id":"r1","route_name":"第1段"},{"name":"塘岸水产牧畜兽医站","address":"塘岸镇人民政府二楼","phone":"","category":"医疗保健服务;动物医疗场所;兽医站","area":"","lng":110.274808,"lat":22.58974,"amap_id":"B0KRYHULZ9","order":9,"prev_distance_km":13.623,"cumulative_distance_km":30.821,"amap_marker_url":"https://uri.amap.com/marker?position=110.274808,22.589740&name=%E5%A1%98%E5%B2%B8%E6%B0%B4%E4%BA%A7%E7%89%A7%E7%95%9C%E5%85%BD%E5%8C%BB%E7%AB%99&src=vetmap&coordinate=gaode&callnative=1","route_id":"r1","route_name":"第1段"},{"name":"德林社兽医社会化服务示范点","address":"A12县道与荔新大道交叉口东400米","phone":"","category":"医疗保健服务;动物医疗场所;兽医站","area":"","lng":110.527246,"lat":22.468198,"amap_id":"B0L0JOGUZ4","order":10,"prev_distance_km":29.239,"cumulative_distance_km":60.059,"amap_marker_url":"https://uri.amap.com/marker?position=110.527246,22.468198&name=%E5%BE%B7%E6%9E%97%E7%A4%BE%E5%85%BD%E5%8C%BB%E7%A4%BE%E4%BC%9A%E5%8C%96%E6%9C%8D%E5%8A%A1%E7%A4%BA%E8%8C%83%E7%82%B9&src=vetmap&coordinate=gaode&callnative=1","route_id":"r1","route_name":"第1段"},{"name":"佩倚兽药店","address":"沿江路与平政二桥交叉口北120米","phone":"","category":"医疗保健服务;动物医疗场所;动物医疗场所","area":"","lng":110.530825,"lat":22.381025,"amap_id":"B0L3JLFV6R","order":11,"prev_distance_km":9.7,"cumulative_distance_km":69.759,"amap_marker_url":"https://uri.amap.com/marker?position=110.530825,22.381025&name=%E4%BD%A9%E5%80%9A%E5%85%BD%E8%8D%AF%E5%BA%97&src=vetmap&coordinate=gaode&callnative=1","route_id":"r1","route_name":"第1段"},{"name":"平政兽药销售店","address":"北平路与新兴街交叉口东南180米","phone":"","category":"购物服务;购物相关场所;购物相关场所|医疗保健服务;动物医疗场所;动物医疗场所","area":"","lng":110.532025,"lat":22.380625,"amap_id":"B0LKXCNYPL","order":12,"prev_distance_km":0.131,"cumulative_distance_km":69.891,"amap_marker_url":"https://uri.amap.com/marker?position=110.532025,22.380625&name=%E5%B9%B3%E6%94%BF%E5%85%BD%E8%8D%AF%E9%94%80%E5%94%AE%E5%BA%97&src=vetmap&coordinate=gaode&callnative=1","route_id":"r1","route_name":"第1段"}]}],"rows":[{"name":"新圩镇水产畜牧兽医站","address":"西宁街245号北流市新圩中心卫生院","phone":"","category":"医疗保健服务;动物医疗场所;兽医站","area":"","lng":110.233672,"lat":22.741467,"amap_id":"B0FFKM4FZD","order":1,"prev_distance_km":0.0,"cumulative_distance_km":0.0,"amap_marker_url":"https://uri.amap.com/marker?position=110.233672,22.741467&name=%E6%96%B0%E5%9C%A9%E9%95%87%E6%B0%B4%E4%BA%A7%E7%95%9C%E7%89%A7%E5%85%BD%E5%8C%BB%E7%AB%99&src=vetmap&coordinate=gaode&callnative=1","route_id":"r1","route_name":"第1段","global_order":1},{"name":"旺福宠物医院","address":"丰顺路35号","phone":"19978978903","category":"医疗保健服务;动物医疗场所;宠物诊所","area":"","lng":110.340747,"lat":22.697779,"amap_id":"B0HKDC0ZXD","order":2,"prev_distance_km":12.009,"cumulative_distance_km":12.009,"amap_marker_url":"https://uri.amap.com/marker?position=110.340747,22.697779&name=%E6%97%BA%E7%A6%8F%E5%AE%A0%E7%89%A9%E5%8C%BB%E9%99%A2&src=vetmap&coordinate=gaode&callnative=1","route_id":"r1","route_name":"第1段","global_order":2},{"name":"爱诺宠物诊所(城南一路店)","address":"城南一路0092号","phone":"19148176232","category":"医疗保健服务;动物医疗场所;宠物诊所","area":"","lng":110.35162,"lat":22.699158,"amap_id":"B0K037Q54K","order":3,"prev_distance_km":1.126,"cumulative_distance_km":13.135,"amap_marker_url":"https://uri.amap.com/marker?position=110.351620,22.699158&name=%E7%88%B1%E8%AF%BA%E5%AE%A0%E7%89%A9%E8%AF%8A%E6%89%80%28%E5%9F%8E%E5%8D%97%E4%B8%80%E8%B7%AF%E5%BA%97%29&src=vetmap&coordinate=gaode&callnative=1","route_id":"r1","route_name":"第1段","global_order":3},{"name":"真平兽药店","address":"新芝路与城南一路交叉口东北80米","phone":"18276036039","category":"医疗保健服务;动物医疗场所;动物医疗场所","area":"","lng":110.350631,"lat":22.702054,"amap_id":"B0FFHIILFJ","order":4,"prev_distance_km":0.338,"cumulative_distance_km":13.472,"amap_marker_url":"https://uri.amap.com/marker?position=110.350631,22.702054&name=%E7%9C%9F%E5%B9%B3%E5%85%BD%E8%8D%AF%E5%BA%97&src=vetmap&coordinate=gaode&callnative=1","route_id":"r1","route_name":"第1段","global_order":4},{"name":"旺福宠物医院","address":"永安路0080号","phone":"18934858140","category":"医疗保健服务;动物医疗场所;宠物诊所","area":"陵城","lng":110.355111,"lat":22.706425,"amap_id":"B0FFHYDFAI","order":5,"prev_distance_km":0.669,"cumulative_distance_km":14.141,"amap_marker_url":"https://uri.amap.com/marker?position=110.355111,22.706425&name=%E6%97%BA%E7%A6%8F%E5%AE%A0%E7%89%A9%E5%8C%BB%E9%99%A2&src=vetmap&coordinate=gaode&callnative=1","route_id":"r1","route_name":"第1段","global_order":5},{"name":"北流市北流镇水产畜牧兽医站","address":"河东路14号","phone":"","category":"医疗保健服务;动物医疗场所;兽医站","area":"","lng":110.358331,"lat":22.706896,"amap_id":"B0HA1BDRMI","order":6,"prev_distance_km":0.334,"cumulative_distance_km":14.476,"amap_marker_url":"https://uri.amap.com/marker?position=110.358331,22.706896&name=%E5%8C%97%E6%B5%81%E5%B8%82%E5%8C%97%E6%B5%81%E9%95%87%E6%B0%B4%E4%BA%A7%E7%95%9C%E7%89%A7%E5%85%BD%E5%8C%BB%E7%AB%99&src=vetmap&coordinate=gaode&callnative=1","route_id":"r1","route_name":"第1段","global_order":6},{"name":"桂宠动物医院","address":"环城村十七组36号","phone":"19175208870","category":"医疗保健服务;动物医疗场所;宠物诊所","area":"","lng":110.359597,"lat":22.692173,"amap_id":"B0L6675H0O","order":7,"prev_distance_km":1.642,"cumulative_distance_km":16.118,"amap_marker_url":"https://uri.amap.com/marker?position=110.359597,22.692173&name=%E6%A1%82%E5%AE%A0%E5%8A%A8%E7%89%A9%E5%8C%BB%E9%99%A2&src=vetmap&coordinate=gaode&callnative=1","route_id":"r1","route_name":"第1段","global_order":7},{"name":"名望宠物医院","address":"二环西路181号","phone":"13807851419","category":"医疗保健服务;动物医疗场所;宠物诊所","area":"","lng":110.349119,"lat":22.691258,"amap_id":"B0L62SPAI8","order":8,"prev_distance_km":1.08,"cumulative_distance_km":17.198,"amap_marker_url":"https://uri.amap.com/marker?position=110.349119,22.691258&name=%E5%90%8D%E6%9C%9B%E5%AE%A0%E7%89%A9%E5%8C%BB%E9%99%A2&src=vetmap&coordinate=gaode&callnative=1","route_id":"r1","route_name":"第1段","global_order":8},{"name":"塘岸水产牧畜兽医站","address":"塘岸镇人民政府二楼","phone":"","category":"医疗保健服务;动物医疗场所;兽医站","area":"","lng":110.274808,"lat":22.58974,"amap_id":"B0KRYHULZ9","order":9,"prev_distance_km":13.623,"cumulative_distance_km":30.821,"amap_marker_url":"https://uri.amap.com/marker?position=110.274808,22.589740&name=%E5%A1%98%E5%B2%B8%E6%B0%B4%E4%BA%A7%E7%89%A7%E7%95%9C%E5%85%BD%E5%8C%BB%E7%AB%99&src=vetmap&coordinate=gaode&callnative=1","route_id":"r1","route_name":"第1段","global_order":9},{"name":"德林社兽医社会化服务示范点","address":"A12县道与荔新大道交叉口东400米","phone":"","category":"医疗保健服务;动物医疗场所;兽医站","area":"","lng":110.527246,"lat":22.468198,"amap_id":"B0L0JOGUZ4","order":10,"prev_distance_km":29.239,"cumulative_distance_km":60.059,"amap_marker_url":"https://uri.amap.com/marker?position=110.527246,22.468198&name=%E5%BE%B7%E6%9E%97%E7%A4%BE%E5%85%BD%E5%8C%BB%E7%A4%BE%E4%BC%9A%E5%8C%96%E6%9C%8D%E5%8A%A1%E7%A4%BA%E8%8C%83%E7%82%B9&src=vetmap&coordinate=gaode&callnative=1","route_id":"r1","route_name":"第1段","global_order":10},{"name":"佩倚兽药店","address":"沿江路与平政二桥交叉口北120米","phone":"","category":"医疗保健服务;动物医疗场所;动物医疗场所","area":"","lng":110.530825,"lat":22.381025,"amap_id":"B0L3JLFV6R","order":11,"prev_distance_km":9.7,"cumulative_distance_km":69.759,"amap_marker_url":"https://uri.amap.com/marker?position=110.530825,22.381025&name=%E4%BD%A9%E5%80%9A%E5%85%BD%E8%8D%AF%E5%BA%97&src=vetmap&coordinate=gaode&callnative=1","route_id":"r1","route_name":"第1段","global_order":11},{"name":"平政兽药销售店","address":"北平路与新兴街交叉口东南180米","phone":"","category":"购物服务;购物相关场所;购物相关场所|医疗保健服务;动物医疗场所;动物医疗场所","area":"","lng":110.532025,"lat":22.380625,"amap_id":"B0LKXCNYPL","order":12,"prev_distance_km":0.131,"cumulative_distance_km":69.891,"amap_marker_url":"https://uri.amap.com/marker?position=110.532025,22.380625&name=%E5%B9%B3%E6%94%BF%E5%85%BD%E8%8D%AF%E9%94%80%E5%94%AE%E5%BA%97&src=vetmap&coordinate=gaode&callnative=1","route_id":"r1","route_name":"第1段","global_order":12}]}