{"summary":{"id":"d00763","province":"广西壮族自治区","city":"贵港市","district":"桂平市","count":12,"route_count":1,"max_route_clinics":12,"total_distance_km":80.862,"coordinate_system":"GCJ-02 / Amap","generated_at":"2026-05-07 21:28:27"},"routes":[{"id":"r1","name":"第1段","count":12,"total_distance_km":80.862,"rows":[{"name":"桂平市大洋镇水产畜牲兽医站","address":"673县道","phone":"","category":"医疗保健服务;动物医疗场所;兽医站","area":"","lng":110.003063,"lat":23.015502,"amap_id":"B0IDYAV6IT","order":1,"prev_distance_km":0.0,"cumulative_distance_km":0.0,"amap_marker_url":"https://uri.amap.com/marker?position=110.003063,23.015502&name=%E6%A1%82%E5%B9%B3%E5%B8%82%E5%A4%A7%E6%B4%8B%E9%95%87%E6%B0%B4%E4%BA%A7%E7%95%9C%E7%89%B2%E5%85%BD%E5%8C%BB%E7%AB%99&src=vetmap&coordinate=gaode&callnative=1","route_id":"r1","route_name":"第1段"},{"name":"三千宠爱美发工作室","address":"鑫盛嘉园南侧200米","phone":"","category":"购物服务;专卖店;宠物用品店|医疗保健服务;动物医疗场所;动物医疗场所","area":"","lng":110.0644,"lat":23.351468,"amap_id":"B0K3OMMNGD","order":2,"prev_distance_km":37.88,"cumulative_distance_km":37.88,"amap_marker_url":"https://uri.amap.com/marker?position=110.064400,23.351468&name=%E4%B8%89%E5%8D%83%E5%AE%A0%E7%88%B1%E7%BE%8E%E5%8F%91%E5%B7%A5%E4%BD%9C%E5%AE%A4&src=vetmap&coordinate=gaode&callnative=1","route_id":"r1","route_name":"第1段"},{"name":"青博宠物医院·犬猫专科","address":"西山镇西山华府2-113号","phone":"13557457998","category":"医疗保健服务;动物医疗场所;宠物诊所","area":"","lng":110.064409,"lat":23.368017,"amap_id":"B0J37ROA73","order":3,"prev_distance_km":1.84,"cumulative_distance_km":39.72,"amap_marker_url":"https://uri.amap.com/marker?position=110.064409,23.368017&name=%E9%9D%92%E5%8D%9A%E5%AE%A0%E7%89%A9%E5%8C%BB%E9%99%A2%C2%B7%E7%8A%AC%E7%8C%AB%E4%B8%93%E7%A7%91&src=vetmap&coordinate=gaode&callnative=1","route_id":"r1","route_name":"第1段"},{"name":"维特动物医院(维特动物保健桂平市有限公司)","address":"桂贵中路468号","phone":"18178051330","category":"医疗保健服务;动物医疗场所;宠物诊所","area":"桂贵北路","lng":110.071584,"lat":23.372049,"amap_id":"B0M66UB2KG","order":4,"prev_distance_km":0.859,"cumulative_distance_km":40.579,"amap_marker_url":"https://uri.amap.com/marker?position=110.071584,23.372049&name=%E7%BB%B4%E7%89%B9%E5%8A%A8%E7%89%A9%E5%8C%BB%E9%99%A2%28%E7%BB%B4%E7%89%B9%E5%8A%A8%E7%89%A9%E4%BF%9D%E5%81%A5%E6%A1%82%E5%B9%B3%E5%B8%82%E6%9C%89%E9%99%90%E5%85%AC%E5%8F%B8%29&src=vetmap&coordinate=gaode&callnative=1","route_id":"r1","route_name":"第1段"},{"name":"桂荷宠物医院","address":"西山镇双拥街东路中段路口桂南路9号","phone":"18978552169","category":"医疗保健服务;动物医疗场所;宠物诊所","area":"大成中路","lng":110.075102,"lat":23.378766,"amap_id":"B0J6ZZJCC7","order":5,"prev_distance_km":0.829,"cumulative_distance_km":41.408,"amap_marker_url":"https://uri.amap.com/marker?position=110.075102,23.378766&name=%E6%A1%82%E8%8D%B7%E5%AE%A0%E7%89%A9%E5%8C%BB%E9%99%A2&src=vetmap&coordinate=gaode&callnative=1","route_id":"r1","route_name":"第1段"},{"name":"派福宠物医院","address":"郁江西堤路派福宠物医院","phone":"0775-3333066;19977583066","category":"医疗保健服务;动物医疗场所;宠物诊所","area":"","lng":110.079699,"lat":23.383116,"amap_id":"B0FFJD4JV7","order":6,"prev_distance_km":0.674,"cumulative_distance_km":42.082,"amap_marker_url":"https://uri.amap.com/marker?position=110.079699,23.383116&name=%E6%B4%BE%E7%A6%8F%E5%AE%A0%E7%89%A9%E5%8C%BB%E9%99%A2&src=vetmap&coordinate=gaode&callnative=1","route_id":"r1","route_name":"第1段"},{"name":"桂平市动物疫病预防控制中心","address":"西山镇(乳泉小学内)","phone":"","category":"医疗保健服务;动物医疗场所;动物医疗场所","area":"桂贵北路","lng":110.074901,"lat":23.392673,"amap_id":"B0FFHNQJGV","order":7,"prev_distance_km":1.17,"cumulative_distance_km":43.252,"amap_marker_url":"https://uri.amap.com/marker?position=110.074901,23.392673&name=%E6%A1%82%E5%B9%B3%E5%B8%82%E5%8A%A8%E7%89%A9%E7%96%AB%E7%97%85%E9%A2%84%E9%98%B2%E6%8E%A7%E5%88%B6%E4%B8%AD%E5%BF%83&src=vetmap&coordinate=gaode&callnative=1","route_id":"r1","route_name":"第1段"},{"name":"益民兽医经营部","address":"盛世检测站服务大厅东南侧230米","phone":"","category":"医疗保健服务;动物医疗场所;兽医站","area":"","lng":110.101206,"lat":23.382552,"amap_id":"B0L0V9J5SE","order":8,"prev_distance_km":2.911,"cumulative_distance_km":46.163,"amap_marker_url":"https://uri.amap.com/marker?position=110.101206,23.382552&name=%E7%9B%8A%E6%B0%91%E5%85%BD%E5%8C%BB%E7%BB%8F%E8%90%A5%E9%83%A8&src=vetmap&coordinate=gaode&callnative=1","route_id":"r1","route_name":"第1段"},{"name":"千益兽药店","address":"358国道与358县道交叉口南40米","phone":"","category":"医疗保健服务;动物医疗场所;动物医疗场所","area":"","lng":110.172975,"lat":23.457775,"amap_id":"B0LD5X7YTF","order":9,"prev_distance_km":11.117,"cumulative_distance_km":57.28,"amap_marker_url":"https://uri.amap.com/marker?position=110.172975,23.457775&name=%E5%8D%83%E7%9B%8A%E5%85%BD%E8%8D%AF%E5%BA%97&src=vetmap&coordinate=gaode&callnative=1","route_id":"r1","route_name":"第1段"},{"name":"桂平市石咀镇水产畜牧兽医站","address":"石咀镇","phone":"","category":"医疗保健服务;动物医疗场所;兽医站","area":"","lng":110.173226,"lat":23.457948,"amap_id":"B0FFG8YS2C","order":10,"prev_distance_km":0.032,"cumulative_distance_km":57.312,"amap_marker_url":"https://uri.amap.com/marker?position=110.173226,23.457948&name=%E6%A1%82%E5%B9%B3%E5%B8%82%E7%9F%B3%E5%92%80%E9%95%87%E6%B0%B4%E4%BA%A7%E7%95%9C%E7%89%A7%E5%85%BD%E5%8C%BB%E7%AB%99&src=vetmap&coordinate=gaode&callnative=1","route_id":"r1","route_name":"第1段"},{"name":"灵妙兽药店","address":"353县道与384县道交叉口东北20米","phone":"","category":"医疗保健服务;动物医疗场所;动物医疗场所","area":"","lng":110.218975,"lat":23.382675,"amap_id":"B0LU4OSCY1","order":11,"prev_distance_km":9.584,"cumulative_distance_km":66.896,"amap_marker_url":"https://uri.amap.com/marker?position=110.218975,23.382675&name=%E7%81%B5%E5%A6%99%E5%85%BD%E8%8D%AF%E5%BA%97&src=vetmap&coordinate=gaode&callnative=1","route_id":"r1","route_name":"第1段"},{"name":"青博宠物诊疗部","address":"迎宾大道与佳龙路交叉口东南100米","phone":"18877550788","category":"医疗保健服务;动物医疗场所;宠物诊所","area":"","lng":110.349775,"lat":23.419625,"amap_id":"B0L1UY1WS3","order":12,"prev_distance_km":13.966,"cumulative_distance_km":80.862,"amap_marker_url":"https://uri.amap.com/marker?position=110.349775,23.419625&name=%E9%9D%92%E5%8D%9A%E5%AE%A0%E7%89%A9%E8%AF%8A%E7%96%97%E9%83%A8&src=vetmap&coordinate=gaode&callnative=1","route_id":"r1","route_name":"第1段"}]}],"rows":[{"name":"桂平市大洋镇水产畜牲兽医站","address":"673县道","phone":"","category":"医疗保健服务;动物医疗场所;兽医站","area":"","lng":110.003063,"lat":23.015502,"amap_id":"B0IDYAV6IT","order":1,"prev_distance_km":0.0,"cumulative_distance_km":0.0,"amap_marker_url":"https://uri.amap.com/marker?position=110.003063,23.015502&name=%E6%A1%82%E5%B9%B3%E5%B8%82%E5%A4%A7%E6%B4%8B%E9%95%87%E6%B0%B4%E4%BA%A7%E7%95%9C%E7%89%B2%E5%85%BD%E5%8C%BB%E7%AB%99&src=vetmap&coordinate=gaode&callnative=1","route_id":"r1","route_name":"第1段","global_order":1},{"name":"三千宠爱美发工作室","address":"鑫盛嘉园南侧200米","phone":"","category":"购物服务;专卖店;宠物用品店|医疗保健服务;动物医疗场所;动物医疗场所","area":"","lng":110.0644,"lat":23.351468,"amap_id":"B0K3OMMNGD","order":2,"prev_distance_km":37.88,"cumulative_distance_km":37.88,"amap_marker_url":"https://uri.amap.com/marker?position=110.064400,23.351468&name=%E4%B8%89%E5%8D%83%E5%AE%A0%E7%88%B1%E7%BE%8E%E5%8F%91%E5%B7%A5%E4%BD%9C%E5%AE%A4&src=vetmap&coordinate=gaode&callnative=1","route_id":"r1","route_name":"第1段","global_order":2},{"name":"青博宠物医院·犬猫专科","address":"西山镇西山华府2-113号","phone":"13557457998","category":"医疗保健服务;动物医疗场所;宠物诊所","area":"","lng":110.064409,"lat":23.368017,"amap_id":"B0J37ROA73","order":3,"prev_distance_km":1.84,"cumulative_distance_km":39.72,"amap_marker_url":"https://uri.amap.com/marker?position=110.064409,23.368017&name=%E9%9D%92%E5%8D%9A%E5%AE%A0%E7%89%A9%E5%8C%BB%E9%99%A2%C2%B7%E7%8A%AC%E7%8C%AB%E4%B8%93%E7%A7%91&src=vetmap&coordinate=gaode&callnative=1","route_id":"r1","route_name":"第1段","global_order":3},{"name":"维特动物医院(维特动物保健桂平市有限公司)","address":"桂贵中路468号","phone":"18178051330","category":"医疗保健服务;动物医疗场所;宠物诊所","area":"桂贵北路","lng":110.071584,"lat":23.372049,"amap_id":"B0M66UB2KG","order":4,"prev_distance_km":0.859,"cumulative_distance_km":40.579,"amap_marker_url":"https://uri.amap.com/marker?position=110.071584,23.372049&name=%E7%BB%B4%E7%89%B9%E5%8A%A8%E7%89%A9%E5%8C%BB%E9%99%A2%28%E7%BB%B4%E7%89%B9%E5%8A%A8%E7%89%A9%E4%BF%9D%E5%81%A5%E6%A1%82%E5%B9%B3%E5%B8%82%E6%9C%89%E9%99%90%E5%85%AC%E5%8F%B8%29&src=vetmap&coordinate=gaode&callnative=1","route_id":"r1","route_name":"第1段","global_order":4},{"name":"桂荷宠物医院","address":"西山镇双拥街东路中段路口桂南路9号","phone":"18978552169","category":"医疗保健服务;动物医疗场所;宠物诊所","area":"大成中路","lng":110.075102,"lat":23.378766,"amap_id":"B0J6ZZJCC7","order":5,"prev_distance_km":0.829,"cumulative_distance_km":41.408,"amap_marker_url":"https://uri.amap.com/marker?position=110.075102,23.378766&name=%E6%A1%82%E8%8D%B7%E5%AE%A0%E7%89%A9%E5%8C%BB%E9%99%A2&src=vetmap&coordinate=gaode&callnative=1","route_id":"r1","route_name":"第1段","global_order":5},{"name":"派福宠物医院","address":"郁江西堤路派福宠物医院","phone":"0775-3333066;19977583066","category":"医疗保健服务;动物医疗场所;宠物诊所","area":"","lng":110.079699,"lat":23.383116,"amap_id":"B0FFJD4JV7","order":6,"prev_distance_km":0.674,"cumulative_distance_km":42.082,"amap_marker_url":"https://uri.amap.com/marker?position=110.079699,23.383116&name=%E6%B4%BE%E7%A6%8F%E5%AE%A0%E7%89%A9%E5%8C%BB%E9%99%A2&src=vetmap&coordinate=gaode&callnative=1","route_id":"r1","route_name":"第1段","global_order":6},{"name":"桂平市动物疫病预防控制中心","address":"西山镇(乳泉小学内)","phone":"","category":"医疗保健服务;动物医疗场所;动物医疗场所","area":"桂贵北路","lng":110.074901,"lat":23.392673,"amap_id":"B0FFHNQJGV","order":7,"prev_distance_km":1.17,"cumulative_distance_km":43.252,"amap_marker_url":"https://uri.amap.com/marker?position=110.074901,23.392673&name=%E6%A1%82%E5%B9%B3%E5%B8%82%E5%8A%A8%E7%89%A9%E7%96%AB%E7%97%85%E9%A2%84%E9%98%B2%E6%8E%A7%E5%88%B6%E4%B8%AD%E5%BF%83&src=vetmap&coordinate=gaode&callnative=1","route_id":"r1","route_name":"第1段","global_order":7},{"name":"益民兽医经营部","address":"盛世检测站服务大厅东南侧230米","phone":"","category":"医疗保健服务;动物医疗场所;兽医站","area":"","lng":110.101206,"lat":23.382552,"amap_id":"B0L0V9J5SE","order":8,"prev_distance_km":2.911,"cumulative_distance_km":46.163,"amap_marker_url":"https://uri.amap.com/marker?position=110.101206,23.382552&name=%E7%9B%8A%E6%B0%91%E5%85%BD%E5%8C%BB%E7%BB%8F%E8%90%A5%E9%83%A8&src=vetmap&coordinate=gaode&callnative=1","route_id":"r1","route_name":"第1段","global_order":8},{"name":"千益兽药店","address":"358国道与358县道交叉口南40米","phone":"","category":"医疗保健服务;动物医疗场所;动物医疗场所","area":"","lng":110.172975,"lat":23.457775,"amap_id":"B0LD5X7YTF","order":9,"prev_distance_km":11.117,"cumulative_distance_km":57.28,"amap_marker_url":"https://uri.amap.com/marker?position=110.172975,23.457775&name=%E5%8D%83%E7%9B%8A%E5%85%BD%E8%8D%AF%E5%BA%97&src=vetmap&coordinate=gaode&callnative=1","route_id":"r1","route_name":"第1段","global_order":9},{"name":"桂平市石咀镇水产畜牧兽医站","address":"石咀镇","phone":"","category":"医疗保健服务;动物医疗场所;兽医站","area":"","lng":110.173226,"lat":23.457948,"amap_id":"B0FFG8YS2C","order":10,"prev_distance_km":0.032,"cumulative_distance_km":57.312,"amap_marker_url":"https://uri.amap.com/marker?position=110.173226,23.457948&name=%E6%A1%82%E5%B9%B3%E5%B8%82%E7%9F%B3%E5%92%80%E9%95%87%E6%B0%B4%E4%BA%A7%E7%95%9C%E7%89%A7%E5%85%BD%E5%8C%BB%E7%AB%99&src=vetmap&coordinate=gaode&callnative=1","route_id":"r1","route_name":"第1段","global_order":10},{"name":"灵妙兽药店","address":"353县道与384县道交叉口东北20米","phone":"","category":"医疗保健服务;动物医疗场所;动物医疗场所","area":"","lng":110.218975,"lat":23.382675,"amap_id":"B0LU4OSCY1","order":11,"prev_distance_km":9.584,"cumulative_distance_km":66.896,"amap_marker_url":"https://uri.amap.com/marker?position=110.218975,23.382675&name=%E7%81%B5%E5%A6%99%E5%85%BD%E8%8D%AF%E5%BA%97&src=vetmap&coordinate=gaode&callnative=1","route_id":"r1","route_name":"第1段","global_order":11},{"name":"青博宠物诊疗部","address":"迎宾大道与佳龙路交叉口东南100米","phone":"18877550788","category":"医疗保健服务;动物医疗场所;宠物诊所","area":"","lng":110.349775,"lat":23.419625,"amap_id":"B0L1UY1WS3","order":12,"prev_distance_km":13.966,"cumulative_distance_km":80.862,"amap_marker_url":"https://uri.amap.com/marker?position=110.349775,23.419625&name=%E9%9D%92%E5%8D%9A%E5%AE%A0%E7%89%A9%E8%AF%8A%E7%96%97%E9%83%A8&src=vetmap&coordinate=gaode&callnative=1","route_id":"r1","route_name":"第1段","global_order":12}]}