{"summary":{"id":"d00788","province":"江苏省","city":"南京市","district":"雨花台区","count":29,"total_distance_km":33.448,"coordinate_system":"GCJ-02 / Amap","generated_at":"2026-05-07 20:22:27"},"rows":[{"name":"容泰动物医院","address":"凤汇大道12号","phone":"18914792118","category":"医疗保健服务;动物医疗场所;宠物诊所","area":"","lng":118.636883,"lat":31.928393,"amap_id":"B0K37CMURX","order":1,"prev_distance_km":0.0,"cumulative_distance_km":0.0,"amap_marker_url":"https://uri.amap.com/marker?position=118.636883,31.928393&name=%E5%AE%B9%E6%B3%B0%E5%8A%A8%E7%89%A9%E5%8C%BB%E9%99%A2&src=vetmap&coordinate=gaode&callnative=1"},{"name":"爱恩德宠物诊所","address":"新亭大街69-35号","phone":"13401979499","category":"医疗保健服务;动物医疗场所;宠物诊所","area":"梅山","lng":118.643316,"lat":31.905608,"amap_id":"B0FFFY3ZBO","order":2,"prev_distance_km":2.605,"cumulative_distance_km":2.605,"amap_marker_url":"https://uri.amap.com/marker?position=118.643316,31.905608&name=%E7%88%B1%E6%81%A9%E5%BE%B7%E5%AE%A0%E7%89%A9%E8%AF%8A%E6%89%80&src=vetmap&coordinate=gaode&callnative=1"},{"name":"柯娜宠物医院·免疫点(雨花店)","address":"新林大道9-7号亚朵酒店旁","phone":"","category":"医疗保健服务;动物医疗场所;宠物诊所","area":"","lng":118.650223,"lat":31.909665,"amap_id":"B0M63S7KEC","order":3,"prev_distance_km":0.793,"cumulative_distance_km":3.398,"amap_marker_url":"https://uri.amap.com/marker?position=118.650223,31.909665&name=%E6%9F%AF%E5%A8%9C%E5%AE%A0%E7%89%A9%E5%8C%BB%E9%99%A2%C2%B7%E5%85%8D%E7%96%AB%E7%82%B9%28%E9%9B%A8%E8%8A%B1%E5%BA%97%29&src=vetmap&coordinate=gaode&callnative=1"},{"name":"贝溪宠物医院","address":"莲花湖东街与新湖大道交叉口东南180米","phone":"18251851385","category":"医疗保健服务;动物医疗场所;宠物诊所","area":"","lng":118.661945,"lat":31.904786,"amap_id":"B0JRKC6H6M","order":4,"prev_distance_km":1.232,"cumulative_distance_km":4.63,"amap_marker_url":"https://uri.amap.com/marker?position=118.661945,31.904786&name=%E8%B4%9D%E6%BA%AA%E5%AE%A0%E7%89%A9%E5%8C%BB%E9%99%A2&src=vetmap&coordinate=gaode&callnative=1"},{"name":"板桥街道畜牧兽医站犬类免疫点","address":"板桥街与华兴路交叉口南80米","phone":"","category":"医疗保健服务;动物医疗场所;兽医站","area":"","lng":118.663826,"lat":31.918652,"amap_id":"B0FFIZCAH8","order":5,"prev_distance_km":1.552,"cumulative_distance_km":6.183,"amap_marker_url":"https://uri.amap.com/marker?position=118.663826,31.918652&name=%E6%9D%BF%E6%A1%A5%E8%A1%97%E9%81%93%E7%95%9C%E7%89%A7%E5%85%BD%E5%8C%BB%E7%AB%99%E7%8A%AC%E7%B1%BB%E5%85%8D%E7%96%AB%E7%82%B9&src=vetmap&coordinate=gaode&callnative=1"},{"name":"嘉仁宠物医院(岱山店)","address":"邱村街71-2号","phone":"025-86800094;4006999175","category":"医疗保健服务;动物医疗场所;宠物诊所","area":"","lng":118.6941,"lat":31.939218,"amap_id":"B0FFJEA22Z","order":6,"prev_distance_km":3.66,"cumulative_distance_km":9.842,"amap_marker_url":"https://uri.amap.com/marker?position=118.694100,31.939218&name=%E5%98%89%E4%BB%81%E5%AE%A0%E7%89%A9%E5%8C%BB%E9%99%A2%28%E5%B2%B1%E5%B1%B1%E5%BA%97%29&src=vetmap&coordinate=gaode&callnative=1"},{"name":"瑞鹏宠物医院(岱山分院)","address":"西善桥街道岱山北路11号和峰南岸3幢101室","phone":"025-52387636","category":"医疗保健服务;动物医疗场所;宠物诊所","area":"","lng":118.691082,"lat":31.943711,"amap_id":"B0IAZUV6BZ","order":7,"prev_distance_km":0.575,"cumulative_distance_km":10.417,"amap_marker_url":"https://uri.amap.com/marker?position=118.691082,31.943711&name=%E7%91%9E%E9%B9%8F%E5%AE%A0%E7%89%A9%E5%8C%BB%E9%99%A2%28%E5%B2%B1%E5%B1%B1%E5%88%86%E9%99%A2%29&src=vetmap&coordinate=gaode&callnative=1"},{"name":"301宠物诊所","address":"西善桥北路109-103号","phone":"18851713537","category":"医疗保健服务;动物医疗场所;宠物诊所","area":"西善桥","lng":118.718054,"lat":31.957686,"amap_id":"B0FFI8F3P3","order":8,"prev_distance_km":2.982,"cumulative_distance_km":13.399,"amap_marker_url":"https://uri.amap.com/marker?position=118.718054,31.957686&name=301%E5%AE%A0%E7%89%A9%E8%AF%8A%E6%89%80&src=vetmap&coordinate=gaode&callnative=1"},{"name":"关爱宠物诊所(西善桥店)","address":"西善桥北路93-7号","phone":"18136850924","category":"医疗保健服务;动物医疗场所;宠物诊所","area":"西善桥","lng":118.722009,"lat":31.964608,"amap_id":"B0FFFVKUDF","order":9,"prev_distance_km":0.855,"cumulative_distance_km":14.254,"amap_marker_url":"https://uri.amap.com/marker?position=118.722009,31.964608&name=%E5%85%B3%E7%88%B1%E5%AE%A0%E7%89%A9%E8%AF%8A%E6%89%80%28%E8%A5%BF%E5%96%84%E6%A1%A5%E5%BA%97%29&src=vetmap&coordinate=gaode&callnative=1"},{"name":"甲辰动物诊疗服务中心","address":"七贤街20-20号","phone":"17626067829","category":"医疗保健服务;动物医疗场所;宠物诊所","area":"西善桥","lng":118.734403,"lat":31.957212,"amap_id":"B0M6ZL1UW5","order":10,"prev_distance_km":1.429,"cumulative_distance_km":15.684,"amap_marker_url":"https://uri.amap.com/marker?position=118.734403,31.957212&name=%E7%94%B2%E8%BE%B0%E5%8A%A8%E7%89%A9%E8%AF%8A%E7%96%97%E6%9C%8D%E5%8A%A1%E4%B8%AD%E5%BF%83&src=vetmap&coordinate=gaode&callnative=1"},{"name":"市动物疫病预防控制中心","address":"大定坊路与翠岭路交叉口北300米","phone":"","category":"医疗保健服务;动物医疗场所;动物医疗场所","area":"铁心桥","lng":118.751319,"lat":31.951492,"amap_id":"B00190Z1TF","order":11,"prev_distance_km":1.718,"cumulative_distance_km":17.402,"amap_marker_url":"https://uri.amap.com/marker?position=118.751319,31.951492&name=%E5%B8%82%E5%8A%A8%E7%89%A9%E7%96%AB%E7%97%85%E9%A2%84%E9%98%B2%E6%8E%A7%E5%88%B6%E4%B8%AD%E5%BF%83&src=vetmap&coordinate=gaode&callnative=1"},{"name":"南京市动物疫病预防控制中心","address":"铁心桥街道定坊工业园宁水路199号","phone":"","category":"医疗保健服务;动物医疗场所;动物医疗场所","area":"铁心桥","lng":118.751375,"lat":31.951475,"amap_id":"B001913SBO","order":12,"prev_distance_km":0.006,"cumulative_distance_km":17.407,"amap_marker_url":"https://uri.amap.com/marker?position=118.751375,31.951475&name=%E5%8D%97%E4%BA%AC%E5%B8%82%E5%8A%A8%E7%89%A9%E7%96%AB%E7%97%85%E9%A2%84%E9%98%B2%E6%8E%A7%E5%88%B6%E4%B8%AD%E5%BF%83&src=vetmap&coordinate=gaode&callnative=1"},{"name":"雨花台区畜牧兽医站(宁水路店)","address":"铁心桥街道宁水路199号","phone":"025-52873270","category":"医疗保健服务;动物医疗场所;兽医站","area":"铁心桥","lng":118.751397,"lat":31.951433,"amap_id":"B0FFH27SPC","order":13,"prev_distance_km":0.005,"cumulative_distance_km":17.412,"amap_marker_url":"https://uri.amap.com/marker?position=118.751397,31.951433&name=%E9%9B%A8%E8%8A%B1%E5%8F%B0%E5%8C%BA%E7%95%9C%E7%89%A7%E5%85%BD%E5%8C%BB%E7%AB%99%28%E5%AE%81%E6%B0%B4%E8%B7%AF%E5%BA%97%29&src=vetmap&coordinate=gaode&callnative=1"},{"name":"青诚宠物诊疗中心","address":"宁丹路48-85号","phone":"025-52407075;13347714005","category":"医疗保健服务;动物医疗场所;宠物诊所","area":"铁心桥","lng":118.754279,"lat":31.947755,"amap_id":"B0IA95QQDX","order":14,"prev_distance_km":0.491,"cumulative_distance_km":17.904,"amap_marker_url":"https://uri.amap.com/marker?position=118.754279,31.947755&name=%E9%9D%92%E8%AF%9A%E5%AE%A0%E7%89%A9%E8%AF%8A%E7%96%97%E4%B8%AD%E5%BF%83&src=vetmap&coordinate=gaode&callnative=1"},{"name":"南京市泽维尔宠物医院","address":"莱蒙·水榭阳光小区沿街商铺宁丹路48-8948-90号","phone":"025-52459708;18013384062","category":"医疗保健服务;动物医疗场所;宠物诊所","area":"铁心桥","lng":118.75436,"lat":31.948011,"amap_id":"B0K3JN8D1O","order":15,"prev_distance_km":0.029,"cumulative_distance_km":17.933,"amap_marker_url":"https://uri.amap.com/marker?position=118.754360,31.948011&name=%E5%8D%97%E4%BA%AC%E5%B8%82%E6%B3%BD%E7%BB%B4%E5%B0%94%E5%AE%A0%E7%89%A9%E5%8C%BB%E9%99%A2&src=vetmap&coordinate=gaode&callnative=1"},{"name":"关爱宠物诊所(铁心桥店)","address":"铁心桥街道铁心桥春江路22号(近华仔理发店)","phone":"025-58839424;18652958641","category":"医疗保健服务;动物医疗场所;宠物诊所","area":"铁心桥","lng":118.758694,"lat":31.963451,"amap_id":"B0FFFDB7QH","order":16,"prev_distance_km":1.765,"cumulative_distance_km":19.698,"amap_marker_url":"https://uri.amap.com/marker?position=118.758694,31.963451&name=%E5%85%B3%E7%88%B1%E5%AE%A0%E7%89%A9%E8%AF%8A%E6%89%80%28%E9%93%81%E5%BF%83%E6%A1%A5%E5%BA%97%29&src=vetmap&coordinate=gaode&callnative=1"},{"name":"卡拉狗宠物诊所","address":"荷月路与荷影路交叉口西南80米","phone":"","category":"医疗保健服务;动物医疗场所;宠物诊所","area":"铁心桥","lng":118.770275,"lat":31.967375,"amap_id":"B0M6G9P6X9","order":17,"prev_distance_km":1.176,"cumulative_distance_km":20.874,"amap_marker_url":"https://uri.amap.com/marker?position=118.770275,31.967375&name=%E5%8D%A1%E6%8B%89%E7%8B%97%E5%AE%A0%E7%89%A9%E8%AF%8A%E6%89%80&src=vetmap&coordinate=gaode&callnative=1"},{"name":"爱瑞德宠物医院·骨科外科特色(雨花台店)","address":"软件谷花神大道11-33号","phone":"13815434824","category":"医疗保健服务;动物医疗场所;宠物诊所","area":"宁南","lng":118.776349,"lat":31.97735,"amap_id":"B0FFILG5G0","order":18,"prev_distance_km":1.248,"cumulative_distance_km":22.123,"amap_marker_url":"https://uri.amap.com/marker?position=118.776349,31.977350&name=%E7%88%B1%E7%91%9E%E5%BE%B7%E5%AE%A0%E7%89%A9%E5%8C%BB%E9%99%A2%C2%B7%E9%AA%A8%E7%A7%91%E5%A4%96%E7%A7%91%E7%89%B9%E8%89%B2%28%E9%9B%A8%E8%8A%B1%E5%8F%B0%E5%BA%97%29&src=vetmap&coordinate=gaode&callnative=1"},{"name":"福泰动物医院•24H全科诊疗•异宠","address":"花神大道11-18号(宏图上水小区西门底商)","phone":"13951916684","category":"医疗保健服务;动物医疗场所;宠物诊所","area":"宁南","lng":118.775478,"lat":31.97768,"amap_id":"B0H1HRSDLU","order":19,"prev_distance_km":0.09,"cumulative_distance_km":22.213,"amap_marker_url":"https://uri.amap.com/marker?position=118.775478,31.977680&name=%E7%A6%8F%E6%B3%B0%E5%8A%A8%E7%89%A9%E5%8C%BB%E9%99%A2%E2%80%A224H%E5%85%A8%E7%A7%91%E8%AF%8A%E7%96%97%E2%80%A2%E5%BC%82%E5%AE%A0&src=vetmap&coordinate=gaode&callnative=1"},{"name":"勇越宠物","address":"安德门大街32号紫悦广场","phone":"","category":"购物服务;专卖店;宠物用品店|医疗保健服务;动物医疗场所;动物医疗场所","area":"安德门","lng":118.760975,"lat":31.978675,"amap_id":"B0M67ZX6PM","order":20,"prev_distance_km":1.372,"cumulative_distance_km":23.585,"amap_marker_url":"https://uri.amap.com/marker?position=118.760975,31.978675&name=%E5%8B%87%E8%B6%8A%E5%AE%A0%E7%89%A9&src=vetmap&coordinate=gaode&callnative=1"},{"name":"瑞派宠物医院(小行店)","address":"小行路27号1-105","phone":"18105159539","category":"医疗保健服务;动物医疗场所;宠物诊所","area":"安德门","lng":118.75717,"lat":31.989512,"amap_id":"B0FFKHCOW4","order":21,"prev_distance_km":1.257,"cumulative_distance_km":24.842,"amap_marker_url":"https://uri.amap.com/marker?position=118.757170,31.989512&name=%E7%91%9E%E6%B4%BE%E5%AE%A0%E7%89%A9%E5%8C%BB%E9%99%A2%28%E5%B0%8F%E8%A1%8C%E5%BA%97%29&src=vetmap&coordinate=gaode&callnative=1"},{"name":"犬病临床医院","address":"小行路18号(安德门地铁站1号口步行370米)","phone":"","category":"医疗保健服务;动物医疗场所;兽医站","area":"赛虹桥","lng":118.75823,"lat":31.990481,"amap_id":"B0FFGKP3Z9","order":22,"prev_distance_km":0.147,"cumulative_distance_km":24.989,"amap_marker_url":"https://uri.amap.com/marker?position=118.758230,31.990481&name=%E7%8A%AC%E7%97%85%E4%B8%B4%E5%BA%8A%E5%8C%BB%E9%99%A2&src=vetmap&coordinate=gaode&callnative=1"},{"name":"南京警犬研究所宠物医院","address":"小行路18号(安德门地铁站1号口步行360米)","phone":"025-52881220","category":"医疗保健服务;动物医疗场所;宠物诊所","area":"安德门","lng":118.758644,"lat":31.990773,"amap_id":"B0L6HRHDAV","order":23,"prev_distance_km":0.051,"cumulative_distance_km":25.04,"amap_marker_url":"https://uri.amap.com/marker?position=118.758644,31.990773&name=%E5%8D%97%E4%BA%AC%E8%AD%A6%E7%8A%AC%E7%A0%94%E7%A9%B6%E6%89%80%E5%AE%A0%E7%89%A9%E5%8C%BB%E9%99%A2&src=vetmap&coordinate=gaode&callnative=1"},{"name":"安诺宠物医院","address":"雨花南路51-26号","phone":"17749593119","category":"医疗保健服务;动物医疗场所;宠物诊所","area":"赛虹桥","lng":118.762097,"lat":31.997042,"amap_id":"B0JUA7ZOMT","order":24,"prev_distance_km":0.769,"cumulative_distance_km":25.81,"amap_marker_url":"https://uri.amap.com/marker?position=118.762097,31.997042&name=%E5%AE%89%E8%AF%BA%E5%AE%A0%E7%89%A9%E5%8C%BB%E9%99%A2&src=vetmap&coordinate=gaode&callnative=1"},{"name":"艾贝尔宠物医院(长虹路店)","address":"长虹路441-1号","phone":"025-84811120","category":"医疗保健服务;动物医疗场所;宠物诊所","area":"赛虹桥","lng":118.767011,"lat":32.00297,"amap_id":"B0FFIWK60T","order":25,"prev_distance_km":0.806,"cumulative_distance_km":26.615,"amap_marker_url":"https://uri.amap.com/marker?position=118.767011,32.002970&name=%E8%89%BE%E8%B4%9D%E5%B0%94%E5%AE%A0%E7%89%A9%E5%8C%BB%E9%99%A2%28%E9%95%BF%E8%99%B9%E8%B7%AF%E5%BA%97%29&src=vetmap&coordinate=gaode&callnative=1"},{"name":"一加宠物医院(虹悦城分院)","address":"亚东观樾1栋236-06","phone":"025-52200759;15366040753","category":"医疗保健服务;动物医疗场所;宠物诊所","area":"赛虹桥","lng":118.765776,"lat":32.006549,"amap_id":"B0IUVHQU3B","order":26,"prev_distance_km":0.415,"cumulative_distance_km":27.03,"amap_marker_url":"https://uri.amap.com/marker?position=118.765776,32.006549&name=%E4%B8%80%E5%8A%A0%E5%AE%A0%E7%89%A9%E5%8C%BB%E9%99%A2%28%E8%99%B9%E6%82%A6%E5%9F%8E%E5%88%86%E9%99%A2%29&src=vetmap&coordinate=gaode&callnative=1"},{"name":"极致宠物医院","address":"共青团路15号","phone":"15951667564","category":"医疗保健服务;动物医疗场所;宠物诊所","area":"赛虹桥","lng":118.777442,"lat":32.003485,"amap_id":"B0G2GUMHLU","order":27,"prev_distance_km":1.152,"cumulative_distance_km":28.182,"amap_marker_url":"https://uri.amap.com/marker?position=118.777442,32.003485&name=%E6%9E%81%E8%87%B4%E5%AE%A0%E7%89%A9%E5%8C%BB%E9%99%A2&src=vetmap&coordinate=gaode&callnative=1"},{"name":"瑞鹏宠物医院(郁金香分院)","address":"郁金香路18号","phone":"025-52381597;18020151597","category":"医疗保健服务;动物医疗场所;宠物诊所","area":"宁南","lng":118.792448,"lat":31.986801,"amap_id":"B0HUJU1JID","order":28,"prev_distance_km":2.333,"cumulative_distance_km":30.515,"amap_marker_url":"https://uri.amap.com/marker?position=118.792448,31.986801&name=%E7%91%9E%E9%B9%8F%E5%AE%A0%E7%89%A9%E5%8C%BB%E9%99%A2%28%E9%83%81%E9%87%91%E9%A6%99%E5%88%86%E9%99%A2%29&src=vetmap&coordinate=gaode&callnative=1"},{"name":"瑞派宠物医院·全科异宠(南站分院)","address":"南京南广场锦致雅苑2幢7-9室","phone":"18061459562","category":"医疗保健服务;动物医疗场所;宠物诊所","area":"岔路口","lng":118.80536,"lat":31.962801,"amap_id":"B0J6ZUK3EK","order":29,"prev_distance_km":2.933,"cumulative_distance_km":33.448,"amap_marker_url":"https://uri.amap.com/marker?position=118.805360,31.962801&name=%E7%91%9E%E6%B4%BE%E5%AE%A0%E7%89%A9%E5%8C%BB%E9%99%A2%C2%B7%E5%85%A8%E7%A7%91%E5%BC%82%E5%AE%A0%28%E5%8D%97%E7%AB%99%E5%88%86%E9%99%A2%29&src=vetmap&coordinate=gaode&callnative=1"}]}