{"summary":{"id":"d00792","province":"江苏省","city":"南通市","district":"如东县","count":49,"total_distance_km":171.957,"coordinate_system":"GCJ-02 / Amap","generated_at":"2026-05-07 20:22:30"},"rows":[{"name":"长沙兽医站","address":"长兴路如东县人民法庭洋口港人民法庭","phone":"15062728700","category":"医疗保健服务;动物医疗场所;兽医站","area":"","lng":121.286877,"lat":32.406071,"amap_id":"B0FFJ7XMJH","order":1,"prev_distance_km":0.0,"cumulative_distance_km":0.0,"amap_marker_url":"https://uri.amap.com/marker?position=121.286877,32.406071&name=%E9%95%BF%E6%B2%99%E5%85%BD%E5%8C%BB%E7%AB%99&src=vetmap&coordinate=gaode&callnative=1"},{"name":"海瑞生物动保服务站","address":"北坎线与北渔线交叉口西320米","phone":"","category":"医疗保健服务;动物医疗场所;动物医疗场所","area":"","lng":121.319625,"lat":32.371975,"amap_id":"B0LDCDPTQX","order":2,"prev_distance_km":4.882,"cumulative_distance_km":4.882,"amap_marker_url":"https://uri.amap.com/marker?position=121.319625,32.371975&name=%E6%B5%B7%E7%91%9E%E7%94%9F%E7%89%A9%E5%8A%A8%E4%BF%9D%E6%9C%8D%E5%8A%A1%E7%AB%99&src=vetmap&coordinate=gaode&callnative=1"},{"name":"全正牧医","address":"长兵线与北坎线交叉口西北20米","phone":"","category":"医疗保健服务;动物医疗场所;兽医站","area":"","lng":121.296016,"lat":32.36708,"amap_id":"B0J16NTA6U","order":3,"prev_distance_km":2.283,"cumulative_distance_km":7.165,"amap_marker_url":"https://uri.amap.com/marker?position=121.296016,32.367080&name=%E5%85%A8%E6%AD%A3%E7%89%A7%E5%8C%BB&src=vetmap&coordinate=gaode&callnative=1"},{"name":"大豫兵房动物医院","address":"教育路与通海路交叉口东100米如东县图书馆(大豫分馆)附近","phone":"15962711791","category":"医疗保健服务;动物医疗场所;宠物诊所|医疗保健服务;动物医疗场所;兽医站","area":"","lng":121.298139,"lat":32.269207,"amap_id":"B0FFFSAZJ5","order":4,"prev_distance_km":10.885,"cumulative_distance_km":18.049,"amap_marker_url":"https://uri.amap.com/marker?position=121.298139,32.269207&name=%E5%A4%A7%E8%B1%AB%E5%85%B5%E6%88%BF%E5%8A%A8%E7%89%A9%E5%8C%BB%E9%99%A2&src=vetmap&coordinate=gaode&callnative=1"},{"name":"丁店兽医","address":"丁店加油站南侧260米","phone":"","category":"医疗保健服务;动物医疗场所;宠物诊所","area":"","lng":121.302336,"lat":32.222686,"amap_id":"B0KDLSSQ1L","order":5,"prev_distance_km":5.188,"cumulative_distance_km":23.237,"amap_marker_url":"https://uri.amap.com/marker?position=121.302336,32.222686&name=%E4%B8%81%E5%BA%97%E5%85%BD%E5%8C%BB&src=vetmap&coordinate=gaode&callnative=1"},{"name":"新华街老兽医站","address":"华丰大桥南路与六付头北路交叉口北20米","phone":"","category":"医疗保健服务;动物医疗场所;兽医站","area":"","lng":121.236925,"lat":32.251675,"amap_id":"B0K3R4XW87","order":6,"prev_distance_km":6.945,"cumulative_distance_km":30.183,"amap_marker_url":"https://uri.amap.com/marker?position=121.236925,32.251675&name=%E6%96%B0%E5%8D%8E%E8%A1%97%E8%80%81%E5%85%BD%E5%8C%BB%E7%AB%99&src=vetmap&coordinate=gaode&callnative=1"},{"name":"迪耐宠物诊所","address":"碧桂园东洲壹号院南门东490米","phone":"","category":"医疗保健服务;动物医疗场所;宠物诊所","area":"","lng":121.194293,"lat":32.342637,"amap_id":"B0IAGD51C4","order":7,"prev_distance_km":10.879,"cumulative_distance_km":41.062,"amap_marker_url":"https://uri.amap.com/marker?position=121.194293,32.342637&name=%E8%BF%AA%E8%80%90%E5%AE%A0%E7%89%A9%E8%AF%8A%E6%89%80&src=vetmap&coordinate=gaode&callnative=1"},{"name":"壹心宠物医院","address":"钟山路51号103商铺","phone":"13962709990","category":"医疗保健服务;动物医疗场所;宠物诊所","area":"","lng":121.181179,"lat":32.329961,"amap_id":"B0K3G78VDR","order":8,"prev_distance_km":1.872,"cumulative_distance_km":42.934,"amap_marker_url":"https://uri.amap.com/marker?position=121.181179,32.329961&name=%E5%A3%B9%E5%BF%83%E5%AE%A0%E7%89%A9%E5%8C%BB%E9%99%A2&src=vetmap&coordinate=gaode&callnative=1"},{"name":"天泽宠物医院","address":"城中街道名门世家四幢121号","phone":"13228834309","category":"医疗保健服务;动物医疗场所;宠物诊所","area":"","lng":121.18013,"lat":32.32191,"amap_id":"B0GKJHZ66V","order":9,"prev_distance_km":0.901,"cumulative_distance_km":43.835,"amap_marker_url":"https://uri.amap.com/marker?position=121.180130,32.321910&name=%E5%A4%A9%E6%B3%BD%E5%AE%A0%E7%89%A9%E5%8C%BB%E9%99%A2&src=vetmap&coordinate=gaode&callnative=1"},{"name":"美诺宠物医院","address":"润通尚城东门旁","phone":"15152153119","category":"医疗保健服务;动物医疗场所;宠物诊所","area":"","lng":121.181075,"lat":32.320225,"amap_id":"B0FFJC6LDE","order":10,"prev_distance_km":0.207,"cumulative_distance_km":44.042,"amap_marker_url":"https://uri.amap.com/marker?position=121.181075,32.320225&name=%E7%BE%8E%E8%AF%BA%E5%AE%A0%E7%89%A9%E5%8C%BB%E9%99%A2&src=vetmap&coordinate=gaode&callnative=1"},{"name":"宠康宠物医院(通海路店)","address":"城中街道通海路15-19号润通尚城162-163商铺","phone":"","category":"医疗保健服务;动物医疗场所;宠物诊所","area":"","lng":121.181075,"lat":32.3201,"amap_id":"B0JK1HHF0Y","order":11,"prev_distance_km":0.014,"cumulative_distance_km":44.056,"amap_marker_url":"https://uri.amap.com/marker?position=121.181075,32.320100&name=%E5%AE%A0%E5%BA%B7%E5%AE%A0%E7%89%A9%E5%8C%BB%E9%99%A2%28%E9%80%9A%E6%B5%B7%E8%B7%AF%E5%BA%97%29&src=vetmap&coordinate=gaode&callnative=1"},{"name":"皮大王宠物诊所(如东店)","address":"通海路88号","phone":"15050626110","category":"医疗保健服务;动物医疗场所;宠物诊所","area":"","lng":121.181576,"lat":32.320426,"amap_id":"B0FFFA37GR","order":12,"prev_distance_km":0.059,"cumulative_distance_km":44.116,"amap_marker_url":"https://uri.amap.com/marker?position=121.181576,32.320426&name=%E7%9A%AE%E5%A4%A7%E7%8E%8B%E5%AE%A0%E7%89%A9%E8%AF%8A%E6%89%80%28%E5%A6%82%E4%B8%9C%E5%BA%97%29&src=vetmap&coordinate=gaode&callnative=1"},{"name":"南通恒爱动物医院·骨外科·大猫专科·24h(如东总院)","address":"中央广场B区西南门北120米","phone":"13382364025","category":"医疗保健服务;动物医疗场所;宠物诊所","area":"","lng":121.190075,"lat":32.318125,"amap_id":"B0LDL9SZOI","order":13,"prev_distance_km":0.839,"cumulative_distance_km":44.954,"amap_marker_url":"https://uri.amap.com/marker?position=121.190075,32.318125&name=%E5%8D%97%E9%80%9A%E6%81%92%E7%88%B1%E5%8A%A8%E7%89%A9%E5%8C%BB%E9%99%A2%C2%B7%E9%AA%A8%E5%A4%96%E7%A7%91%C2%B7%E5%A4%A7%E7%8C%AB%E4%B8%93%E7%A7%91%C2%B724h%28%E5%A6%82%E4%B8%9C%E6%80%BB%E9%99%A2%29&src=vetmap&coordinate=gaode&callnative=1"},{"name":"安贝格宠物医院(如东星海店)","address":"掘港镇青园北路民生银河湾时尚街103室","phone":"0513-84665880","category":"医疗保健服务;动物医疗场所;宠物诊所","area":"青园北路","lng":121.184025,"lat":32.309725,"amap_id":"B0FFMGQASQ","order":14,"prev_distance_km":1.093,"cumulative_distance_km":46.048,"amap_marker_url":"https://uri.amap.com/marker?position=121.184025,32.309725&name=%E5%AE%89%E8%B4%9D%E6%A0%BC%E5%AE%A0%E7%89%A9%E5%8C%BB%E9%99%A2%28%E5%A6%82%E4%B8%9C%E6%98%9F%E6%B5%B7%E5%BA%97%29&src=vetmap&coordinate=gaode&callnative=1"},{"name":"如东县动物疫病预防控制中心","address":"友谊东路6号如东林果大厦F1层","phone":"","category":"医疗保健服务;动物医疗场所;动物医疗场所|医疗保健服务;疾病预防机构;疾病预防","area":"","lng":121.181915,"lat":32.302523,"amap_id":"B02010UIX2","order":15,"prev_distance_km":0.825,"cumulative_distance_km":46.873,"amap_marker_url":"https://uri.amap.com/marker?position=121.181915,32.302523&name=%E5%A6%82%E4%B8%9C%E5%8E%BF%E5%8A%A8%E7%89%A9%E7%96%AB%E7%97%85%E9%A2%84%E9%98%B2%E6%8E%A7%E5%88%B6%E4%B8%AD%E5%BF%83&src=vetmap&coordinate=gaode&callnative=1"},{"name":"如东县畜牧兽医站(友谊路店)","address":"友谊东路6号如东林果大厦F1层","phone":"","category":"医疗保健服务;动物医疗场所;兽医站","area":"","lng":121.181741,"lat":32.302546,"amap_id":"B020106IEJ","order":16,"prev_distance_km":0.017,"cumulative_distance_km":46.889,"amap_marker_url":"https://uri.amap.com/marker?position=121.181741,32.302546&name=%E5%A6%82%E4%B8%9C%E5%8E%BF%E7%95%9C%E7%89%A7%E5%85%BD%E5%8C%BB%E7%AB%99%28%E5%8F%8B%E8%B0%8A%E8%B7%AF%E5%BA%97%29&src=vetmap&coordinate=gaode&callnative=1"},{"name":"优玛宠物美容扶海洲","address":"掘港街道日晖路","phone":"18051320111","category":"医疗保健服务;动物医疗场所;宠物诊所","area":"","lng":121.177291,"lat":32.304314,"amap_id":"B0FFGICDDB","order":17,"prev_distance_km":0.462,"cumulative_distance_km":47.351,"amap_marker_url":"https://uri.amap.com/marker?position=121.177291,32.304314&name=%E4%BC%98%E7%8E%9B%E5%AE%A0%E7%89%A9%E7%BE%8E%E5%AE%B9%E6%89%B6%E6%B5%B7%E6%B4%B2&src=vetmap&coordinate=gaode&callnative=1"},{"name":"天爱宠物医院(天和总店)","address":"友谊路与朝阳路交叉口东120米","phone":"13862780701;18751359646","category":"医疗保健服务;动物医疗场所;宠物诊所","area":"","lng":121.175247,"lat":32.303678,"amap_id":"B0L66MK1S2","order":18,"prev_distance_km":0.205,"cumulative_distance_km":47.556,"amap_marker_url":"https://uri.amap.com/marker?position=121.175247,32.303678&name=%E5%A4%A9%E7%88%B1%E5%AE%A0%E7%89%A9%E5%8C%BB%E9%99%A2%28%E5%A4%A9%E5%92%8C%E6%80%BB%E5%BA%97%29&src=vetmap&coordinate=gaode&callnative=1"},{"name":"如东金正兽医大药房(世纪花苑店)","address":"掘港街道朝阳路1-29号兽药动物保健品兽医咨询服务兽用化学药品饲料添加剂药物添加剂等","phone":"13901472485","category":"医疗保健服务;动物医疗场所;兽医站","area":"","lng":121.173427,"lat":32.301045,"amap_id":"B02010WIZC","order":19,"prev_distance_km":0.339,"cumulative_distance_km":47.895,"amap_marker_url":"https://uri.amap.com/marker?position=121.173427,32.301045&name=%E5%A6%82%E4%B8%9C%E9%87%91%E6%AD%A3%E5%85%BD%E5%8C%BB%E5%A4%A7%E8%8D%AF%E6%88%BF%28%E4%B8%96%E7%BA%AA%E8%8A%B1%E8%8B%91%E5%BA%97%29&src=vetmap&coordinate=gaode&callnative=1"},{"name":"正大畜禽有限公司动物保健中心","address":"通洋路与芳泉路交叉口北200米","phone":"","category":"医疗保健服务;动物医疗场所;动物医疗场所","area":"","lng":121.167171,"lat":32.30118,"amap_id":"B02010ULRW","order":20,"prev_distance_km":0.588,"cumulative_distance_km":48.483,"amap_marker_url":"https://uri.amap.com/marker?position=121.167171,32.301180&name=%E6%AD%A3%E5%A4%A7%E7%95%9C%E7%A6%BD%E6%9C%89%E9%99%90%E5%85%AC%E5%8F%B8%E5%8A%A8%E7%89%A9%E4%BF%9D%E5%81%A5%E4%B8%AD%E5%BF%83&src=vetmap&coordinate=gaode&callnative=1"},{"name":"曹埠畜牧兽医站(曹埠农贸市场店)","address":"曹埠农贸市场(埠中路北)","phone":"","category":"医疗保健服务;动物医疗场所;兽医站","area":"","lng":121.098848,"lat":32.250592,"amap_id":"B02010U0BS","order":21,"prev_distance_km":8.538,"cumulative_distance_km":57.022,"amap_marker_url":"https://uri.amap.com/marker?position=121.098848,32.250592&name=%E6%9B%B9%E5%9F%A0%E7%95%9C%E7%89%A7%E5%85%BD%E5%8C%BB%E7%AB%99%28%E6%9B%B9%E5%9F%A0%E5%86%9C%E8%B4%B8%E5%B8%82%E5%9C%BA%E5%BA%97%29&src=vetmap&coordinate=gaode&callnative=1"},{"name":"马塘动物医院门诊部","address":"江海西路与双马路交叉口东320米","phone":"","category":"医疗保健服务;动物医疗场所;宠物诊所|医疗保健服务;动物医疗场所;兽医站","area":"","lng":121.051337,"lat":32.318447,"amap_id":"B02010UK0F","order":22,"prev_distance_km":8.768,"cumulative_distance_km":65.79,"amap_marker_url":"https://uri.amap.com/marker?position=121.051337,32.318447&name=%E9%A9%AC%E5%A1%98%E5%8A%A8%E7%89%A9%E5%8C%BB%E9%99%A2%E9%97%A8%E8%AF%8A%E9%83%A8&src=vetmap&coordinate=gaode&callnative=1"},{"name":"马塘畜牧兽医站","address":"江海西路马塘镇畜牧兽医站附近XZ01","phone":"","category":"医疗保健服务;动物医疗场所;兽医站","area":"","lng":121.051269,"lat":32.318468,"amap_id":"B0201080N7","order":23,"prev_distance_km":0.007,"cumulative_distance_km":65.796,"amap_marker_url":"https://uri.amap.com/marker?position=121.051269,32.318468&name=%E9%A9%AC%E5%A1%98%E7%95%9C%E7%89%A7%E5%85%BD%E5%8C%BB%E7%AB%99&src=vetmap&coordinate=gaode&callnative=1"},{"name":"马塘动物医院门诊部","address":"江海西路与双马路交叉口东320米","phone":"","category":"医疗保健服务;动物医疗场所;宠物诊所","area":"","lng":121.051263,"lat":32.318619,"amap_id":"B0L1CC6211","order":24,"prev_distance_km":0.017,"cumulative_distance_km":65.813,"amap_marker_url":"https://uri.amap.com/marker?position=121.051263,32.318619&name=%E9%A9%AC%E5%A1%98%E5%8A%A8%E7%89%A9%E5%8C%BB%E9%99%A2%E9%97%A8%E8%AF%8A%E9%83%A8&src=vetmap&coordinate=gaode&callnative=1"},{"name":"马塘动物医院中心门市部","address":"江海西路与丰五线交叉口东北40米","phone":"","category":"医疗保健服务;动物医疗场所;兽医站","area":"","lng":121.0377,"lat":32.319389,"amap_id":"B0LA27N0VR","order":25,"prev_distance_km":1.277,"cumulative_distance_km":67.091,"amap_marker_url":"https://uri.amap.com/marker?position=121.037700,32.319389&name=%E9%A9%AC%E5%A1%98%E5%8A%A8%E7%89%A9%E5%8C%BB%E9%99%A2%E4%B8%AD%E5%BF%83%E9%97%A8%E5%B8%82%E9%83%A8&src=vetmap&coordinate=gaode&callnative=1"},{"name":"马塘动物医院凌民门诊部","address":"中国邮政(204县道西)","phone":"0513-84566021","category":"医疗保健服务;动物医疗场所;兽医站","area":"","lng":121.043862,"lat":32.380293,"amap_id":"B02010U1TN","order":26,"prev_distance_km":6.797,"cumulative_distance_km":73.887,"amap_marker_url":"https://uri.amap.com/marker?position=121.043862,32.380293&name=%E9%A9%AC%E5%A1%98%E5%8A%A8%E7%89%A9%E5%8C%BB%E9%99%A2%E5%87%8C%E6%B0%91%E9%97%A8%E8%AF%8A%E9%83%A8&src=vetmap&coordinate=gaode&callnative=1"},{"name":"丰利兽医站门诊部","address":"丰润嘉园12幢北门东180米","phone":"","category":"医疗保健服务;动物医疗场所;兽医站","area":"","lng":121.032726,"lat":32.444053,"amap_id":"B02010W98F","order":27,"prev_distance_km":7.166,"cumulative_distance_km":81.054,"amap_marker_url":"https://uri.amap.com/marker?position=121.032726,32.444053&name=%E4%B8%B0%E5%88%A9%E5%85%BD%E5%8C%BB%E7%AB%99%E9%97%A8%E8%AF%8A%E9%83%A8&src=vetmap&coordinate=gaode&callnative=1"},{"name":"伽铭宠物","address":"洋骑线与新建西路交叉口西北180米","phone":"","category":"医疗保健服务;动物医疗场所;动物医疗场所","area":"","lng":121.038432,"lat":32.447043,"amap_id":"B0KUD9BVAQ","order":28,"prev_distance_km":0.63,"cumulative_distance_km":81.684,"amap_marker_url":"https://uri.amap.com/marker?position=121.038432,32.447043&name=%E4%BC%BD%E9%93%AD%E5%AE%A0%E7%89%A9&src=vetmap&coordinate=gaode&callnative=1"},{"name":"如东县洋口畜牧兽医站","address":"海防公路与海防线交叉口东北100米","phone":"","category":"医疗保健服务;动物医疗场所;兽医站","area":"","lng":121.000429,"lat":32.515851,"amap_id":"B0J277CWVT","order":29,"prev_distance_km":8.441,"cumulative_distance_km":90.125,"amap_marker_url":"https://uri.amap.com/marker?position=121.000429,32.515851&name=%E5%A6%82%E4%B8%9C%E5%8E%BF%E6%B4%8B%E5%8F%A3%E7%95%9C%E7%89%A7%E5%85%BD%E5%8C%BB%E7%AB%99&src=vetmap&coordinate=gaode&callnative=1"},{"name":"洋口理发","address":"海防线与洋口大道交叉口东南120米","phone":"","category":"医疗保健服务;动物医疗场所;兽医站","area":"","lng":120.998467,"lat":32.515506,"amap_id":"B0FFJY4GHZ","order":30,"prev_distance_km":0.188,"cumulative_distance_km":90.313,"amap_marker_url":"https://uri.amap.com/marker?position=120.998467,32.515506&name=%E6%B4%8B%E5%8F%A3%E7%90%86%E5%8F%91&src=vetmap&coordinate=gaode&callnative=1"},{"name":"新林兽药门市部","address":"南林大道与三野线交叉口东80米","phone":"","category":"医疗保健服务;动物医疗场所;兽医站","area":"","lng":120.93371,"lat":32.487464,"amap_id":"B0H06CFRAL","order":31,"prev_distance_km":6.827,"cumulative_distance_km":97.139,"amap_marker_url":"https://uri.amap.com/marker?position=120.933710,32.487464&name=%E6%96%B0%E6%9E%97%E5%85%BD%E8%8D%AF%E9%97%A8%E5%B8%82%E9%83%A8&src=vetmap&coordinate=gaode&callnative=1"},{"name":"立惠动保服务中心","address":"卫海路与如石北路交叉口北140米","phone":"","category":"医疗保健服务;动物医疗场所;动物医疗场所","area":"","lng":120.896864,"lat":32.539316,"amap_id":"B0L0MN7X1O","order":32,"prev_distance_km":6.722,"cumulative_distance_km":103.861,"amap_marker_url":"https://uri.amap.com/marker?position=120.896864,32.539316&name=%E7%AB%8B%E6%83%A0%E5%8A%A8%E4%BF%9D%E6%9C%8D%E5%8A%A1%E4%B8%AD%E5%BF%83&src=vetmap&coordinate=gaode&callnative=1"},{"name":"如东贝康宠物诊疗中心","address":"X215(靖双线)","phone":"15262880824","category":"医疗保健服务;动物医疗场所;宠物诊所","area":"","lng":120.895744,"lat":32.532429,"amap_id":"B0H6XRXH6Z","order":33,"prev_distance_km":0.773,"cumulative_distance_km":104.634,"amap_marker_url":"https://uri.amap.com/marker?position=120.895744,32.532429&name=%E5%A6%82%E4%B8%9C%E8%B4%9D%E5%BA%B7%E5%AE%A0%E7%89%A9%E8%AF%8A%E7%96%97%E4%B8%AD%E5%BF%83&src=vetmap&coordinate=gaode&callnative=1"},{"name":"于港畜禽服务站","address":"河口镇于栟路38号","phone":"0513-84877739;13773786209","category":"医疗保健服务;动物医疗场所;兽医站","area":"","lng":120.874429,"lat":32.480539,"amap_id":"B020107YEF","order":34,"prev_distance_km":6.106,"cumulative_distance_km":110.74,"amap_marker_url":"https://uri.amap.com/marker?position=120.874429,32.480539&name=%E4%BA%8E%E6%B8%AF%E7%95%9C%E7%A6%BD%E6%9C%8D%E5%8A%A1%E7%AB%99&src=vetmap&coordinate=gaode&callnative=1"},{"name":"如东县河口动物医院中心门诊部","address":"河口镇","phone":"13962719436","category":"医疗保健服务;动物医疗场所;宠物诊所|医疗保健服务;动物医疗场所;兽医站","area":"","lng":120.826686,"lat":32.483037,"amap_id":"B02010U1C5","order":35,"prev_distance_km":4.487,"cumulative_distance_km":115.227,"amap_marker_url":"https://uri.amap.com/marker?position=120.826686,32.483037&name=%E5%A6%82%E4%B8%9C%E5%8E%BF%E6%B2%B3%E5%8F%A3%E5%8A%A8%E7%89%A9%E5%8C%BB%E9%99%A2%E4%B8%AD%E5%BF%83%E9%97%A8%E8%AF%8A%E9%83%A8&src=vetmap&coordinate=gaode&callnative=1"},{"name":"刘医生宠物诊疗中心","address":"李庄北路与人民路交叉口西北20米","phone":"","category":"医疗保健服务;动物医疗场所;宠物诊所","area":"","lng":120.718772,"lat":32.482398,"amap_id":"B0LR6XH7JX","order":36,"prev_distance_km":10.122,"cumulative_distance_km":125.35,"amap_marker_url":"https://uri.amap.com/marker?position=120.718772,32.482398&name=%E5%88%98%E5%8C%BB%E7%94%9F%E5%AE%A0%E7%89%A9%E8%AF%8A%E7%96%97%E4%B8%AD%E5%BF%83&src=vetmap&coordinate=gaode&callnative=1"},{"name":"袁庄畜牧兽医站","address":"中心路附近","phone":"","category":"医疗保健服务;动物医疗场所;兽医站","area":"","lng":120.777634,"lat":32.443622,"amap_id":"B020107Y43","order":37,"prev_distance_km":7.006,"cumulative_distance_km":132.356,"amap_marker_url":"https://uri.amap.com/marker?position=120.777634,32.443622&name=%E8%A2%81%E5%BA%84%E7%95%9C%E7%89%A7%E5%85%BD%E5%8C%BB%E7%AB%99&src=vetmap&coordinate=gaode&callnative=1"},{"name":"赵俊动物门诊部","address":"沿双线与纵兴路交叉口西南20米","phone":"","category":"医疗保健服务;动物医疗场所;宠物诊所","area":"","lng":120.781665,"lat":32.446344,"amap_id":"B0G0KPSYBO","order":38,"prev_distance_km":0.484,"cumulative_distance_km":132.84,"amap_marker_url":"https://uri.amap.com/marker?position=120.781665,32.446344&name=%E8%B5%B5%E4%BF%8A%E5%8A%A8%E7%89%A9%E9%97%A8%E8%AF%8A%E9%83%A8&src=vetmap&coordinate=gaode&callnative=1"},{"name":"河口动物医院","address":"靖双线与南洋线交叉口西南60米","phone":"","category":"医疗保健服务;动物医疗场所;宠物诊所","area":"","lng":120.849875,"lat":32.400275,"amap_id":"B0LDTX98MZ","order":39,"prev_distance_km":8.199,"cumulative_distance_km":141.04,"amap_marker_url":"https://uri.amap.com/marker?position=120.849875,32.400275&name=%E6%B2%B3%E5%8F%A3%E5%8A%A8%E7%89%A9%E5%8C%BB%E9%99%A2&src=vetmap&coordinate=gaode&callnative=1"},{"name":"如东县双甸畜牧兽医站","address":"334省道北50米","phone":"0513-84611341","category":"医疗保健服务;动物医疗场所;兽医站","area":"","lng":120.819169,"lat":32.350922,"amap_id":"B0LGYA4QNL","order":40,"prev_distance_km":6.199,"cumulative_distance_km":147.239,"amap_marker_url":"https://uri.amap.com/marker?position=120.819169,32.350922&name=%E5%A6%82%E4%B8%9C%E5%8E%BF%E5%8F%8C%E7%94%B8%E7%95%9C%E7%89%A7%E5%85%BD%E5%8C%BB%E7%AB%99&src=vetmap&coordinate=gaode&callnative=1"},{"name":"双甸动物医院","address":"双甸镇十字路口红绿灯向西350米","phone":"","category":"医疗保健服务;动物医疗场所;兽医站","area":"","lng":120.81941,"lat":32.350963,"amap_id":"B0HB2SX36M","order":41,"prev_distance_km":0.023,"cumulative_distance_km":147.262,"amap_marker_url":"https://uri.amap.com/marker?position=120.819410,32.350963&name=%E5%8F%8C%E7%94%B8%E5%8A%A8%E7%89%A9%E5%8C%BB%E9%99%A2&src=vetmap&coordinate=gaode&callnative=1"},{"name":"沈先生宠物医院","address":"双甸江海路50号","phone":"18936425828","category":"医疗保健服务;动物医疗场所;宠物诊所","area":"","lng":120.83144,"lat":32.34928,"amap_id":"B0GRCMD5DS","order":42,"prev_distance_km":1.145,"cumulative_distance_km":148.408,"amap_marker_url":"https://uri.amap.com/marker?position=120.831440,32.349280&name=%E6%B2%88%E5%85%88%E7%94%9F%E5%AE%A0%E7%89%A9%E5%8C%BB%E9%99%A2&src=vetmap&coordinate=gaode&callnative=1"},{"name":"如东县沈师傅动物诊疗中心","address":"森纳棉纺东北门旁","phone":"0513-84610168","category":"医疗保健服务;动物医疗场所;宠物诊所|医疗保健服务;动物医疗场所;兽医站","area":"","lng":120.832902,"lat":32.348919,"amap_id":"B02010UPI8","order":43,"prev_distance_km":0.143,"cumulative_distance_km":148.551,"amap_marker_url":"https://uri.amap.com/marker?position=120.832902,32.348919&name=%E5%A6%82%E4%B8%9C%E5%8E%BF%E6%B2%88%E5%B8%88%E5%82%85%E5%8A%A8%E7%89%A9%E8%AF%8A%E7%96%97%E4%B8%AD%E5%BF%83&src=vetmap&coordinate=gaode&callnative=1"},{"name":"伴侣宠物诊所","address":"江海西路与岔新路交叉口东100米","phone":"","category":"医疗保健服务;动物医疗场所;宠物诊所","area":"","lng":120.893553,"lat":32.352203,"amap_id":"B0FFHB2QH6","order":44,"prev_distance_km":5.709,"cumulative_distance_km":154.26,"amap_marker_url":"https://uri.amap.com/marker?position=120.893553,32.352203&name=%E4%BC%B4%E4%BE%A3%E5%AE%A0%E7%89%A9%E8%AF%8A%E6%89%80&src=vetmap&coordinate=gaode&callnative=1"},{"name":"心晴宠物医院","address":"岔河镇交通西路37-5","phone":"18862775737","category":"医疗保健服务;动物医疗场所;宠物诊所","area":"","lng":120.914698,"lat":32.352489,"amap_id":"B0FFM1ANEB","order":45,"prev_distance_km":1.987,"cumulative_distance_km":156.246,"amap_marker_url":"https://uri.amap.com/marker?position=120.914698,32.352489&name=%E5%BF%83%E6%99%B4%E5%AE%A0%E7%89%A9%E5%8C%BB%E9%99%A2&src=vetmap&coordinate=gaode&callnative=1"},{"name":"如东县岔河畜牧兽医站","address":"金桥村北","phone":"0513-84318372","category":"医疗保健服务;动物医疗场所;兽医站","area":"","lng":120.937598,"lat":32.348342,"amap_id":"B0FFFPLH6Q","order":46,"prev_distance_km":2.2,"cumulative_distance_km":158.446,"amap_marker_url":"https://uri.amap.com/marker?position=120.937598,32.348342&name=%E5%A6%82%E4%B8%9C%E5%8E%BF%E5%B2%94%E6%B2%B3%E7%95%9C%E7%89%A7%E5%85%BD%E5%8C%BB%E7%AB%99&src=vetmap&coordinate=gaode&callnative=1"},{"name":"马塘动物医院潮桥动物门诊部(潮桥门诊部)","address":"潮桥十字街西120米","phone":"","category":"医疗保健服务;动物医疗场所;宠物诊所","area":"","lng":120.983012,"lat":32.333844,"amap_id":"B02010U26Y","order":47,"prev_distance_km":4.561,"cumulative_distance_km":163.007,"amap_marker_url":"https://uri.amap.com/marker?position=120.983012,32.333844&name=%E9%A9%AC%E5%A1%98%E5%8A%A8%E7%89%A9%E5%8C%BB%E9%99%A2%E6%BD%AE%E6%A1%A5%E5%8A%A8%E7%89%A9%E9%97%A8%E8%AF%8A%E9%83%A8%28%E6%BD%AE%E6%A1%A5%E9%97%A8%E8%AF%8A%E9%83%A8%29&src=vetmap&coordinate=gaode&callnative=1"},{"name":"如东县苏源动物诊疗所","address":"潮桥医院西北侧140米","phone":"18662851959","category":"医疗保健服务;动物医疗场所;兽医站","area":"","lng":120.987025,"lat":32.332284,"amap_id":"B0HAR50MEX","order":48,"prev_distance_km":0.415,"cumulative_distance_km":163.422,"amap_marker_url":"https://uri.amap.com/marker?position=120.987025,32.332284&name=%E5%A6%82%E4%B8%9C%E5%8E%BF%E8%8B%8F%E6%BA%90%E5%8A%A8%E7%89%A9%E8%AF%8A%E7%96%97%E6%89%80&src=vetmap&coordinate=gaode&callnative=1"},{"name":"新店畜牧兽医站","address":"解放路附近","phone":"15312616811","category":"医疗保健服务;动物医疗场所;兽医站","area":"","lng":120.927926,"lat":32.274007,"amap_id":"B0FFGM1VWM","order":49,"prev_distance_km":8.535,"cumulative_distance_km":171.957,"amap_marker_url":"https://uri.amap.com/marker?position=120.927926,32.274007&name=%E6%96%B0%E5%BA%97%E7%95%9C%E7%89%A7%E5%85%BD%E5%8C%BB%E7%AB%99&src=vetmap&coordinate=gaode&callnative=1"}]}