{"summary":{"id":"d00750","province":"广西壮族自治区","city":"玉林市","district":"陆川县","count":8,"total_distance_km":64.698,"coordinate_system":"GCJ-02 / Amap","generated_at":"2026-05-07 19:56:47"},"rows":[{"name":"卢辉兽医室","address":"骏马路与镇北路交叉口东北100米","phone":"0775-7029781;13878021923","category":"医疗保健服务;动物医疗场所;兽医站","area":"","lng":110.221772,"lat":22.493222,"amap_id":"B0FFGCTYHJ","order":1,"prev_distance_km":0.0,"cumulative_distance_km":0.0,"amap_marker_url":"https://uri.amap.com/marker?position=110.221772,22.493222&name=%E5%8D%A2%E8%BE%89%E5%85%BD%E5%8C%BB%E5%AE%A4&src=vetmap&coordinate=gaode&callnative=1"},{"name":"沙坡镇兽医站","address":"384县道与008乡道交叉口西100米","phone":"","category":"医疗保健服务;动物医疗场所;兽医站","area":"","lng":110.380933,"lat":22.330648,"amap_id":"B0FFJ176FI","order":2,"prev_distance_km":24.382,"cumulative_distance_km":24.382,"amap_marker_url":"https://uri.amap.com/marker?position=110.380933,22.330648&name=%E6%B2%99%E5%9D%A1%E9%95%87%E5%85%BD%E5%8C%BB%E7%AB%99&src=vetmap&coordinate=gaode&callnative=1"},{"name":"陆川县动物检疫站","address":"陆兴北路202号","phone":"","category":"医疗保健服务;动物医疗场所;兽医站","area":"","lng":110.265077,"lat":22.326633,"amap_id":"B0JR96BX05","order":3,"prev_distance_km":11.925,"cumulative_distance_km":36.307,"amap_marker_url":"https://uri.amap.com/marker?position=110.265077,22.326633&name=%E9%99%86%E5%B7%9D%E5%8E%BF%E5%8A%A8%E7%89%A9%E6%A3%80%E7%96%AB%E7%AB%99&src=vetmap&coordinate=gaode&callnative=1"},{"name":"陆川县温泉镇动物检疫申报点","address":"陆兴北路95号","phone":"","category":"医疗保健服务;动物医疗场所;动物医疗场所","area":"","lng":110.264889,"lat":22.326651,"amap_id":"B0FFKRR7S4","order":4,"prev_distance_km":0.019,"cumulative_distance_km":36.326,"amap_marker_url":"https://uri.amap.com/marker?position=110.264889,22.326651&name=%E9%99%86%E5%B7%9D%E5%8E%BF%E6%B8%A9%E6%B3%89%E9%95%87%E5%8A%A8%E7%89%A9%E6%A3%80%E7%96%AB%E7%94%B3%E6%8A%A5%E7%82%B9&src=vetmap&coordinate=gaode&callnative=1"},{"name":"陆川县动物疫病预防控制中心","address":"陆兴南路与万通路交叉口南40米","phone":"","category":"医疗保健服务;动物医疗场所;动物医疗场所","area":"","lng":110.256738,"lat":22.302766,"amap_id":"B0FFF2NWTY","order":5,"prev_distance_km":2.785,"cumulative_distance_km":39.112,"amap_marker_url":"https://uri.amap.com/marker?position=110.256738,22.302766&name=%E9%99%86%E5%B7%9D%E5%8E%BF%E5%8A%A8%E7%89%A9%E7%96%AB%E7%97%85%E9%A2%84%E9%98%B2%E6%8E%A7%E5%88%B6%E4%B8%AD%E5%BF%83&src=vetmap&coordinate=gaode&callnative=1"},{"name":"兽医技术服务部","address":"049乡道与010乡道交叉口西140米","phone":"","category":"医疗保健服务;动物医疗场所;兽医站","area":"","lng":110.151035,"lat":22.208747,"amap_id":"B0LD19MTAV","order":6,"prev_distance_km":15.087,"cumulative_distance_km":54.199,"amap_marker_url":"https://uri.amap.com/marker?position=110.151035,22.208747&name=%E5%85%BD%E5%8C%BB%E6%8A%80%E6%9C%AF%E6%9C%8D%E5%8A%A1%E9%83%A8&src=vetmap&coordinate=gaode&callnative=1"},{"name":"兽医门市部","address":"乌石卫生院西侧50米","phone":"","category":"医疗保健服务;动物医疗场所;兽医站","area":"","lng":110.236691,"lat":22.164669,"amap_id":"B0I3T5F86U","order":7,"prev_distance_km":10.09,"cumulative_distance_km":64.289,"amap_marker_url":"https://uri.amap.com/marker?position=110.236691,22.164669&name=%E5%85%BD%E5%8C%BB%E9%97%A8%E5%B8%82%E9%83%A8&src=vetmap&coordinate=gaode&callnative=1"},{"name":"酷医生川龙动保服务中心","address":"X388幸福花园北侧约190米","phone":"","category":"医疗保健服务;动物医疗场所;兽医站","area":"","lng":110.23534,"lat":22.161203,"amap_id":"B0HA1PE8U1","order":8,"prev_distance_km":0.41,"cumulative_distance_km":64.698,"amap_marker_url":"https://uri.amap.com/marker?position=110.235340,22.161203&name=%E9%85%B7%E5%8C%BB%E7%94%9F%E5%B7%9D%E9%BE%99%E5%8A%A8%E4%BF%9D%E6%9C%8D%E5%8A%A1%E4%B8%AD%E5%BF%83&src=vetmap&coordinate=gaode&callnative=1"}]}