{"summary":{"id":"d00777","province":"广西壮族自治区","city":"防城港市","district":"东兴市","count":5,"total_distance_km":19.491,"coordinate_system":"GCJ-02 / Amap","generated_at":"2026-05-07 19:56:47"},"rows":[{"name":"东兴知恩宠物诊所","address":"兴东路74号","phone":"18977060066","category":"医疗保健服务;动物医疗场所;宠物诊所","area":"","lng":107.960825,"lat":21.539942,"amap_id":"B0J0OLFOCB","order":1,"prev_distance_km":0.0,"cumulative_distance_km":0.0,"amap_marker_url":"https://uri.amap.com/marker?position=107.960825,21.539942&name=%E4%B8%9C%E5%85%B4%E7%9F%A5%E6%81%A9%E5%AE%A0%E7%89%A9%E8%AF%8A%E6%89%80&src=vetmap&coordinate=gaode&callnative=1"},{"name":"东兴市东兴镇水产畜牧兽医站","address":"金冠西路与湖南路交叉口西南40米","phone":"","category":"医疗保健服务;动物医疗场所;兽医站","area":"","lng":107.96668,"lat":21.544068,"amap_id":"B0HGKUIVUE","order":2,"prev_distance_km":0.76,"cumulative_distance_km":0.76,"amap_marker_url":"https://uri.amap.com/marker?position=107.966680,21.544068&name=%E4%B8%9C%E5%85%B4%E5%B8%82%E4%B8%9C%E5%85%B4%E9%95%87%E6%B0%B4%E4%BA%A7%E7%95%9C%E7%89%A7%E5%85%BD%E5%8C%BB%E7%AB%99&src=vetmap&coordinate=gaode&callnative=1"},{"name":"康贝尔宠物诊所","address":"东兴镇黄花岗路7号","phone":"15777016238","category":"医疗保健服务;动物医疗场所;宠物诊所","area":"","lng":107.976326,"lat":21.547339,"amap_id":"B0FFHYLRN5","order":3,"prev_distance_km":1.062,"cumulative_distance_km":1.822,"amap_marker_url":"https://uri.amap.com/marker?position=107.976326,21.547339&name=%E5%BA%B7%E8%B4%9D%E5%B0%94%E5%AE%A0%E7%89%A9%E8%AF%8A%E6%89%80&src=vetmap&coordinate=gaode&callnative=1"},{"name":"东兴市青博宠物诊疗部","address":"河堤路金岛花园1幢C3号二楼","phone":"18807806746","category":"医疗保健服务;动物医疗场所;宠物诊所","area":"","lng":107.980218,"lat":21.539323,"amap_id":"B0H33RXAXS","order":4,"prev_distance_km":0.978,"cumulative_distance_km":2.8,"amap_marker_url":"https://uri.amap.com/marker?position=107.980218,21.539323&name=%E4%B8%9C%E5%85%B4%E5%B8%82%E9%9D%92%E5%8D%9A%E5%AE%A0%E7%89%A9%E8%AF%8A%E7%96%97%E9%83%A8&src=vetmap&coordinate=gaode&callnative=1"},{"name":"德林社兽药店","address":"民族大道与金港北路交叉口西100米","phone":"","category":"医疗保健服务;动物医疗场所;动物医疗场所","area":"","lng":108.132665,"lat":21.588648,"amap_id":"B0LK2MPUBS","order":5,"prev_distance_km":16.692,"cumulative_distance_km":19.491,"amap_marker_url":"https://uri.amap.com/marker?position=108.132665,21.588648&name=%E5%BE%B7%E6%9E%97%E7%A4%BE%E5%85%BD%E8%8D%AF%E5%BA%97&src=vetmap&coordinate=gaode&callnative=1"}]}