{"summary":{"id":"d00800","province":"江苏省","city":"宿迁市","district":"沭阳县","count":57,"route_count":2,"max_route_clinics":29,"total_distance_km":194.774,"coordinate_system":"GCJ-02 / Amap","generated_at":"2026-05-07 21:28:39"},"routes":[{"id":"r1","name":"第1段","count":28,"total_distance_km":66.334,"rows":[{"name":"吴兽医服务部","address":"沭悦线与814乡道交叉口西120米","phone":"","category":"医疗保健服务;动物医疗场所;兽医站","area":"","lng":118.610175,"lat":34.081375,"amap_id":"B0L1GOC3VV","order":1,"prev_distance_km":0.0,"cumulative_distance_km":0.0,"amap_marker_url":"https://uri.amap.com/marker?position=118.610175,34.081375&name=%E5%90%B4%E5%85%BD%E5%8C%BB%E6%9C%8D%E5%8A%A1%E9%83%A8&src=vetmap&coordinate=gaode&callnative=1","route_id":"r1","route_name":"第1段"},{"name":"刘集畜牧兽医站","address":"112乡道与市场路交叉口东60米","phone":"18796496832","category":"医疗保健服务;动物医疗场所;兽医站","area":"","lng":118.624671,"lat":33.997849,"amap_id":"B0FFG9WNZR","order":2,"prev_distance_km":9.383,"cumulative_distance_km":9.383,"amap_marker_url":"https://uri.amap.com/marker?position=118.624671,33.997849&name=%E5%88%98%E9%9B%86%E7%95%9C%E7%89%A7%E5%85%BD%E5%8C%BB%E7%AB%99&src=vetmap&coordinate=gaode&callnative=1","route_id":"r1","route_name":"第1段"},{"name":"陇集镇兽医站","address":"兴隆路与颐和路交叉口西南100米","phone":"","category":"医疗保健服务;动物医疗场所;兽医站","area":"","lng":118.659882,"lat":34.03717,"amap_id":"B0JB1M9XZY","order":3,"prev_distance_km":5.445,"cumulative_distance_km":14.828,"amap_marker_url":"https://uri.amap.com/marker?position=118.659882,34.037170&name=%E9%99%87%E9%9B%86%E9%95%87%E5%85%BD%E5%8C%BB%E7%AB%99&src=vetmap&coordinate=gaode&callnative=1","route_id":"r1","route_name":"第1段"},{"name":"沭阳县陇集镇畜牧兽医站","address":"龙蟠路","phone":"","category":"医疗保健服务;动物医疗场所;兽医站","area":"","lng":118.666255,"lat":34.036537,"amap_id":"B0HB459I25","order":4,"prev_distance_km":0.591,"cumulative_distance_km":15.42,"amap_marker_url":"https://uri.amap.com/marker?position=118.666255,34.036537&name=%E6%B2%AD%E9%98%B3%E5%8E%BF%E9%99%87%E9%9B%86%E9%95%87%E7%95%9C%E7%89%A7%E5%85%BD%E5%8C%BB%E7%AB%99&src=vetmap&coordinate=gaode&callnative=1","route_id":"r1","route_name":"第1段"},{"name":"私宠家宠物诊所","address":"汇金新城南区","phone":"","category":"医疗保健服务;动物医疗场所;宠物诊所","area":"","lng":118.766875,"lat":34.095525,"amap_id":"B0L2AD25AY","order":5,"prev_distance_km":11.355,"cumulative_distance_km":26.774,"amap_marker_url":"https://uri.amap.com/marker?position=118.766875,34.095525&name=%E7%A7%81%E5%AE%A0%E5%AE%B6%E5%AE%A0%E7%89%A9%E8%AF%8A%E6%89%80&src=vetmap&coordinate=gaode&callnative=1","route_id":"r1","route_name":"第1段"},{"name":"它它宠物医院","address":"万达金街东门向南50米3-101铺","phone":"13401886262","category":"医疗保健服务;动物医疗场所;宠物诊所","area":"","lng":118.767644,"lat":34.094825,"amap_id":"B0LRMZXKS8","order":6,"prev_distance_km":0.105,"cumulative_distance_km":26.88,"amap_marker_url":"https://uri.amap.com/marker?position=118.767644,34.094825&name=%E5%AE%83%E5%AE%83%E5%AE%A0%E7%89%A9%E5%8C%BB%E9%99%A2&src=vetmap&coordinate=gaode&callnative=1","route_id":"r1","route_name":"第1段"},{"name":"调皮壮壮宠物医院南湖郡店","address":"福璟·南湖郡北门西60米","phone":"18851597726;18851597729","category":"医疗保健服务;动物医疗场所;宠物诊所","area":"","lng":118.770798,"lat":34.096127,"amap_id":"B0K6KSW88J","order":7,"prev_distance_km":0.325,"cumulative_distance_km":27.204,"amap_marker_url":"https://uri.amap.com/marker?position=118.770798,34.096127&name=%E8%B0%83%E7%9A%AE%E5%A3%AE%E5%A3%AE%E5%AE%A0%E7%89%A9%E5%8C%BB%E9%99%A2%E5%8D%97%E6%B9%96%E9%83%A1%E5%BA%97&src=vetmap&coordinate=gaode&callnative=1","route_id":"r1","route_name":"第1段"},{"name":"一诺宠物诊所","address":"临安西路368号","phone":"","category":"医疗保健服务;动物医疗场所;宠物诊所","area":"","lng":118.779188,"lat":34.106506,"amap_id":"B0HBX1VAQ3","order":8,"prev_distance_km":1.389,"cumulative_distance_km":28.593,"amap_marker_url":"https://uri.amap.com/marker?position=118.779188,34.106506&name=%E4%B8%80%E8%AF%BA%E5%AE%A0%E7%89%A9%E8%AF%8A%E6%89%80&src=vetmap&coordinate=gaode&callnative=1","route_id":"r1","route_name":"第1段"},{"name":"新诺宠物诊所","address":"临安西路220号","phone":"","category":"医疗保健服务;动物医疗场所;宠物诊所","area":"","lng":118.779196,"lat":34.106516,"amap_id":"B0K0ZCZ5KO","order":9,"prev_distance_km":0.001,"cumulative_distance_km":28.594,"amap_marker_url":"https://uri.amap.com/marker?position=118.779196,34.106516&name=%E6%96%B0%E8%AF%BA%E5%AE%A0%E7%89%A9%E8%AF%8A%E6%89%80&src=vetmap&coordinate=gaode&callnative=1","route_id":"r1","route_name":"第1段"},{"name":"道格宠物医院(大润发店)","address":"苏州西路153号","phone":"19805299997","category":"医疗保健服务;动物医疗场所;宠物诊所","area":"","lng":118.779788,"lat":34.112307,"amap_id":"B0G31HXN88","order":10,"prev_distance_km":0.646,"cumulative_distance_km":29.24,"amap_marker_url":"https://uri.amap.com/marker?position=118.779788,34.112307&name=%E9%81%93%E6%A0%BC%E5%AE%A0%E7%89%A9%E5%8C%BB%E9%99%A2%28%E5%A4%A7%E6%B6%A6%E5%8F%91%E5%BA%97%29&src=vetmap&coordinate=gaode&callnative=1","route_id":"r1","route_name":"第1段"},{"name":"嘉旭宠物诊所","address":"宁浦·冠城北门西110米","phone":"","category":"医疗保健服务;动物医疗场所;宠物诊所","area":"","lng":118.783627,"lat":34.117626,"amap_id":"B0FFK280P6","order":11,"prev_distance_km":0.689,"cumulative_distance_km":29.929,"amap_marker_url":"https://uri.amap.com/marker?position=118.783627,34.117626&name=%E5%98%89%E6%97%AD%E5%AE%A0%E7%89%A9%E8%AF%8A%E6%89%80&src=vetmap&coordinate=gaode&callnative=1","route_id":"r1","route_name":"第1段"},{"name":"暖生宠医宠物大药房","address":"广州路18号","phone":"19551811001","category":"医疗保健服务;动物医疗场所;动物医疗场所","area":"","lng":118.783982,"lat":34.118079,"amap_id":"B0LAZAP3SD","order":12,"prev_distance_km":0.06,"cumulative_distance_km":29.989,"amap_marker_url":"https://uri.amap.com/marker?position=118.783982,34.118079&name=%E6%9A%96%E7%94%9F%E5%AE%A0%E5%8C%BB%E5%AE%A0%E7%89%A9%E5%A4%A7%E8%8D%AF%E6%88%BF&src=vetmap&coordinate=gaode&callnative=1","route_id":"r1","route_name":"第1段"},{"name":"沭阳贝思特宠物医院","address":"深圳西路59号怡花苑小区二期18号楼6号","phone":"15052755755;19551811001","category":"医疗保健服务;动物医疗场所;宠物诊所","area":"","lng":118.783598,"lat":34.121549,"amap_id":"B0J3C63K9B","order":13,"prev_distance_km":0.387,"cumulative_distance_km":30.377,"amap_marker_url":"https://uri.amap.com/marker?position=118.783598,34.121549&name=%E6%B2%AD%E9%98%B3%E8%B4%9D%E6%80%9D%E7%89%B9%E5%AE%A0%E7%89%A9%E5%8C%BB%E9%99%A2&src=vetmap&coordinate=gaode&callnative=1","route_id":"r1","route_name":"第1段"},{"name":"大嘴狗宠物医院(沭阳旗舰店)","address":"怡华苑18号楼1层","phone":"0527-83591918;15751187999","category":"医疗保健服务;动物医疗场所;宠物诊所","area":"","lng":118.783303,"lat":34.121607,"amap_id":"B0FFHCX2Z8","order":14,"prev_distance_km":0.028,"cumulative_distance_km":30.405,"amap_marker_url":"https://uri.amap.com/marker?position=118.783303,34.121607&name=%E5%A4%A7%E5%98%B4%E7%8B%97%E5%AE%A0%E7%89%A9%E5%8C%BB%E9%99%A2%28%E6%B2%AD%E9%98%B3%E6%97%97%E8%88%B0%E5%BA%97%29&src=vetmap&coordinate=gaode&callnative=1","route_id":"r1","route_name":"第1段"},{"name":"沭阳伟亮动物医院(深圳西路旗舰店)","address":"深圳西路125-129号","phone":"0527-89991120;13605240606","category":"医疗保健服务;动物医疗场所;宠物诊所","area":"","lng":118.780961,"lat":34.121755,"amap_id":"B0FFHEWVEB","order":15,"prev_distance_km":0.216,"cumulative_distance_km":30.621,"amap_marker_url":"https://uri.amap.com/marker?position=118.780961,34.121755&name=%E6%B2%AD%E9%98%B3%E4%BC%9F%E4%BA%AE%E5%8A%A8%E7%89%A9%E5%8C%BB%E9%99%A2%28%E6%B7%B1%E5%9C%B3%E8%A5%BF%E8%B7%AF%E6%97%97%E8%88%B0%E5%BA%97%29&src=vetmap&coordinate=gaode&callnative=1","route_id":"r1","route_name":"第1段"},{"name":"大嘴猫宠物医院","address":"新康路与沈阳路交叉口东160米","phone":"19805231738","category":"医疗保健服务;动物医疗场所;宠物诊所","area":"","lng":118.775225,"lat":34.120525,"amap_id":"B0I2CHB8ET","order":16,"prev_distance_km":0.545,"cumulative_distance_km":31.166,"amap_marker_url":"https://uri.amap.com/marker?position=118.775225,34.120525&name=%E5%A4%A7%E5%98%B4%E7%8C%AB%E5%AE%A0%E7%89%A9%E5%8C%BB%E9%99%A2&src=vetmap&coordinate=gaode&callnative=1","route_id":"r1","route_name":"第1段"},{"name":"友爱宠物医院","address":"武夷国际城西北门旁","phone":"","category":"医疗保健服务;动物医疗场所;宠物诊所","area":"","lng":118.775075,"lat":34.120575,"amap_id":"B0L2B7LQ92","order":17,"prev_distance_km":0.015,"cumulative_distance_km":31.181,"amap_marker_url":"https://uri.amap.com/marker?position=118.775075,34.120575&name=%E5%8F%8B%E7%88%B1%E5%AE%A0%E7%89%A9%E5%8C%BB%E9%99%A2&src=vetmap&coordinate=gaode&callnative=1","route_id":"r1","route_name":"第1段"},{"name":"安安宠物医院(信安花园南区店)","address":"北京北路166-1号","phone":"13815711609","category":"医疗保健服务;动物医疗场所;宠物诊所","area":"","lng":118.770635,"lat":34.125311,"amap_id":"B0KAV7EPA1","order":18,"prev_distance_km":0.667,"cumulative_distance_km":31.848,"amap_marker_url":"https://uri.amap.com/marker?position=118.770635,34.125311&name=%E5%AE%89%E5%AE%89%E5%AE%A0%E7%89%A9%E5%8C%BB%E9%99%A2%28%E4%BF%A1%E5%AE%89%E8%8A%B1%E5%9B%AD%E5%8D%97%E5%8C%BA%E5%BA%97%29&src=vetmap&coordinate=gaode&callnative=1","route_id":"r1","route_name":"第1段"},{"name":"道格宠物医院(公园路店)","address":"公园东路223号龙凤家具城南门马路对面往东20米","phone":"19805290886","category":"医疗保健服务;动物医疗场所;宠物诊所","area":"","lng":118.783036,"lat":34.131315,"amap_id":"B0IK4ZL4LY","order":19,"prev_distance_km":1.322,"cumulative_distance_km":33.17,"amap_marker_url":"https://uri.amap.com/marker?position=118.783036,34.131315&name=%E9%81%93%E6%A0%BC%E5%AE%A0%E7%89%A9%E5%8C%BB%E9%99%A2%28%E5%85%AC%E5%9B%AD%E8%B7%AF%E5%BA%97%29&src=vetmap&coordinate=gaode&callnative=1","route_id":"r1","route_name":"第1段"},{"name":"家宝宠物医院","address":"南京西路23号","phone":"15951528875","category":"医疗保健服务;动物医疗场所;宠物诊所","area":"","lng":118.772131,"lat":34.131721,"amap_id":"B0LGDA8YCR","order":20,"prev_distance_km":1.005,"cumulative_distance_km":34.175,"amap_marker_url":"https://uri.amap.com/marker?position=118.772131,34.131721&name=%E5%AE%B6%E5%AE%9D%E5%AE%A0%E7%89%A9%E5%8C%BB%E9%99%A2&src=vetmap&coordinate=gaode&callnative=1","route_id":"r1","route_name":"第1段"},{"name":"关爱宠物医院(南京西路店)","address":"南京西路75号","phone":"0527-83564567;15370534567","category":"医疗保健服务;动物医疗场所;宠物诊所","area":"","lng":118.770976,"lat":34.132063,"amap_id":"B0FFFS63A5","order":21,"prev_distance_km":0.113,"cumulative_distance_km":34.288,"amap_marker_url":"https://uri.amap.com/marker?position=118.770976,34.132063&name=%E5%85%B3%E7%88%B1%E5%AE%A0%E7%89%A9%E5%8C%BB%E9%99%A2%28%E5%8D%97%E4%BA%AC%E8%A5%BF%E8%B7%AF%E5%BA%97%29&src=vetmap&coordinate=gaode&callnative=1","route_id":"r1","route_name":"第1段"},{"name":"爱心宠物医院","address":"南京路134号","phone":"13511778681","category":"医疗保健服务;动物医疗场所;宠物诊所","area":"","lng":118.769218,"lat":34.133445,"amap_id":"B0FFFDCU49","order":22,"prev_distance_km":0.223,"cumulative_distance_km":34.511,"amap_marker_url":"https://uri.amap.com/marker?position=118.769218,34.133445&name=%E7%88%B1%E5%BF%83%E5%AE%A0%E7%89%A9%E5%8C%BB%E9%99%A2&src=vetmap&coordinate=gaode&callnative=1","route_id":"r1","route_name":"第1段"},{"name":"沭阳县畜牧兽医站","address":"南京东路170号","phone":"","category":"医疗保健服务;动物医疗场所;兽医站","area":"","lng":118.766703,"lat":34.134185,"amap_id":"B020F0128E","order":23,"prev_distance_km":0.246,"cumulative_distance_km":34.757,"amap_marker_url":"https://uri.amap.com/marker?position=118.766703,34.134185&name=%E6%B2%AD%E9%98%B3%E5%8E%BF%E7%95%9C%E7%89%A7%E5%85%BD%E5%8C%BB%E7%AB%99&src=vetmap&coordinate=gaode&callnative=1","route_id":"r1","route_name":"第1段"},{"name":"动物门诊部","address":"南京西路172号","phone":"13511773835","category":"医疗保健服务;动物医疗场所;宠物诊所","area":"","lng":118.76639,"lat":34.134264,"amap_id":"B0FFGXZ8FK","order":24,"prev_distance_km":0.03,"cumulative_distance_km":34.787,"amap_marker_url":"https://uri.amap.com/marker?position=118.766390,34.134264&name=%E5%8A%A8%E7%89%A9%E9%97%A8%E8%AF%8A%E9%83%A8&src=vetmap&coordinate=gaode&callnative=1","route_id":"r1","route_name":"第1段"},{"name":"康康动物诊所","address":"中华西路168号","phone":"19905241956","category":"医疗保健服务;动物医疗场所;宠物诊所","area":"","lng":118.751668,"lat":34.130393,"amap_id":"B0H3DUSM41","order":25,"prev_distance_km":1.422,"cumulative_distance_km":36.209,"amap_marker_url":"https://uri.amap.com/marker?position=118.751668,34.130393&name=%E5%BA%B7%E5%BA%B7%E5%8A%A8%E7%89%A9%E8%AF%8A%E6%89%80&src=vetmap&coordinate=gaode&callnative=1","route_id":"r1","route_name":"第1段"},{"name":"瑞康宠物","address":"江苏省宿迁市沭阳县贤官镇贤官居委会一组140号","phone":"","category":"医疗保健服务;动物医疗场所;宠物诊所","area":"","lng":118.773107,"lat":34.243573,"amap_id":"B0LBP7GAI8","order":26,"prev_distance_km":12.739,"cumulative_distance_km":48.947,"amap_marker_url":"https://uri.amap.com/marker?position=118.773107,34.243573&name=%E7%91%9E%E5%BA%B7%E5%AE%A0%E7%89%A9&src=vetmap&coordinate=gaode&callnative=1","route_id":"r1","route_name":"第1段"},{"name":"沭阳县庙头镇畜牧兽医站","address":"长江路与泰山路交叉口西320米","phone":"","category":"医疗保健服务;动物医疗场所;兽医站","area":"","lng":118.705088,"lat":34.206829,"amap_id":"B0FFGAV87K","order":27,"prev_distance_km":7.47,"cumulative_distance_km":56.417,"amap_marker_url":"https://uri.amap.com/marker?position=118.705088,34.206829&name=%E6%B2%AD%E9%98%B3%E5%8E%BF%E5%BA%99%E5%A4%B4%E9%95%87%E7%95%9C%E7%89%A7%E5%85%BD%E5%8C%BB%E7%AB%99&src=vetmap&coordinate=gaode&callnative=1","route_id":"r1","route_name":"第1段"},{"name":"沭阳县潼阳镇畜牧兽医站","address":"205国道与朝阳路交叉口东南160米","phone":"","category":"医疗保健服务;动物医疗场所;兽医站","area":"","lng":118.627658,"lat":34.268927,"amap_id":"B020F0ILQ2","order":28,"prev_distance_km":9.917,"cumulative_distance_km":66.334,"amap_marker_url":"https://uri.amap.com/marker?position=118.627658,34.268927&name=%E6%B2%AD%E9%98%B3%E5%8E%BF%E6%BD%BC%E9%98%B3%E9%95%87%E7%95%9C%E7%89%A7%E5%85%BD%E5%8C%BB%E7%AB%99&src=vetmap&coordinate=gaode&callnative=1","route_id":"r1","route_name":"第1段"}]},{"id":"r2","name":"第2段","count":29,"total_distance_km":128.44,"rows":[{"name":"沭阳县沂涛镇畜牧兽医站","address":"沂涛镇太平街98号附近","phone":"","category":"医疗保健服务;动物医疗场所;兽医站","area":"","lng":119.118449,"lat":34.071253,"amap_id":"B0FFGWXTJZ","order":1,"prev_distance_km":0.0,"cumulative_distance_km":0.0,"amap_marker_url":"https://uri.amap.com/marker?position=119.118449,34.071253&name=%E6%B2%AD%E9%98%B3%E5%8E%BF%E6%B2%82%E6%B6%9B%E9%95%87%E7%95%9C%E7%89%A7%E5%85%BD%E5%8C%BB%E7%AB%99&src=vetmap&coordinate=gaode&callnative=1","route_id":"r2","route_name":"第2段"},{"name":"畜禽咨询服务部","address":"天津路与南京东路交叉口西南60米","phone":"","category":"医疗保健服务;动物医疗场所;兽医站","area":"","lng":119.024861,"lat":34.073949,"amap_id":"B0HA6D9RTM","order":2,"prev_distance_km":8.625,"cumulative_distance_km":8.625,"amap_marker_url":"https://uri.amap.com/marker?position=119.024861,34.073949&name=%E7%95%9C%E7%A6%BD%E5%92%A8%E8%AF%A2%E6%9C%8D%E5%8A%A1%E9%83%A8&src=vetmap&coordinate=gaode&callnative=1","route_id":"r2","route_name":"第2段"},{"name":"宠物门诊防疫","address":"南京西路与港河路交叉口西280米","phone":"","category":"医疗保健服务;动物医疗场所;宠物诊所","area":"","lng":119.01241,"lat":34.076195,"amap_id":"B0K15AO3XR","order":3,"prev_distance_km":1.174,"cumulative_distance_km":9.799,"amap_marker_url":"https://uri.amap.com/marker?position=119.012410,34.076195&name=%E5%AE%A0%E7%89%A9%E9%97%A8%E8%AF%8A%E9%98%B2%E7%96%AB&src=vetmap&coordinate=gaode&callnative=1","route_id":"r2","route_name":"第2段"},{"name":"马厂镇畜牧兽医站","address":"港河路与深圳路交叉口西北460米","phone":"15851183143","category":"医疗保健服务;动物医疗场所;兽医站","area":"","lng":119.010335,"lat":34.076002,"amap_id":"B0FFJE2CYN","order":4,"prev_distance_km":0.192,"cumulative_distance_km":9.991,"amap_marker_url":"https://uri.amap.com/marker?position=119.010335,34.076002&name=%E9%A9%AC%E5%8E%82%E9%95%87%E7%95%9C%E7%89%A7%E5%85%BD%E5%8C%BB%E7%AB%99&src=vetmap&coordinate=gaode&callnative=1","route_id":"r2","route_name":"第2段"},{"name":"沭阳县吴集镇畜牧兽医站","address":"南京路","phone":"13151834928;15250749088","category":"医疗保健服务;动物医疗场所;兽医站","area":"","lng":119.038789,"lat":34.195708,"amap_id":"B020F154PH","order":5,"prev_distance_km":13.566,"cumulative_distance_km":23.557,"amap_marker_url":"https://uri.amap.com/marker?position=119.038789,34.195708&name=%E6%B2%AD%E9%98%B3%E5%8E%BF%E5%90%B4%E9%9B%86%E9%95%87%E7%95%9C%E7%89%A7%E5%85%BD%E5%8C%BB%E7%AB%99&src=vetmap&coordinate=gaode&callnative=1","route_id":"r2","route_name":"第2段"},{"name":"宠物门诊","address":"高韩线与湖北路交叉口北180米","phone":"13013901558","category":"医疗保健服务;动物医疗场所;宠物诊所","area":"","lng":118.974632,"lat":34.310479,"amap_id":"B0FFKJ4K8I","order":6,"prev_distance_km":14.058,"cumulative_distance_km":37.615,"amap_marker_url":"https://uri.amap.com/marker?position=118.974632,34.310479&name=%E5%AE%A0%E7%89%A9%E9%97%A8%E8%AF%8A&src=vetmap&coordinate=gaode&callnative=1","route_id":"r2","route_name":"第2段"},{"name":"高墟畜牧兽医服务有限公司","address":"新风路与富墟路交叉口北80米","phone":"","category":"医疗保健服务;动物医疗场所;兽医站","area":"","lng":119.010126,"lat":34.340667,"amap_id":"B0JKFC3NN9","order":7,"prev_distance_km":4.679,"cumulative_distance_km":42.294,"amap_marker_url":"https://uri.amap.com/marker?position=119.010126,34.340667&name=%E9%AB%98%E5%A2%9F%E7%95%9C%E7%89%A7%E5%85%BD%E5%8C%BB%E6%9C%8D%E5%8A%A1%E6%9C%89%E9%99%90%E5%85%AC%E5%8F%B8&src=vetmap&coordinate=gaode&callnative=1","route_id":"r2","route_name":"第2段"},{"name":"宠物诊所","address":"龙青线东侧","phone":"","category":"医疗保健服务;动物医疗场所;宠物诊所","area":"","lng":118.917675,"lat":34.361675,"amap_id":"B0M6XHPXU7","order":8,"prev_distance_km":8.803,"cumulative_distance_km":51.097,"amap_marker_url":"https://uri.amap.com/marker?position=118.917675,34.361675&name=%E5%AE%A0%E7%89%A9%E8%AF%8A%E6%89%80&src=vetmap&coordinate=gaode&callnative=1","route_id":"r2","route_name":"第2段"},{"name":"桑墟镇兽医站","address":"625乡道西50米","phone":"0527-83250287;13585278681","category":"医疗保健服务;动物医疗场所;兽医站","area":"","lng":118.829685,"lat":34.316779,"amap_id":"B0FFI74SKA","order":9,"prev_distance_km":9.497,"cumulative_distance_km":60.594,"amap_marker_url":"https://uri.amap.com/marker?position=118.829685,34.316779&name=%E6%A1%91%E5%A2%9F%E9%95%87%E5%85%BD%E5%8C%BB%E7%AB%99&src=vetmap&coordinate=gaode&callnative=1","route_id":"r2","route_name":"第2段"},{"name":"桑墟镇畜牧兽医站","address":"五里街与虹河东路交叉口西220米","phone":"","category":"医疗保健服务;动物医疗场所;兽医站","area":"","lng":118.826025,"lat":34.312125,"amap_id":"B0K0F68DGX","order":10,"prev_distance_km":0.617,"cumulative_distance_km":61.211,"amap_marker_url":"https://uri.amap.com/marker?position=118.826025,34.312125&name=%E6%A1%91%E5%A2%9F%E9%95%87%E7%95%9C%E7%89%A7%E5%85%BD%E5%8C%BB%E7%AB%99&src=vetmap&coordinate=gaode&callnative=1","route_id":"r2","route_name":"第2段"},{"name":"沭阳县桑墟镇修猫修狗宠物诊所","address":"桑墟镇西湖路63号","phone":"18944857211","category":"医疗保健服务;动物医疗场所;宠物诊所","area":"","lng":118.819252,"lat":34.309517,"amap_id":"B0LKKMNDPZ","order":11,"prev_distance_km":0.686,"cumulative_distance_km":61.897,"amap_marker_url":"https://uri.amap.com/marker?position=118.819252,34.309517&name=%E6%B2%AD%E9%98%B3%E5%8E%BF%E6%A1%91%E5%A2%9F%E9%95%87%E4%BF%AE%E7%8C%AB%E4%BF%AE%E7%8B%97%E5%AE%A0%E7%89%A9%E8%AF%8A%E6%89%80&src=vetmap&coordinate=gaode&callnative=1","route_id":"r2","route_name":"第2段"},{"name":"陈芹畜禽兽药饲料服务中心","address":"清风路与龙青公路交叉口西40米","phone":"","category":"医疗保健服务;动物医疗场所;动物医疗场所","area":"","lng":118.871353,"lat":34.267177,"amap_id":"B0KKKSLPVY","order":12,"prev_distance_km":6.714,"cumulative_distance_km":68.611,"amap_marker_url":"https://uri.amap.com/marker?position=118.871353,34.267177&name=%E9%99%88%E8%8A%B9%E7%95%9C%E7%A6%BD%E5%85%BD%E8%8D%AF%E9%A5%B2%E6%96%99%E6%9C%8D%E5%8A%A1%E4%B8%AD%E5%BF%83&src=vetmap&coordinate=gaode&callnative=1","route_id":"r2","route_name":"第2段"},{"name":"华冲畜牧兽医站","address":"龙青公路869号","phone":"","category":"医疗保健服务;动物医疗场所;兽医站","area":"","lng":118.873085,"lat":34.265393,"amap_id":"B0K64ZO7CA","order":13,"prev_distance_km":0.254,"cumulative_distance_km":68.866,"amap_marker_url":"https://uri.amap.com/marker?position=118.873085,34.265393&name=%E5%8D%8E%E5%86%B2%E7%95%9C%E7%89%A7%E5%85%BD%E5%8C%BB%E7%AB%99&src=vetmap&coordinate=gaode&callnative=1","route_id":"r2","route_name":"第2段"},{"name":"沭阳县龙庙镇畜牧兽医站","address":"立派路","phone":"","category":"医疗保健服务;动物医疗场所;兽医站","area":"","lng":118.846152,"lat":34.188534,"amap_id":"B0HDX79742","order":14,"prev_distance_km":8.898,"cumulative_distance_km":77.763,"amap_marker_url":"https://uri.amap.com/marker?position=118.846152,34.188534&name=%E6%B2%AD%E9%98%B3%E5%8E%BF%E9%BE%99%E5%BA%99%E9%95%87%E7%95%9C%E7%89%A7%E5%85%BD%E5%8C%BB%E7%AB%99&src=vetmap&coordinate=gaode&callnative=1","route_id":"r2","route_name":"第2段"},{"name":"小贝窝宠物会馆(豪园店)","address":"珠江北路8号楼110","phone":"17712720002","category":"医疗保健服务;动物医疗场所;宠物诊所","area":"","lng":118.801347,"lat":34.13141,"amap_id":"B0FFIXVDZ8","order":15,"prev_distance_km":7.572,"cumulative_distance_km":85.336,"amap_marker_url":"https://uri.amap.com/marker?position=118.801347,34.131410&name=%E5%B0%8F%E8%B4%9D%E7%AA%9D%E5%AE%A0%E7%89%A9%E4%BC%9A%E9%A6%86%28%E8%B1%AA%E5%9B%AD%E5%BA%97%29&src=vetmap&coordinate=gaode&callnative=1","route_id":"r2","route_name":"第2段"},{"name":"沭阳芭呗特宠物医院","address":"巴黎新城36幢107-107夹","phone":"17712720002","category":"医疗保健服务;动物医疗场所;宠物诊所","area":"","lng":118.792443,"lat":34.119426,"amap_id":"B0FFJMOOHP","order":16,"prev_distance_km":1.564,"cumulative_distance_km":86.9,"amap_marker_url":"https://uri.amap.com/marker?position=118.792443,34.119426&name=%E6%B2%AD%E9%98%B3%E8%8A%AD%E5%91%97%E7%89%B9%E5%AE%A0%E7%89%A9%E5%8C%BB%E9%99%A2&src=vetmap&coordinate=gaode&callnative=1","route_id":"r2","route_name":"第2段"},{"name":"调皮壮壮宠物医院圣庭苑店","address":"圣廷苑西南门西50米","phone":"","category":"医疗保健服务;动物医疗场所;宠物诊所","area":"","lng":118.799956,"lat":34.115068,"amap_id":"B0J22AWDWF","order":17,"prev_distance_km":0.844,"cumulative_distance_km":87.745,"amap_marker_url":"https://uri.amap.com/marker?position=118.799956,34.115068&name=%E8%B0%83%E7%9A%AE%E5%A3%AE%E5%A3%AE%E5%AE%A0%E7%89%A9%E5%8C%BB%E9%99%A2%E5%9C%A3%E5%BA%AD%E8%8B%91%E5%BA%97&src=vetmap&coordinate=gaode&callnative=1","route_id":"r2","route_name":"第2段"},{"name":"优萌宠物诊疗","address":"沭城街道果园新村东门珠江南路120号","phone":"13372047222","category":"医疗保健服务;动物医疗场所;宠物诊所","area":"","lng":118.794231,"lat":34.112726,"amap_id":"B0HA57QSR3","order":18,"prev_distance_km":0.588,"cumulative_distance_km":88.333,"amap_marker_url":"https://uri.amap.com/marker?position=118.794231,34.112726&name=%E4%BC%98%E8%90%8C%E5%AE%A0%E7%89%A9%E8%AF%8A%E7%96%97&src=vetmap&coordinate=gaode&callnative=1","route_id":"r2","route_name":"第2段"},{"name":"艾佩特宠物医院","address":"帝景华府东门旁","phone":"","category":"医疗保健服务;动物医疗场所;宠物诊所","area":"","lng":118.796336,"lat":34.108698,"amap_id":"B0K0BZL1U1","order":19,"prev_distance_km":0.488,"cumulative_distance_km":88.821,"amap_marker_url":"https://uri.amap.com/marker?position=118.796336,34.108698&name=%E8%89%BE%E4%BD%A9%E7%89%B9%E5%AE%A0%E7%89%A9%E5%8C%BB%E9%99%A2&src=vetmap&coordinate=gaode&callnative=1","route_id":"r2","route_name":"第2段"},{"name":"仁爱宠物医院(阳光天地店)","address":"临安东路168号(阳光天地南门向东100米)","phone":"13151815120;13770339735","category":"医疗保健服务;动物医疗场所;宠物诊所","area":"","lng":118.802799,"lat":34.103754,"amap_id":"B0JK4HNSDF","order":20,"prev_distance_km":0.81,"cumulative_distance_km":89.631,"amap_marker_url":"https://uri.amap.com/marker?position=118.802799,34.103754&name=%E4%BB%81%E7%88%B1%E5%AE%A0%E7%89%A9%E5%8C%BB%E9%99%A2%28%E9%98%B3%E5%85%89%E5%A4%A9%E5%9C%B0%E5%BA%97%29&src=vetmap&coordinate=gaode&callnative=1","route_id":"r2","route_name":"第2段"},{"name":"乐贝康宠物诊所","address":"君临天下北1门旁","phone":"","category":"医疗保健服务;动物医疗场所;宠物诊所","area":"","lng":118.796553,"lat":34.099684,"amap_id":"B0K1MZM3CK","order":21,"prev_distance_km":0.732,"cumulative_distance_km":90.363,"amap_marker_url":"https://uri.amap.com/marker?position=118.796553,34.099684&name=%E4%B9%90%E8%B4%9D%E5%BA%B7%E5%AE%A0%E7%89%A9%E8%AF%8A%E6%89%80&src=vetmap&coordinate=gaode&callnative=1","route_id":"r2","route_name":"第2段"},{"name":"大飞宠物","address":"常州路与杭州西路交叉口东北280米","phone":"","category":"购物服务;专卖店;宠物用品店|医疗保健服务;动物医疗场所;动物医疗场所","area":"","lng":118.794575,"lat":34.097175,"amap_id":"B0LKAH8XOW","order":22,"prev_distance_km":0.333,"cumulative_distance_km":90.696,"amap_marker_url":"https://uri.amap.com/marker?position=118.794575,34.097175&name=%E5%A4%A7%E9%A3%9E%E5%AE%A0%E7%89%A9&src=vetmap&coordinate=gaode&callnative=1","route_id":"r2","route_name":"第2段"},{"name":"兽医门诊","address":"205国道东50米","phone":"13905245466","category":"医疗保健服务;动物医疗场所;兽医站","area":"","lng":118.802289,"lat":34.062516,"amap_id":"B0FFFWIIOY","order":23,"prev_distance_km":3.919,"cumulative_distance_km":94.615,"amap_marker_url":"https://uri.amap.com/marker?position=118.802289,34.062516&name=%E5%85%BD%E5%8C%BB%E9%97%A8%E8%AF%8A&src=vetmap&coordinate=gaode&callnative=1","route_id":"r2","route_name":"第2段"},{"name":"宠友宠物诊所","address":"万业城市花园西区","phone":"","category":"医疗保健服务;动物医疗场所;宠物诊所","area":"梦溪","lng":118.837109,"lat":34.098617,"amap_id":"B0JRR7X8ZD","order":24,"prev_distance_km":5.138,"cumulative_distance_km":99.753,"amap_marker_url":"https://uri.amap.com/marker?position=118.837109,34.098617&name=%E5%AE%A0%E5%8F%8B%E5%AE%A0%E7%89%A9%E8%AF%8A%E6%89%80&src=vetmap&coordinate=gaode&callnative=1","route_id":"r2","route_name":"第2段"},{"name":"章集街道畜牧兽医站","address":"361乡道与827乡道交叉口东南240米","phone":"","category":"医疗保健服务;动物医疗场所;兽医站","area":"","lng":118.90633,"lat":34.081336,"amap_id":"B0FFJPXGGI","order":25,"prev_distance_km":6.658,"cumulative_distance_km":106.41,"amap_marker_url":"https://uri.amap.com/marker?position=118.906330,34.081336&name=%E7%AB%A0%E9%9B%86%E8%A1%97%E9%81%93%E7%95%9C%E7%89%A7%E5%85%BD%E5%8C%BB%E7%AB%99&src=vetmap&coordinate=gaode&callnative=1","route_id":"r2","route_name":"第2段"},{"name":"兽药诊所","address":"富民西路与山深线交叉口东160米","phone":"","category":"医疗保健服务;动物医疗场所;兽医站","area":"","lng":118.863317,"lat":33.984737,"amap_id":"B0HKPHB0FM","order":26,"prev_distance_km":11.449,"cumulative_distance_km":117.86,"amap_marker_url":"https://uri.amap.com/marker?position=118.863317,33.984737&name=%E5%85%BD%E8%8D%AF%E8%AF%8A%E6%89%80&src=vetmap&coordinate=gaode&callnative=1","route_id":"r2","route_name":"第2段"},{"name":"熊孟军兽医门诊","address":"胡集镇健康路388号","phone":"","category":"医疗保健服务;动物医疗场所;兽医站","area":"","lng":118.871683,"lat":33.980857,"amap_id":"B0KRY9VZJ2","order":27,"prev_distance_km":0.884,"cumulative_distance_km":118.743,"amap_marker_url":"https://uri.amap.com/marker?position=118.871683,33.980857&name=%E7%86%8A%E5%AD%9F%E5%86%9B%E5%85%BD%E5%8C%BB%E9%97%A8%E8%AF%8A&src=vetmap&coordinate=gaode&callnative=1","route_id":"r2","route_name":"第2段"},{"name":"兽医站动物门诊","address":"钱莲街与钱盛街交叉口东440米","phone":"","category":"医疗保健服务;动物医疗场所;兽医站","area":"","lng":118.924146,"lat":33.90532,"amap_id":"B0H6FU4BTV","order":28,"prev_distance_km":9.694,"cumulative_distance_km":128.437,"amap_marker_url":"https://uri.amap.com/marker?position=118.924146,33.905320&name=%E5%85%BD%E5%8C%BB%E7%AB%99%E5%8A%A8%E7%89%A9%E9%97%A8%E8%AF%8A&src=vetmap&coordinate=gaode&callnative=1","route_id":"r2","route_name":"第2段"},{"name":"沭阳县钱集镇畜牧兽医站","address":"钱莲街与钱盛街交叉口东440米","phone":"","category":"医疗保健服务;动物医疗场所;兽医站","area":"","lng":118.924174,"lat":33.905319,"amap_id":"B0FFHD1XZ4","order":29,"prev_distance_km":0.003,"cumulative_distance_km":128.44,"amap_marker_url":"https://uri.amap.com/marker?position=118.924174,33.905319&name=%E6%B2%AD%E9%98%B3%E5%8E%BF%E9%92%B1%E9%9B%86%E9%95%87%E7%95%9C%E7%89%A7%E5%85%BD%E5%8C%BB%E7%AB%99&src=vetmap&coordinate=gaode&callnative=1","route_id":"r2","route_name":"第2段"}]}],"rows":[{"name":"吴兽医服务部","address":"沭悦线与814乡道交叉口西120米","phone":"","category":"医疗保健服务;动物医疗场所;兽医站","area":"","lng":118.610175,"lat":34.081375,"amap_id":"B0L1GOC3VV","order":1,"prev_distance_km":0.0,"cumulative_distance_km":0.0,"amap_marker_url":"https://uri.amap.com/marker?position=118.610175,34.081375&name=%E5%90%B4%E5%85%BD%E5%8C%BB%E6%9C%8D%E5%8A%A1%E9%83%A8&src=vetmap&coordinate=gaode&callnative=1","route_id":"r1","route_name":"第1段","global_order":1},{"name":"刘集畜牧兽医站","address":"112乡道与市场路交叉口东60米","phone":"18796496832","category":"医疗保健服务;动物医疗场所;兽医站","area":"","lng":118.624671,"lat":33.997849,"amap_id":"B0FFG9WNZR","order":2,"prev_distance_km":9.383,"cumulative_distance_km":9.383,"amap_marker_url":"https://uri.amap.com/marker?position=118.624671,33.997849&name=%E5%88%98%E9%9B%86%E7%95%9C%E7%89%A7%E5%85%BD%E5%8C%BB%E7%AB%99&src=vetmap&coordinate=gaode&callnative=1","route_id":"r1","route_name":"第1段","global_order":2},{"name":"陇集镇兽医站","address":"兴隆路与颐和路交叉口西南100米","phone":"","category":"医疗保健服务;动物医疗场所;兽医站","area":"","lng":118.659882,"lat":34.03717,"amap_id":"B0JB1M9XZY","order":3,"prev_distance_km":5.445,"cumulative_distance_km":14.828,"amap_marker_url":"https://uri.amap.com/marker?position=118.659882,34.037170&name=%E9%99%87%E9%9B%86%E9%95%87%E5%85%BD%E5%8C%BB%E7%AB%99&src=vetmap&coordinate=gaode&callnative=1","route_id":"r1","route_name":"第1段","global_order":3},{"name":"沭阳县陇集镇畜牧兽医站","address":"龙蟠路","phone":"","category":"医疗保健服务;动物医疗场所;兽医站","area":"","lng":118.666255,"lat":34.036537,"amap_id":"B0HB459I25","order":4,"prev_distance_km":0.591,"cumulative_distance_km":15.42,"amap_marker_url":"https://uri.amap.com/marker?position=118.666255,34.036537&name=%E6%B2%AD%E9%98%B3%E5%8E%BF%E9%99%87%E9%9B%86%E9%95%87%E7%95%9C%E7%89%A7%E5%85%BD%E5%8C%BB%E7%AB%99&src=vetmap&coordinate=gaode&callnative=1","route_id":"r1","route_name":"第1段","global_order":4},{"name":"私宠家宠物诊所","address":"汇金新城南区","phone":"","category":"医疗保健服务;动物医疗场所;宠物诊所","area":"","lng":118.766875,"lat":34.095525,"amap_id":"B0L2AD25AY","order":5,"prev_distance_km":11.355,"cumulative_distance_km":26.774,"amap_marker_url":"https://uri.amap.com/marker?position=118.766875,34.095525&name=%E7%A7%81%E5%AE%A0%E5%AE%B6%E5%AE%A0%E7%89%A9%E8%AF%8A%E6%89%80&src=vetmap&coordinate=gaode&callnative=1","route_id":"r1","route_name":"第1段","global_order":5},{"name":"它它宠物医院","address":"万达金街东门向南50米3-101铺","phone":"13401886262","category":"医疗保健服务;动物医疗场所;宠物诊所","area":"","lng":118.767644,"lat":34.094825,"amap_id":"B0LRMZXKS8","order":6,"prev_distance_km":0.105,"cumulative_distance_km":26.88,"amap_marker_url":"https://uri.amap.com/marker?position=118.767644,34.094825&name=%E5%AE%83%E5%AE%83%E5%AE%A0%E7%89%A9%E5%8C%BB%E9%99%A2&src=vetmap&coordinate=gaode&callnative=1","route_id":"r1","route_name":"第1段","global_order":6},{"name":"调皮壮壮宠物医院南湖郡店","address":"福璟·南湖郡北门西60米","phone":"18851597726;18851597729","category":"医疗保健服务;动物医疗场所;宠物诊所","area":"","lng":118.770798,"lat":34.096127,"amap_id":"B0K6KSW88J","order":7,"prev_distance_km":0.325,"cumulative_distance_km":27.204,"amap_marker_url":"https://uri.amap.com/marker?position=118.770798,34.096127&name=%E8%B0%83%E7%9A%AE%E5%A3%AE%E5%A3%AE%E5%AE%A0%E7%89%A9%E5%8C%BB%E9%99%A2%E5%8D%97%E6%B9%96%E9%83%A1%E5%BA%97&src=vetmap&coordinate=gaode&callnative=1","route_id":"r1","route_name":"第1段","global_order":7},{"name":"一诺宠物诊所","address":"临安西路368号","phone":"","category":"医疗保健服务;动物医疗场所;宠物诊所","area":"","lng":118.779188,"lat":34.106506,"amap_id":"B0HBX1VAQ3","order":8,"prev_distance_km":1.389,"cumulative_distance_km":28.593,"amap_marker_url":"https://uri.amap.com/marker?position=118.779188,34.106506&name=%E4%B8%80%E8%AF%BA%E5%AE%A0%E7%89%A9%E8%AF%8A%E6%89%80&src=vetmap&coordinate=gaode&callnative=1","route_id":"r1","route_name":"第1段","global_order":8},{"name":"新诺宠物诊所","address":"临安西路220号","phone":"","category":"医疗保健服务;动物医疗场所;宠物诊所","area":"","lng":118.779196,"lat":34.106516,"amap_id":"B0K0ZCZ5KO","order":9,"prev_distance_km":0.001,"cumulative_distance_km":28.594,"amap_marker_url":"https://uri.amap.com/marker?position=118.779196,34.106516&name=%E6%96%B0%E8%AF%BA%E5%AE%A0%E7%89%A9%E8%AF%8A%E6%89%80&src=vetmap&coordinate=gaode&callnative=1","route_id":"r1","route_name":"第1段","global_order":9},{"name":"道格宠物医院(大润发店)","address":"苏州西路153号","phone":"19805299997","category":"医疗保健服务;动物医疗场所;宠物诊所","area":"","lng":118.779788,"lat":34.112307,"amap_id":"B0G31HXN88","order":10,"prev_distance_km":0.646,"cumulative_distance_km":29.24,"amap_marker_url":"https://uri.amap.com/marker?position=118.779788,34.112307&name=%E9%81%93%E6%A0%BC%E5%AE%A0%E7%89%A9%E5%8C%BB%E9%99%A2%28%E5%A4%A7%E6%B6%A6%E5%8F%91%E5%BA%97%29&src=vetmap&coordinate=gaode&callnative=1","route_id":"r1","route_name":"第1段","global_order":10},{"name":"嘉旭宠物诊所","address":"宁浦·冠城北门西110米","phone":"","category":"医疗保健服务;动物医疗场所;宠物诊所","area":"","lng":118.783627,"lat":34.117626,"amap_id":"B0FFK280P6","order":11,"prev_distance_km":0.689,"cumulative_distance_km":29.929,"amap_marker_url":"https://uri.amap.com/marker?position=118.783627,34.117626&name=%E5%98%89%E6%97%AD%E5%AE%A0%E7%89%A9%E8%AF%8A%E6%89%80&src=vetmap&coordinate=gaode&callnative=1","route_id":"r1","route_name":"第1段","global_order":11},{"name":"暖生宠医宠物大药房","address":"广州路18号","phone":"19551811001","category":"医疗保健服务;动物医疗场所;动物医疗场所","area":"","lng":118.783982,"lat":34.118079,"amap_id":"B0LAZAP3SD","order":12,"prev_distance_km":0.06,"cumulative_distance_km":29.989,"amap_marker_url":"https://uri.amap.com/marker?position=118.783982,34.118079&name=%E6%9A%96%E7%94%9F%E5%AE%A0%E5%8C%BB%E5%AE%A0%E7%89%A9%E5%A4%A7%E8%8D%AF%E6%88%BF&src=vetmap&coordinate=gaode&callnative=1","route_id":"r1","route_name":"第1段","global_order":12},{"name":"沭阳贝思特宠物医院","address":"深圳西路59号怡花苑小区二期18号楼6号","phone":"15052755755;19551811001","category":"医疗保健服务;动物医疗场所;宠物诊所","area":"","lng":118.783598,"lat":34.121549,"amap_id":"B0J3C63K9B","order":13,"prev_distance_km":0.387,"cumulative_distance_km":30.377,"amap_marker_url":"https://uri.amap.com/marker?position=118.783598,34.121549&name=%E6%B2%AD%E9%98%B3%E8%B4%9D%E6%80%9D%E7%89%B9%E5%AE%A0%E7%89%A9%E5%8C%BB%E9%99%A2&src=vetmap&coordinate=gaode&callnative=1","route_id":"r1","route_name":"第1段","global_order":13},{"name":"大嘴狗宠物医院(沭阳旗舰店)","address":"怡华苑18号楼1层","phone":"0527-83591918;15751187999","category":"医疗保健服务;动物医疗场所;宠物诊所","area":"","lng":118.783303,"lat":34.121607,"amap_id":"B0FFHCX2Z8","order":14,"prev_distance_km":0.028,"cumulative_distance_km":30.405,"amap_marker_url":"https://uri.amap.com/marker?position=118.783303,34.121607&name=%E5%A4%A7%E5%98%B4%E7%8B%97%E5%AE%A0%E7%89%A9%E5%8C%BB%E9%99%A2%28%E6%B2%AD%E9%98%B3%E6%97%97%E8%88%B0%E5%BA%97%29&src=vetmap&coordinate=gaode&callnative=1","route_id":"r1","route_name":"第1段","global_order":14},{"name":"沭阳伟亮动物医院(深圳西路旗舰店)","address":"深圳西路125-129号","phone":"0527-89991120;13605240606","category":"医疗保健服务;动物医疗场所;宠物诊所","area":"","lng":118.780961,"lat":34.121755,"amap_id":"B0FFHEWVEB","order":15,"prev_distance_km":0.216,"cumulative_distance_km":30.621,"amap_marker_url":"https://uri.amap.com/marker?position=118.780961,34.121755&name=%E6%B2%AD%E9%98%B3%E4%BC%9F%E4%BA%AE%E5%8A%A8%E7%89%A9%E5%8C%BB%E9%99%A2%28%E6%B7%B1%E5%9C%B3%E8%A5%BF%E8%B7%AF%E6%97%97%E8%88%B0%E5%BA%97%29&src=vetmap&coordinate=gaode&callnative=1","route_id":"r1","route_name":"第1段","global_order":15},{"name":"大嘴猫宠物医院","address":"新康路与沈阳路交叉口东160米","phone":"19805231738","category":"医疗保健服务;动物医疗场所;宠物诊所","area":"","lng":118.775225,"lat":34.120525,"amap_id":"B0I2CHB8ET","order":16,"prev_distance_km":0.545,"cumulative_distance_km":31.166,"amap_marker_url":"https://uri.amap.com/marker?position=118.775225,34.120525&name=%E5%A4%A7%E5%98%B4%E7%8C%AB%E5%AE%A0%E7%89%A9%E5%8C%BB%E9%99%A2&src=vetmap&coordinate=gaode&callnative=1","route_id":"r1","route_name":"第1段","global_order":16},{"name":"友爱宠物医院","address":"武夷国际城西北门旁","phone":"","category":"医疗保健服务;动物医疗场所;宠物诊所","area":"","lng":118.775075,"lat":34.120575,"amap_id":"B0L2B7LQ92","order":17,"prev_distance_km":0.015,"cumulative_distance_km":31.181,"amap_marker_url":"https://uri.amap.com/marker?position=118.775075,34.120575&name=%E5%8F%8B%E7%88%B1%E5%AE%A0%E7%89%A9%E5%8C%BB%E9%99%A2&src=vetmap&coordinate=gaode&callnative=1","route_id":"r1","route_name":"第1段","global_order":17},{"name":"安安宠物医院(信安花园南区店)","address":"北京北路166-1号","phone":"13815711609","category":"医疗保健服务;动物医疗场所;宠物诊所","area":"","lng":118.770635,"lat":34.125311,"amap_id":"B0KAV7EPA1","order":18,"prev_distance_km":0.667,"cumulative_distance_km":31.848,"amap_marker_url":"https://uri.amap.com/marker?position=118.770635,34.125311&name=%E5%AE%89%E5%AE%89%E5%AE%A0%E7%89%A9%E5%8C%BB%E9%99%A2%28%E4%BF%A1%E5%AE%89%E8%8A%B1%E5%9B%AD%E5%8D%97%E5%8C%BA%E5%BA%97%29&src=vetmap&coordinate=gaode&callnative=1","route_id":"r1","route_name":"第1段","global_order":18},{"name":"道格宠物医院(公园路店)","address":"公园东路223号龙凤家具城南门马路对面往东20米","phone":"19805290886","category":"医疗保健服务;动物医疗场所;宠物诊所","area":"","lng":118.783036,"lat":34.131315,"amap_id":"B0IK4ZL4LY","order":19,"prev_distance_km":1.322,"cumulative_distance_km":33.17,"amap_marker_url":"https://uri.amap.com/marker?position=118.783036,34.131315&name=%E9%81%93%E6%A0%BC%E5%AE%A0%E7%89%A9%E5%8C%BB%E9%99%A2%28%E5%85%AC%E5%9B%AD%E8%B7%AF%E5%BA%97%29&src=vetmap&coordinate=gaode&callnative=1","route_id":"r1","route_name":"第1段","global_order":19},{"name":"家宝宠物医院","address":"南京西路23号","phone":"15951528875","category":"医疗保健服务;动物医疗场所;宠物诊所","area":"","lng":118.772131,"lat":34.131721,"amap_id":"B0LGDA8YCR","order":20,"prev_distance_km":1.005,"cumulative_distance_km":34.175,"amap_marker_url":"https://uri.amap.com/marker?position=118.772131,34.131721&name=%E5%AE%B6%E5%AE%9D%E5%AE%A0%E7%89%A9%E5%8C%BB%E9%99%A2&src=vetmap&coordinate=gaode&callnative=1","route_id":"r1","route_name":"第1段","global_order":20},{"name":"关爱宠物医院(南京西路店)","address":"南京西路75号","phone":"0527-83564567;15370534567","category":"医疗保健服务;动物医疗场所;宠物诊所","area":"","lng":118.770976,"lat":34.132063,"amap_id":"B0FFFS63A5","order":21,"prev_distance_km":0.113,"cumulative_distance_km":34.288,"amap_marker_url":"https://uri.amap.com/marker?position=118.770976,34.132063&name=%E5%85%B3%E7%88%B1%E5%AE%A0%E7%89%A9%E5%8C%BB%E9%99%A2%28%E5%8D%97%E4%BA%AC%E8%A5%BF%E8%B7%AF%E5%BA%97%29&src=vetmap&coordinate=gaode&callnative=1","route_id":"r1","route_name":"第1段","global_order":21},{"name":"爱心宠物医院","address":"南京路134号","phone":"13511778681","category":"医疗保健服务;动物医疗场所;宠物诊所","area":"","lng":118.769218,"lat":34.133445,"amap_id":"B0FFFDCU49","order":22,"prev_distance_km":0.223,"cumulative_distance_km":34.511,"amap_marker_url":"https://uri.amap.com/marker?position=118.769218,34.133445&name=%E7%88%B1%E5%BF%83%E5%AE%A0%E7%89%A9%E5%8C%BB%E9%99%A2&src=vetmap&coordinate=gaode&callnative=1","route_id":"r1","route_name":"第1段","global_order":22},{"name":"沭阳县畜牧兽医站","address":"南京东路170号","phone":"","category":"医疗保健服务;动物医疗场所;兽医站","area":"","lng":118.766703,"lat":34.134185,"amap_id":"B020F0128E","order":23,"prev_distance_km":0.246,"cumulative_distance_km":34.757,"amap_marker_url":"https://uri.amap.com/marker?position=118.766703,34.134185&name=%E6%B2%AD%E9%98%B3%E5%8E%BF%E7%95%9C%E7%89%A7%E5%85%BD%E5%8C%BB%E7%AB%99&src=vetmap&coordinate=gaode&callnative=1","route_id":"r1","route_name":"第1段","global_order":23},{"name":"动物门诊部","address":"南京西路172号","phone":"13511773835","category":"医疗保健服务;动物医疗场所;宠物诊所","area":"","lng":118.76639,"lat":34.134264,"amap_id":"B0FFGXZ8FK","order":24,"prev_distance_km":0.03,"cumulative_distance_km":34.787,"amap_marker_url":"https://uri.amap.com/marker?position=118.766390,34.134264&name=%E5%8A%A8%E7%89%A9%E9%97%A8%E8%AF%8A%E9%83%A8&src=vetmap&coordinate=gaode&callnative=1","route_id":"r1","route_name":"第1段","global_order":24},{"name":"康康动物诊所","address":"中华西路168号","phone":"19905241956","category":"医疗保健服务;动物医疗场所;宠物诊所","area":"","lng":118.751668,"lat":34.130393,"amap_id":"B0H3DUSM41","order":25,"prev_distance_km":1.422,"cumulative_distance_km":36.209,"amap_marker_url":"https://uri.amap.com/marker?position=118.751668,34.130393&name=%E5%BA%B7%E5%BA%B7%E5%8A%A8%E7%89%A9%E8%AF%8A%E6%89%80&src=vetmap&coordinate=gaode&callnative=1","route_id":"r1","route_name":"第1段","global_order":25},{"name":"瑞康宠物","address":"江苏省宿迁市沭阳县贤官镇贤官居委会一组140号","phone":"","category":"医疗保健服务;动物医疗场所;宠物诊所","area":"","lng":118.773107,"lat":34.243573,"amap_id":"B0LBP7GAI8","order":26,"prev_distance_km":12.739,"cumulative_distance_km":48.947,"amap_marker_url":"https://uri.amap.com/marker?position=118.773107,34.243573&name=%E7%91%9E%E5%BA%B7%E5%AE%A0%E7%89%A9&src=vetmap&coordinate=gaode&callnative=1","route_id":"r1","route_name":"第1段","global_order":26},{"name":"沭阳县庙头镇畜牧兽医站","address":"长江路与泰山路交叉口西320米","phone":"","category":"医疗保健服务;动物医疗场所;兽医站","area":"","lng":118.705088,"lat":34.206829,"amap_id":"B0FFGAV87K","order":27,"prev_distance_km":7.47,"cumulative_distance_km":56.417,"amap_marker_url":"https://uri.amap.com/marker?position=118.705088,34.206829&name=%E6%B2%AD%E9%98%B3%E5%8E%BF%E5%BA%99%E5%A4%B4%E9%95%87%E7%95%9C%E7%89%A7%E5%85%BD%E5%8C%BB%E7%AB%99&src=vetmap&coordinate=gaode&callnative=1","route_id":"r1","route_name":"第1段","global_order":27},{"name":"沭阳县潼阳镇畜牧兽医站","address":"205国道与朝阳路交叉口东南160米","phone":"","category":"医疗保健服务;动物医疗场所;兽医站","area":"","lng":118.627658,"lat":34.268927,"amap_id":"B020F0ILQ2","order":28,"prev_distance_km":9.917,"cumulative_distance_km":66.334,"amap_marker_url":"https://uri.amap.com/marker?position=118.627658,34.268927&name=%E6%B2%AD%E9%98%B3%E5%8E%BF%E6%BD%BC%E9%98%B3%E9%95%87%E7%95%9C%E7%89%A7%E5%85%BD%E5%8C%BB%E7%AB%99&src=vetmap&coordinate=gaode&callnative=1","route_id":"r1","route_name":"第1段","global_order":28},{"name":"沭阳县沂涛镇畜牧兽医站","address":"沂涛镇太平街98号附近","phone":"","category":"医疗保健服务;动物医疗场所;兽医站","area":"","lng":119.118449,"lat":34.071253,"amap_id":"B0FFGWXTJZ","order":1,"prev_distance_km":0.0,"cumulative_distance_km":0.0,"amap_marker_url":"https://uri.amap.com/marker?position=119.118449,34.071253&name=%E6%B2%AD%E9%98%B3%E5%8E%BF%E6%B2%82%E6%B6%9B%E9%95%87%E7%95%9C%E7%89%A7%E5%85%BD%E5%8C%BB%E7%AB%99&src=vetmap&coordinate=gaode&callnative=1","route_id":"r2","route_name":"第2段","global_order":29},{"name":"畜禽咨询服务部","address":"天津路与南京东路交叉口西南60米","phone":"","category":"医疗保健服务;动物医疗场所;兽医站","area":"","lng":119.024861,"lat":34.073949,"amap_id":"B0HA6D9RTM","order":2,"prev_distance_km":8.625,"cumulative_distance_km":8.625,"amap_marker_url":"https://uri.amap.com/marker?position=119.024861,34.073949&name=%E7%95%9C%E7%A6%BD%E5%92%A8%E8%AF%A2%E6%9C%8D%E5%8A%A1%E9%83%A8&src=vetmap&coordinate=gaode&callnative=1","route_id":"r2","route_name":"第2段","global_order":30},{"name":"宠物门诊防疫","address":"南京西路与港河路交叉口西280米","phone":"","category":"医疗保健服务;动物医疗场所;宠物诊所","area":"","lng":119.01241,"lat":34.076195,"amap_id":"B0K15AO3XR","order":3,"prev_distance_km":1.174,"cumulative_distance_km":9.799,"amap_marker_url":"https://uri.amap.com/marker?position=119.012410,34.076195&name=%E5%AE%A0%E7%89%A9%E9%97%A8%E8%AF%8A%E9%98%B2%E7%96%AB&src=vetmap&coordinate=gaode&callnative=1","route_id":"r2","route_name":"第2段","global_order":31},{"name":"马厂镇畜牧兽医站","address":"港河路与深圳路交叉口西北460米","phone":"15851183143","category":"医疗保健服务;动物医疗场所;兽医站","area":"","lng":119.010335,"lat":34.076002,"amap_id":"B0FFJE2CYN","order":4,"prev_distance_km":0.192,"cumulative_distance_km":9.991,"amap_marker_url":"https://uri.amap.com/marker?position=119.010335,34.076002&name=%E9%A9%AC%E5%8E%82%E9%95%87%E7%95%9C%E7%89%A7%E5%85%BD%E5%8C%BB%E7%AB%99&src=vetmap&coordinate=gaode&callnative=1","route_id":"r2","route_name":"第2段","global_order":32},{"name":"沭阳县吴集镇畜牧兽医站","address":"南京路","phone":"13151834928;15250749088","category":"医疗保健服务;动物医疗场所;兽医站","area":"","lng":119.038789,"lat":34.195708,"amap_id":"B020F154PH","order":5,"prev_distance_km":13.566,"cumulative_distance_km":23.557,"amap_marker_url":"https://uri.amap.com/marker?position=119.038789,34.195708&name=%E6%B2%AD%E9%98%B3%E5%8E%BF%E5%90%B4%E9%9B%86%E9%95%87%E7%95%9C%E7%89%A7%E5%85%BD%E5%8C%BB%E7%AB%99&src=vetmap&coordinate=gaode&callnative=1","route_id":"r2","route_name":"第2段","global_order":33},{"name":"宠物门诊","address":"高韩线与湖北路交叉口北180米","phone":"13013901558","category":"医疗保健服务;动物医疗场所;宠物诊所","area":"","lng":118.974632,"lat":34.310479,"amap_id":"B0FFKJ4K8I","order":6,"prev_distance_km":14.058,"cumulative_distance_km":37.615,"amap_marker_url":"https://uri.amap.com/marker?position=118.974632,34.310479&name=%E5%AE%A0%E7%89%A9%E9%97%A8%E8%AF%8A&src=vetmap&coordinate=gaode&callnative=1","route_id":"r2","route_name":"第2段","global_order":34},{"name":"高墟畜牧兽医服务有限公司","address":"新风路与富墟路交叉口北80米","phone":"","category":"医疗保健服务;动物医疗场所;兽医站","area":"","lng":119.010126,"lat":34.340667,"amap_id":"B0JKFC3NN9","order":7,"prev_distance_km":4.679,"cumulative_distance_km":42.294,"amap_marker_url":"https://uri.amap.com/marker?position=119.010126,34.340667&name=%E9%AB%98%E5%A2%9F%E7%95%9C%E7%89%A7%E5%85%BD%E5%8C%BB%E6%9C%8D%E5%8A%A1%E6%9C%89%E9%99%90%E5%85%AC%E5%8F%B8&src=vetmap&coordinate=gaode&callnative=1","route_id":"r2","route_name":"第2段","global_order":35},{"name":"宠物诊所","address":"龙青线东侧","phone":"","category":"医疗保健服务;动物医疗场所;宠物诊所","area":"","lng":118.917675,"lat":34.361675,"amap_id":"B0M6XHPXU7","order":8,"prev_distance_km":8.803,"cumulative_distance_km":51.097,"amap_marker_url":"https://uri.amap.com/marker?position=118.917675,34.361675&name=%E5%AE%A0%E7%89%A9%E8%AF%8A%E6%89%80&src=vetmap&coordinate=gaode&callnative=1","route_id":"r2","route_name":"第2段","global_order":36},{"name":"桑墟镇兽医站","address":"625乡道西50米","phone":"0527-83250287;13585278681","category":"医疗保健服务;动物医疗场所;兽医站","area":"","lng":118.829685,"lat":34.316779,"amap_id":"B0FFI74SKA","order":9,"prev_distance_km":9.497,"cumulative_distance_km":60.594,"amap_marker_url":"https://uri.amap.com/marker?position=118.829685,34.316779&name=%E6%A1%91%E5%A2%9F%E9%95%87%E5%85%BD%E5%8C%BB%E7%AB%99&src=vetmap&coordinate=gaode&callnative=1","route_id":"r2","route_name":"第2段","global_order":37},{"name":"桑墟镇畜牧兽医站","address":"五里街与虹河东路交叉口西220米","phone":"","category":"医疗保健服务;动物医疗场所;兽医站","area":"","lng":118.826025,"lat":34.312125,"amap_id":"B0K0F68DGX","order":10,"prev_distance_km":0.617,"cumulative_distance_km":61.211,"amap_marker_url":"https://uri.amap.com/marker?position=118.826025,34.312125&name=%E6%A1%91%E5%A2%9F%E9%95%87%E7%95%9C%E7%89%A7%E5%85%BD%E5%8C%BB%E7%AB%99&src=vetmap&coordinate=gaode&callnative=1","route_id":"r2","route_name":"第2段","global_order":38},{"name":"沭阳县桑墟镇修猫修狗宠物诊所","address":"桑墟镇西湖路63号","phone":"18944857211","category":"医疗保健服务;动物医疗场所;宠物诊所","area":"","lng":118.819252,"lat":34.309517,"amap_id":"B0LKKMNDPZ","order":11,"prev_distance_km":0.686,"cumulative_distance_km":61.897,"amap_marker_url":"https://uri.amap.com/marker?position=118.819252,34.309517&name=%E6%B2%AD%E9%98%B3%E5%8E%BF%E6%A1%91%E5%A2%9F%E9%95%87%E4%BF%AE%E7%8C%AB%E4%BF%AE%E7%8B%97%E5%AE%A0%E7%89%A9%E8%AF%8A%E6%89%80&src=vetmap&coordinate=gaode&callnative=1","route_id":"r2","route_name":"第2段","global_order":39},{"name":"陈芹畜禽兽药饲料服务中心","address":"清风路与龙青公路交叉口西40米","phone":"","category":"医疗保健服务;动物医疗场所;动物医疗场所","area":"","lng":118.871353,"lat":34.267177,"amap_id":"B0KKKSLPVY","order":12,"prev_distance_km":6.714,"cumulative_distance_km":68.611,"amap_marker_url":"https://uri.amap.com/marker?position=118.871353,34.267177&name=%E9%99%88%E8%8A%B9%E7%95%9C%E7%A6%BD%E5%85%BD%E8%8D%AF%E9%A5%B2%E6%96%99%E6%9C%8D%E5%8A%A1%E4%B8%AD%E5%BF%83&src=vetmap&coordinate=gaode&callnative=1","route_id":"r2","route_name":"第2段","global_order":40},{"name":"华冲畜牧兽医站","address":"龙青公路869号","phone":"","category":"医疗保健服务;动物医疗场所;兽医站","area":"","lng":118.873085,"lat":34.265393,"amap_id":"B0K64ZO7CA","order":13,"prev_distance_km":0.254,"cumulative_distance_km":68.866,"amap_marker_url":"https://uri.amap.com/marker?position=118.873085,34.265393&name=%E5%8D%8E%E5%86%B2%E7%95%9C%E7%89%A7%E5%85%BD%E5%8C%BB%E7%AB%99&src=vetmap&coordinate=gaode&callnative=1","route_id":"r2","route_name":"第2段","global_order":41},{"name":"沭阳县龙庙镇畜牧兽医站","address":"立派路","phone":"","category":"医疗保健服务;动物医疗场所;兽医站","area":"","lng":118.846152,"lat":34.188534,"amap_id":"B0HDX79742","order":14,"prev_distance_km":8.898,"cumulative_distance_km":77.763,"amap_marker_url":"https://uri.amap.com/marker?position=118.846152,34.188534&name=%E6%B2%AD%E9%98%B3%E5%8E%BF%E9%BE%99%E5%BA%99%E9%95%87%E7%95%9C%E7%89%A7%E5%85%BD%E5%8C%BB%E7%AB%99&src=vetmap&coordinate=gaode&callnative=1","route_id":"r2","route_name":"第2段","global_order":42},{"name":"小贝窝宠物会馆(豪园店)","address":"珠江北路8号楼110","phone":"17712720002","category":"医疗保健服务;动物医疗场所;宠物诊所","area":"","lng":118.801347,"lat":34.13141,"amap_id":"B0FFIXVDZ8","order":15,"prev_distance_km":7.572,"cumulative_distance_km":85.336,"amap_marker_url":"https://uri.amap.com/marker?position=118.801347,34.131410&name=%E5%B0%8F%E8%B4%9D%E7%AA%9D%E5%AE%A0%E7%89%A9%E4%BC%9A%E9%A6%86%28%E8%B1%AA%E5%9B%AD%E5%BA%97%29&src=vetmap&coordinate=gaode&callnative=1","route_id":"r2","route_name":"第2段","global_order":43},{"name":"沭阳芭呗特宠物医院","address":"巴黎新城36幢107-107夹","phone":"17712720002","category":"医疗保健服务;动物医疗场所;宠物诊所","area":"","lng":118.792443,"lat":34.119426,"amap_id":"B0FFJMOOHP","order":16,"prev_distance_km":1.564,"cumulative_distance_km":86.9,"amap_marker_url":"https://uri.amap.com/marker?position=118.792443,34.119426&name=%E6%B2%AD%E9%98%B3%E8%8A%AD%E5%91%97%E7%89%B9%E5%AE%A0%E7%89%A9%E5%8C%BB%E9%99%A2&src=vetmap&coordinate=gaode&callnative=1","route_id":"r2","route_name":"第2段","global_order":44},{"name":"调皮壮壮宠物医院圣庭苑店","address":"圣廷苑西南门西50米","phone":"","category":"医疗保健服务;动物医疗场所;宠物诊所","area":"","lng":118.799956,"lat":34.115068,"amap_id":"B0J22AWDWF","order":17,"prev_distance_km":0.844,"cumulative_distance_km":87.745,"amap_marker_url":"https://uri.amap.com/marker?position=118.799956,34.115068&name=%E8%B0%83%E7%9A%AE%E5%A3%AE%E5%A3%AE%E5%AE%A0%E7%89%A9%E5%8C%BB%E9%99%A2%E5%9C%A3%E5%BA%AD%E8%8B%91%E5%BA%97&src=vetmap&coordinate=gaode&callnative=1","route_id":"r2","route_name":"第2段","global_order":45},{"name":"优萌宠物诊疗","address":"沭城街道果园新村东门珠江南路120号","phone":"13372047222","category":"医疗保健服务;动物医疗场所;宠物诊所","area":"","lng":118.794231,"lat":34.112726,"amap_id":"B0HA57QSR3","order":18,"prev_distance_km":0.588,"cumulative_distance_km":88.333,"amap_marker_url":"https://uri.amap.com/marker?position=118.794231,34.112726&name=%E4%BC%98%E8%90%8C%E5%AE%A0%E7%89%A9%E8%AF%8A%E7%96%97&src=vetmap&coordinate=gaode&callnative=1","route_id":"r2","route_name":"第2段","global_order":46},{"name":"艾佩特宠物医院","address":"帝景华府东门旁","phone":"","category":"医疗保健服务;动物医疗场所;宠物诊所","area":"","lng":118.796336,"lat":34.108698,"amap_id":"B0K0BZL1U1","order":19,"prev_distance_km":0.488,"cumulative_distance_km":88.821,"amap_marker_url":"https://uri.amap.com/marker?position=118.796336,34.108698&name=%E8%89%BE%E4%BD%A9%E7%89%B9%E5%AE%A0%E7%89%A9%E5%8C%BB%E9%99%A2&src=vetmap&coordinate=gaode&callnative=1","route_id":"r2","route_name":"第2段","global_order":47},{"name":"仁爱宠物医院(阳光天地店)","address":"临安东路168号(阳光天地南门向东100米)","phone":"13151815120;13770339735","category":"医疗保健服务;动物医疗场所;宠物诊所","area":"","lng":118.802799,"lat":34.103754,"amap_id":"B0JK4HNSDF","order":20,"prev_distance_km":0.81,"cumulative_distance_km":89.631,"amap_marker_url":"https://uri.amap.com/marker?position=118.802799,34.103754&name=%E4%BB%81%E7%88%B1%E5%AE%A0%E7%89%A9%E5%8C%BB%E9%99%A2%28%E9%98%B3%E5%85%89%E5%A4%A9%E5%9C%B0%E5%BA%97%29&src=vetmap&coordinate=gaode&callnative=1","route_id":"r2","route_name":"第2段","global_order":48},{"name":"乐贝康宠物诊所","address":"君临天下北1门旁","phone":"","category":"医疗保健服务;动物医疗场所;宠物诊所","area":"","lng":118.796553,"lat":34.099684,"amap_id":"B0K1MZM3CK","order":21,"prev_distance_km":0.732,"cumulative_distance_km":90.363,"amap_marker_url":"https://uri.amap.com/marker?position=118.796553,34.099684&name=%E4%B9%90%E8%B4%9D%E5%BA%B7%E5%AE%A0%E7%89%A9%E8%AF%8A%E6%89%80&src=vetmap&coordinate=gaode&callnative=1","route_id":"r2","route_name":"第2段","global_order":49},{"name":"大飞宠物","address":"常州路与杭州西路交叉口东北280米","phone":"","category":"购物服务;专卖店;宠物用品店|医疗保健服务;动物医疗场所;动物医疗场所","area":"","lng":118.794575,"lat":34.097175,"amap_id":"B0LKAH8XOW","order":22,"prev_distance_km":0.333,"cumulative_distance_km":90.696,"amap_marker_url":"https://uri.amap.com/marker?position=118.794575,34.097175&name=%E5%A4%A7%E9%A3%9E%E5%AE%A0%E7%89%A9&src=vetmap&coordinate=gaode&callnative=1","route_id":"r2","route_name":"第2段","global_order":50},{"name":"兽医门诊","address":"205国道东50米","phone":"13905245466","category":"医疗保健服务;动物医疗场所;兽医站","area":"","lng":118.802289,"lat":34.062516,"amap_id":"B0FFFWIIOY","order":23,"prev_distance_km":3.919,"cumulative_distance_km":94.615,"amap_marker_url":"https://uri.amap.com/marker?position=118.802289,34.062516&name=%E5%85%BD%E5%8C%BB%E9%97%A8%E8%AF%8A&src=vetmap&coordinate=gaode&callnative=1","route_id":"r2","route_name":"第2段","global_order":51},{"name":"宠友宠物诊所","address":"万业城市花园西区","phone":"","category":"医疗保健服务;动物医疗场所;宠物诊所","area":"梦溪","lng":118.837109,"lat":34.098617,"amap_id":"B0JRR7X8ZD","order":24,"prev_distance_km":5.138,"cumulative_distance_km":99.753,"amap_marker_url":"https://uri.amap.com/marker?position=118.837109,34.098617&name=%E5%AE%A0%E5%8F%8B%E5%AE%A0%E7%89%A9%E8%AF%8A%E6%89%80&src=vetmap&coordinate=gaode&callnative=1","route_id":"r2","route_name":"第2段","global_order":52},{"name":"章集街道畜牧兽医站","address":"361乡道与827乡道交叉口东南240米","phone":"","category":"医疗保健服务;动物医疗场所;兽医站","area":"","lng":118.90633,"lat":34.081336,"amap_id":"B0FFJPXGGI","order":25,"prev_distance_km":6.658,"cumulative_distance_km":106.41,"amap_marker_url":"https://uri.amap.com/marker?position=118.906330,34.081336&name=%E7%AB%A0%E9%9B%86%E8%A1%97%E9%81%93%E7%95%9C%E7%89%A7%E5%85%BD%E5%8C%BB%E7%AB%99&src=vetmap&coordinate=gaode&callnative=1","route_id":"r2","route_name":"第2段","global_order":53},{"name":"兽药诊所","address":"富民西路与山深线交叉口东160米","phone":"","category":"医疗保健服务;动物医疗场所;兽医站","area":"","lng":118.863317,"lat":33.984737,"amap_id":"B0HKPHB0FM","order":26,"prev_distance_km":11.449,"cumulative_distance_km":117.86,"amap_marker_url":"https://uri.amap.com/marker?position=118.863317,33.984737&name=%E5%85%BD%E8%8D%AF%E8%AF%8A%E6%89%80&src=vetmap&coordinate=gaode&callnative=1","route_id":"r2","route_name":"第2段","global_order":54},{"name":"熊孟军兽医门诊","address":"胡集镇健康路388号","phone":"","category":"医疗保健服务;动物医疗场所;兽医站","area":"","lng":118.871683,"lat":33.980857,"amap_id":"B0KRY9VZJ2","order":27,"prev_distance_km":0.884,"cumulative_distance_km":118.743,"amap_marker_url":"https://uri.amap.com/marker?position=118.871683,33.980857&name=%E7%86%8A%E5%AD%9F%E5%86%9B%E5%85%BD%E5%8C%BB%E9%97%A8%E8%AF%8A&src=vetmap&coordinate=gaode&callnative=1","route_id":"r2","route_name":"第2段","global_order":55},{"name":"兽医站动物门诊","address":"钱莲街与钱盛街交叉口东440米","phone":"","category":"医疗保健服务;动物医疗场所;兽医站","area":"","lng":118.924146,"lat":33.90532,"amap_id":"B0H6FU4BTV","order":28,"prev_distance_km":9.694,"cumulative_distance_km":128.437,"amap_marker_url":"https://uri.amap.com/marker?position=118.924146,33.905320&name=%E5%85%BD%E5%8C%BB%E7%AB%99%E5%8A%A8%E7%89%A9%E9%97%A8%E8%AF%8A&src=vetmap&coordinate=gaode&callnative=1","route_id":"r2","route_name":"第2段","global_order":56},{"name":"沭阳县钱集镇畜牧兽医站","address":"钱莲街与钱盛街交叉口东440米","phone":"","category":"医疗保健服务;动物医疗场所;兽医站","area":"","lng":118.924174,"lat":33.905319,"amap_id":"B0FFHD1XZ4","order":29,"prev_distance_km":0.003,"cumulative_distance_km":128.44,"amap_marker_url":"https://uri.amap.com/marker?position=118.924174,33.905319&name=%E6%B2%AD%E9%98%B3%E5%8E%BF%E9%92%B1%E9%9B%86%E9%95%87%E7%95%9C%E7%89%A7%E5%85%BD%E5%8C%BB%E7%AB%99&src=vetmap&coordinate=gaode&callnative=1","route_id":"r2","route_name":"第2段","global_order":57}]}