{"summary":{"id":"d00876","province":"江西省","city":"上饶市","district":"余干县","count":6,"route_count":1,"max_route_clinics":6,"total_distance_km":23.991,"coordinate_system":"GCJ-02 / Amap","generated_at":"2026-05-08 19:46:23"},"routes":[{"id":"r1","name":"第1段","count":6,"total_distance_km":23.991,"rows":[{"name":"新根兽药店","address":"玉亭镇余信路门牌号","phone":"18296304359","category":"医疗保健服务;动物医疗场所;动物医疗场所","area":"","lng":116.683295,"lat":28.705689,"amap_id":"B0LKDOOM5L","order":1,"prev_distance_km":0.0,"cumulative_distance_km":0.0,"amap_marker_url":"https://uri.amap.com/marker?position=116.683295,28.705689&name=%E6%96%B0%E6%A0%B9%E5%85%BD%E8%8D%AF%E5%BA%97&src=vetmap&coordinate=gaode&callnative=1","route_id":"r1","route_name":"第1段"},{"name":"新一佳宠物医院","address":"海尔路236号","phone":"13979385955","category":"医疗保健服务;动物医疗场所;宠物诊所","area":"","lng":116.686503,"lat":28.707974,"amap_id":"B0I03C0RTV","order":2,"prev_distance_km":0.403,"cumulative_distance_km":0.403,"amap_marker_url":"https://uri.amap.com/marker?position=116.686503,28.707974&name=%E6%96%B0%E4%B8%80%E4%BD%B3%E5%AE%A0%E7%89%A9%E5%8C%BB%E9%99%A2&src=vetmap&coordinate=gaode&callnative=1","route_id":"r1","route_name":"第1段"},{"name":"宠乐动物医院·斯宝乐思","address":"世纪豪庭商业20号","phone":"","category":"医疗保健服务;动物医疗场所;宠物诊所","area":"","lng":116.697147,"lat":28.70358,"amap_id":"B0LRMZXKZF","order":3,"prev_distance_km":1.147,"cumulative_distance_km":1.55,"amap_marker_url":"https://uri.amap.com/marker?position=116.697147,28.703580&name=%E5%AE%A0%E4%B9%90%E5%8A%A8%E7%89%A9%E5%8C%BB%E9%99%A2%C2%B7%E6%96%AF%E5%AE%9D%E4%B9%90%E6%80%9D&src=vetmap&coordinate=gaode&callnative=1","route_id":"r1","route_name":"第1段"},{"name":"2066宠物之家","address":"玉亭镇东街B11-25","phone":"13697026267","category":"医疗保健服务;动物医疗场所;宠物诊所","area":"","lng":116.69507,"lat":28.689344,"amap_id":"B0HKGRHBCP","order":4,"prev_distance_km":1.596,"cumulative_distance_km":3.146,"amap_marker_url":"https://uri.amap.com/marker?position=116.695070,28.689344&name=2066%E5%AE%A0%E7%89%A9%E4%B9%8B%E5%AE%B6&src=vetmap&coordinate=gaode&callnative=1","route_id":"r1","route_name":"第1段"},{"name":"恩丽宠物医院","address":"紫阳路526号","phone":"18250199972;18879305168","category":"医疗保健服务;动物医疗场所;宠物诊所","area":"","lng":116.703862,"lat":28.686968,"amap_id":"B0JRDZYQS9","order":5,"prev_distance_km":0.897,"cumulative_distance_km":4.044,"amap_marker_url":"https://uri.amap.com/marker?position=116.703862,28.686968&name=%E6%81%A9%E4%B8%BD%E5%AE%A0%E7%89%A9%E5%8C%BB%E9%99%A2&src=vetmap&coordinate=gaode&callnative=1","route_id":"r1","route_name":"第1段"},{"name":"禾斛岭兽药店","address":"689县道与691县道交叉口北150米","phone":"15946828465;18720991487","category":"医疗保健服务;动物医疗场所;动物医疗场所","area":"","lng":116.598709,"lat":28.533155,"amap_id":"B0FFJ6N5NA","order":6,"prev_distance_km":19.947,"cumulative_distance_km":23.991,"amap_marker_url":"https://uri.amap.com/marker?position=116.598709,28.533155&name=%E7%A6%BE%E6%96%9B%E5%B2%AD%E5%85%BD%E8%8D%AF%E5%BA%97&src=vetmap&coordinate=gaode&callnative=1","route_id":"r1","route_name":"第1段"}]}],"rows":[{"name":"新根兽药店","address":"玉亭镇余信路门牌号","phone":"18296304359","category":"医疗保健服务;动物医疗场所;动物医疗场所","area":"","lng":116.683295,"lat":28.705689,"amap_id":"B0LKDOOM5L","order":1,"prev_distance_km":0.0,"cumulative_distance_km":0.0,"amap_marker_url":"https://uri.amap.com/marker?position=116.683295,28.705689&name=%E6%96%B0%E6%A0%B9%E5%85%BD%E8%8D%AF%E5%BA%97&src=vetmap&coordinate=gaode&callnative=1","route_id":"r1","route_name":"第1段","global_order":1},{"name":"新一佳宠物医院","address":"海尔路236号","phone":"13979385955","category":"医疗保健服务;动物医疗场所;宠物诊所","area":"","lng":116.686503,"lat":28.707974,"amap_id":"B0I03C0RTV","order":2,"prev_distance_km":0.403,"cumulative_distance_km":0.403,"amap_marker_url":"https://uri.amap.com/marker?position=116.686503,28.707974&name=%E6%96%B0%E4%B8%80%E4%BD%B3%E5%AE%A0%E7%89%A9%E5%8C%BB%E9%99%A2&src=vetmap&coordinate=gaode&callnative=1","route_id":"r1","route_name":"第1段","global_order":2},{"name":"宠乐动物医院·斯宝乐思","address":"世纪豪庭商业20号","phone":"","category":"医疗保健服务;动物医疗场所;宠物诊所","area":"","lng":116.697147,"lat":28.70358,"amap_id":"B0LRMZXKZF","order":3,"prev_distance_km":1.147,"cumulative_distance_km":1.55,"amap_marker_url":"https://uri.amap.com/marker?position=116.697147,28.703580&name=%E5%AE%A0%E4%B9%90%E5%8A%A8%E7%89%A9%E5%8C%BB%E9%99%A2%C2%B7%E6%96%AF%E5%AE%9D%E4%B9%90%E6%80%9D&src=vetmap&coordinate=gaode&callnative=1","route_id":"r1","route_name":"第1段","global_order":3},{"name":"2066宠物之家","address":"玉亭镇东街B11-25","phone":"13697026267","category":"医疗保健服务;动物医疗场所;宠物诊所","area":"","lng":116.69507,"lat":28.689344,"amap_id":"B0HKGRHBCP","order":4,"prev_distance_km":1.596,"cumulative_distance_km":3.146,"amap_marker_url":"https://uri.amap.com/marker?position=116.695070,28.689344&name=2066%E5%AE%A0%E7%89%A9%E4%B9%8B%E5%AE%B6&src=vetmap&coordinate=gaode&callnative=1","route_id":"r1","route_name":"第1段","global_order":4},{"name":"恩丽宠物医院","address":"紫阳路526号","phone":"18250199972;18879305168","category":"医疗保健服务;动物医疗场所;宠物诊所","area":"","lng":116.703862,"lat":28.686968,"amap_id":"B0JRDZYQS9","order":5,"prev_distance_km":0.897,"cumulative_distance_km":4.044,"amap_marker_url":"https://uri.amap.com/marker?position=116.703862,28.686968&name=%E6%81%A9%E4%B8%BD%E5%AE%A0%E7%89%A9%E5%8C%BB%E9%99%A2&src=vetmap&coordinate=gaode&callnative=1","route_id":"r1","route_name":"第1段","global_order":5},{"name":"禾斛岭兽药店","address":"689县道与691县道交叉口北150米","phone":"15946828465;18720991487","category":"医疗保健服务;动物医疗场所;动物医疗场所","area":"","lng":116.598709,"lat":28.533155,"amap_id":"B0FFJ6N5NA","order":6,"prev_distance_km":19.947,"cumulative_distance_km":23.991,"amap_marker_url":"https://uri.amap.com/marker?position=116.598709,28.533155&name=%E7%A6%BE%E6%96%9B%E5%B2%AD%E5%85%BD%E8%8D%AF%E5%BA%97&src=vetmap&coordinate=gaode&callnative=1","route_id":"r1","route_name":"第1段","global_order":6}]}