{"summary":{"id":"d00873","province":"江苏省","city":"镇江市","district":"扬中市","count":16,"total_distance_km":29.015,"coordinate_system":"GCJ-02 / Amap","generated_at":"2026-05-07 19:57:21"},"rows":[{"name":"八桥镇畜牧兽医站","address":"八桥镇太平南路105号","phone":"","category":"医疗保健服务;动物医疗场所;兽医站","area":"","lng":119.883476,"lat":32.103373,"amap_id":"B01FF029JC","order":1,"prev_distance_km":0.0,"cumulative_distance_km":0.0,"amap_marker_url":"https://uri.amap.com/marker?position=119.883476,32.103373&name=%E5%85%AB%E6%A1%A5%E9%95%87%E7%95%9C%E7%89%A7%E5%85%BD%E5%8C%BB%E7%AB%99&src=vetmap&coordinate=gaode&callnative=1"},{"name":"牧农兽医服务中心","address":"太平路与民丰路交叉口东60米","phone":"13645283527","category":"医疗保健服务;动物医疗场所;兽医站","area":"","lng":119.883422,"lat":32.103425,"amap_id":"B0GKY5HJKC","order":2,"prev_distance_km":0.008,"cumulative_distance_km":0.008,"amap_marker_url":"https://uri.amap.com/marker?position=119.883422,32.103425&name=%E7%89%A7%E5%86%9C%E5%85%BD%E5%8C%BB%E6%9C%8D%E5%8A%A1%E4%B8%AD%E5%BF%83&src=vetmap&coordinate=gaode&callnative=1"},{"name":"扬中市油坊镇畜牧兽医站","address":"政前路与扬中大道交叉口西160米","phone":"","category":"医疗保健服务;动物医疗场所;兽医站","area":"","lng":119.853499,"lat":32.127899,"amap_id":"B0JRRXX6TD","order":3,"prev_distance_km":3.918,"cumulative_distance_km":3.925,"amap_marker_url":"https://uri.amap.com/marker?position=119.853499,32.127899&name=%E6%89%AC%E4%B8%AD%E5%B8%82%E6%B2%B9%E5%9D%8A%E9%95%87%E7%95%9C%E7%89%A7%E5%85%BD%E5%8C%BB%E7%AB%99&src=vetmap&coordinate=gaode&callnative=1"},{"name":"弄堂里兽医站","address":"扬中大道与兴宏路交叉口南160米","phone":"","category":"医疗保健服务;动物医疗场所;兽医站","area":"","lng":119.847825,"lat":32.173775,"amap_id":"B0L2R5MHTM","order":4,"prev_distance_km":5.129,"cumulative_distance_km":9.054,"amap_marker_url":"https://uri.amap.com/marker?position=119.847825,32.173775&name=%E5%BC%84%E5%A0%82%E9%87%8C%E5%85%BD%E5%8C%BB%E7%AB%99&src=vetmap&coordinate=gaode&callnative=1"},{"name":"扬中市三茅街道畜牧兽医站","address":"三桥路与扬子东路交叉口南120米","phone":"","category":"医疗保健服务;动物医疗场所;兽医站","area":"","lng":119.840313,"lat":32.237379,"amap_id":"B0FFL93TNR","order":5,"prev_distance_km":7.108,"cumulative_distance_km":16.162,"amap_marker_url":"https://uri.amap.com/marker?position=119.840313,32.237379&name=%E6%89%AC%E4%B8%AD%E5%B8%82%E4%B8%89%E8%8C%85%E8%A1%97%E9%81%93%E7%95%9C%E7%89%A7%E5%85%BD%E5%8C%BB%E7%AB%99&src=vetmap&coordinate=gaode&callnative=1"},{"name":"丰畜牧兽医技术服务部","address":"扬子河北路与扬中大道交叉口西120米","phone":"13775311122","category":"医疗保健服务;动物医疗场所;兽医站","area":"三茅","lng":119.833768,"lat":32.236661,"amap_id":"B0J2H9PQDI","order":6,"prev_distance_km":0.621,"cumulative_distance_km":16.783,"amap_marker_url":"https://uri.amap.com/marker?position=119.833768,32.236661&name=%E4%B8%B0%E7%95%9C%E7%89%A7%E5%85%BD%E5%8C%BB%E6%8A%80%E6%9C%AF%E6%9C%8D%E5%8A%A1%E9%83%A8&src=vetmap&coordinate=gaode&callnative=1"},{"name":"千宠动物诊所","address":"港东北路与环城北路辅路交叉口南160米","phone":"15162932355","category":"医疗保健服务;动物医疗场所;宠物诊所","area":"三茅","lng":119.829505,"lat":32.242398,"amap_id":"B0I3F9YZQM","order":7,"prev_distance_km":0.753,"cumulative_distance_km":17.536,"amap_marker_url":"https://uri.amap.com/marker?position=119.829505,32.242398&name=%E5%8D%83%E5%AE%A0%E5%8A%A8%E7%89%A9%E8%AF%8A%E6%89%80&src=vetmap&coordinate=gaode&callnative=1"},{"name":"宠物大药户","address":"环城北路与翠竹北路交叉口北40米","phone":"","category":"医疗保健服务;动物医疗场所;动物医疗场所","area":"","lng":119.822559,"lat":32.245936,"amap_id":"B0LRFH76NZ","order":8,"prev_distance_km":0.763,"cumulative_distance_km":18.299,"amap_marker_url":"https://uri.amap.com/marker?position=119.822559,32.245936&name=%E5%AE%A0%E7%89%A9%E5%A4%A7%E8%8D%AF%E6%88%B7&src=vetmap&coordinate=gaode&callnative=1"},{"name":"宠信宠物诊疗中心","address":"工人路104之2-3","phone":"0511-88335026;13913419088","category":"医疗保健服务;动物医疗场所;宠物诊所","area":"","lng":119.821029,"lat":32.242023,"amap_id":"B01FF0O5R2","order":9,"prev_distance_km":0.458,"cumulative_distance_km":18.757,"amap_marker_url":"https://uri.amap.com/marker?position=119.821029,32.242023&name=%E5%AE%A0%E4%BF%A1%E5%AE%A0%E7%89%A9%E8%AF%8A%E7%96%97%E4%B8%AD%E5%BF%83&src=vetmap&coordinate=gaode&callnative=1"},{"name":"旺财宠医(长江花城店)","address":"长江花城38号","phone":"18805286358","category":"医疗保健服务;动物医疗场所;宠物诊所","area":"","lng":119.816553,"lat":32.244807,"amap_id":"B0K0JLEOE3","order":10,"prev_distance_km":0.523,"cumulative_distance_km":19.28,"amap_marker_url":"https://uri.amap.com/marker?position=119.816553,32.244807&name=%E6%97%BA%E8%B4%A2%E5%AE%A0%E5%8C%BB%28%E9%95%BF%E6%B1%9F%E8%8A%B1%E5%9F%8E%E5%BA%97%29&src=vetmap&coordinate=gaode&callnative=1"},{"name":"郭小五宠物医院","address":"同心路58号","phone":"13852994725","category":"医疗保健服务;动物医疗场所;宠物诊所","area":"","lng":119.814939,"lat":32.245273,"amap_id":"B0FFJSTZ68","order":11,"prev_distance_km":0.16,"cumulative_distance_km":19.44,"amap_marker_url":"https://uri.amap.com/marker?position=119.814939,32.245273&name=%E9%83%AD%E5%B0%8F%E4%BA%94%E5%AE%A0%E7%89%A9%E5%8C%BB%E9%99%A2&src=vetmap&coordinate=gaode&callnative=1"},{"name":"仁爱动物医院","address":"明珠湾94-96号","phone":"","category":"医疗保健服务;动物医疗场所;宠物诊所","area":"","lng":119.805639,"lat":32.246222,"amap_id":"B0KDS5TYRH","order":12,"prev_distance_km":0.881,"cumulative_distance_km":20.321,"amap_marker_url":"https://uri.amap.com/marker?position=119.805639,32.246222&name=%E4%BB%81%E7%88%B1%E5%8A%A8%E7%89%A9%E5%8C%BB%E9%99%A2&src=vetmap&coordinate=gaode&callnative=1"},{"name":"潘多拉宠物医院美容院","address":"扬子中路266号","phone":"13952899291;15205289618","category":"医疗保健服务;动物医疗场所;宠物诊所","area":"","lng":119.811683,"lat":32.237325,"amap_id":"B0I375TLNE","order":13,"prev_distance_km":1.141,"cumulative_distance_km":21.462,"amap_marker_url":"https://uri.amap.com/marker?position=119.811683,32.237325&name=%E6%BD%98%E5%A4%9A%E6%8B%89%E5%AE%A0%E7%89%A9%E5%8C%BB%E9%99%A2%E7%BE%8E%E5%AE%B9%E9%99%A2&src=vetmap&coordinate=gaode&callnative=1"},{"name":"众合动物医院(扬子中路店)","address":"扬子中路与明珠大道交叉口东180米","phone":"13852994725","category":"医疗保健服务;动物医疗场所;宠物诊所","area":"","lng":119.811216,"lat":32.236993,"amap_id":"B0KK9ZK6CM","order":14,"prev_distance_km":0.057,"cumulative_distance_km":21.519,"amap_marker_url":"https://uri.amap.com/marker?position=119.811216,32.236993&name=%E4%BC%97%E5%90%88%E5%8A%A8%E7%89%A9%E5%8C%BB%E9%99%A2%28%E6%89%AC%E5%AD%90%E4%B8%AD%E8%B7%AF%E5%BA%97%29&src=vetmap&coordinate=gaode&callnative=1"},{"name":"库狗宠物诊疗","address":"浩云湾建设西路555-81","phone":"18552528696","category":"医疗保健服务;动物医疗场所;宠物诊所","area":"","lng":119.796713,"lat":32.227889,"amap_id":"B0LB2UR8IS","order":15,"prev_distance_km":1.699,"cumulative_distance_km":23.218,"amap_marker_url":"https://uri.amap.com/marker?position=119.796713,32.227889&name=%E5%BA%93%E7%8B%97%E5%AE%A0%E7%89%A9%E8%AF%8A%E7%96%97&src=vetmap&coordinate=gaode&callnative=1"},{"name":"新坝镇畜牧兽医站","address":"新中北路与009乡道交叉口南100米","phone":"","category":"医疗保健服务;动物医疗场所;兽医站","area":"","lng":119.757782,"lat":32.268307,"amap_id":"B0KBKUA14P","order":16,"prev_distance_km":5.797,"cumulative_distance_km":29.015,"amap_marker_url":"https://uri.amap.com/marker?position=119.757782,32.268307&name=%E6%96%B0%E5%9D%9D%E9%95%87%E7%95%9C%E7%89%A7%E5%85%BD%E5%8C%BB%E7%AB%99&src=vetmap&coordinate=gaode&callnative=1"}]}