{"summary":{"id":"d00851","province":"江苏省","city":"盐城市","district":"滨海县","count":18,"total_distance_km":80.114,"coordinate_system":"GCJ-02 / Amap","generated_at":"2026-05-07 19:57:13"},"rows":[{"name":"滨海县正红动物防疫服务有限公司","address":"327省道与车站路交叉口南300米","phone":"","category":"医疗保健服务;动物医疗场所;动物医疗场所","area":"","lng":120.213325,"lat":34.243325,"amap_id":"B0LDUHAABO","order":1,"prev_distance_km":0.0,"cumulative_distance_km":0.0,"amap_marker_url":"https://uri.amap.com/marker?position=120.213325,34.243325&name=%E6%BB%A8%E6%B5%B7%E5%8E%BF%E6%AD%A3%E7%BA%A2%E5%8A%A8%E7%89%A9%E9%98%B2%E7%96%AB%E6%9C%8D%E5%8A%A1%E6%9C%89%E9%99%90%E5%85%AC%E5%8F%B8&src=vetmap&coordinate=gaode&callnative=1"},{"name":"振东兽药饲料","address":"202县道与振东路交叉口北240米","phone":"0515-84432134","category":"医疗保健服务;动物医疗场所;兽医站","area":"","lng":120.228205,"lat":34.142246,"amap_id":"B0HKMSABLJ","order":2,"prev_distance_km":11.323,"cumulative_distance_km":11.323,"amap_marker_url":"https://uri.amap.com/marker?position=120.228205,34.142246&name=%E6%8C%AF%E4%B8%9C%E5%85%BD%E8%8D%AF%E9%A5%B2%E6%96%99&src=vetmap&coordinate=gaode&callnative=1"},{"name":"旺旺宠物医院","address":"八滩镇解放路(八滩村5组703号)","phone":"13914631918;17551753112","category":"医疗保健服务;动物医疗场所;宠物诊所","area":"","lng":120.070943,"lat":34.142353,"amap_id":"B0LKV963BX","order":3,"prev_distance_km":14.473,"cumulative_distance_km":25.795,"amap_marker_url":"https://uri.amap.com/marker?position=120.070943,34.142353&name=%E6%97%BA%E6%97%BA%E5%AE%A0%E7%89%A9%E5%8C%BB%E9%99%A2&src=vetmap&coordinate=gaode&callnative=1"},{"name":"嗨贝宠物诊所","address":"人民路159-13号","phone":"15351511234","category":"医疗保健服务;动物医疗场所;宠物诊所","area":"人民北路","lng":119.842152,"lat":34.013695,"amap_id":"B0G29AN7AK","order":4,"prev_distance_km":25.469,"cumulative_distance_km":51.265,"amap_marker_url":"https://uri.amap.com/marker?position=119.842152,34.013695&name=%E5%97%A8%E8%B4%9D%E5%AE%A0%E7%89%A9%E8%AF%8A%E6%89%80&src=vetmap&coordinate=gaode&callnative=1"},{"name":"爱宠屋宠物医院(昌兴店)","address":"市民路168号","phone":"18260316767","category":"医疗保健服务;动物医疗场所;宠物诊所","area":"","lng":119.842539,"lat":34.009713,"amap_id":"B0M6JSD9DB","order":5,"prev_distance_km":0.444,"cumulative_distance_km":51.709,"amap_marker_url":"https://uri.amap.com/marker?position=119.842539,34.009713&name=%E7%88%B1%E5%AE%A0%E5%B1%8B%E5%AE%A0%E7%89%A9%E5%8C%BB%E9%99%A2%28%E6%98%8C%E5%85%B4%E5%BA%97%29&src=vetmap&coordinate=gaode&callnative=1"},{"name":"伊家宠物","address":"中市路与长明东路交叉口东北60米","phone":"","category":"购物服务;专卖店;宠物用品店|医疗保健服务;动物医疗场所;动物医疗场所","area":"","lng":119.841475,"lat":34.004275,"amap_id":"B0L099DOB1","order":6,"prev_distance_km":0.613,"cumulative_distance_km":52.321,"amap_marker_url":"https://uri.amap.com/marker?position=119.841475,34.004275&name=%E4%BC%8A%E5%AE%B6%E5%AE%A0%E7%89%A9&src=vetmap&coordinate=gaode&callnative=1"},{"name":"滨海县畜牧兽医站","address":"阜东中路109号","phone":"","category":"医疗保健服务;动物医疗场所;兽医站","area":"","lng":119.84213,"lat":33.996317,"amap_id":"B02030IB13","order":7,"prev_distance_km":0.887,"cumulative_distance_km":53.208,"amap_marker_url":"https://uri.amap.com/marker?position=119.842130,33.996317&name=%E6%BB%A8%E6%B5%B7%E5%8E%BF%E7%95%9C%E7%89%A7%E5%85%BD%E5%8C%BB%E7%AB%99&src=vetmap&coordinate=gaode&callnative=1"},{"name":"顽皮宝贝宠物门诊","address":"向阳大道525号","phone":"15161910886","category":"医疗保健服务;动物医疗场所;宠物诊所","area":"","lng":119.831998,"lat":34.001331,"amap_id":"B0FFJKL4IT","order":8,"prev_distance_km":1.088,"cumulative_distance_km":54.296,"amap_marker_url":"https://uri.amap.com/marker?position=119.831998,34.001331&name=%E9%A1%BD%E7%9A%AE%E5%AE%9D%E8%B4%9D%E5%AE%A0%E7%89%A9%E9%97%A8%E8%AF%8A&src=vetmap&coordinate=gaode&callnative=1"},{"name":"新时代皇狮宠物医院","address":"海滨大道与景湖路交叉口东南220米","phone":"13276200924","category":"医疗保健服务;动物医疗场所;宠物诊所","area":"","lng":119.828428,"lat":33.994408,"amap_id":"B0JBP95R12","order":9,"prev_distance_km":0.837,"cumulative_distance_km":55.133,"amap_marker_url":"https://uri.amap.com/marker?position=119.828428,33.994408&name=%E6%96%B0%E6%97%B6%E4%BB%A3%E7%9A%87%E7%8B%AE%E5%AE%A0%E7%89%A9%E5%8C%BB%E9%99%A2&src=vetmap&coordinate=gaode&callnative=1"},{"name":"派特宠物医院","address":"海滨大道12-9394(华德名人苑东北角)","phone":"18712216501","category":"医疗保健服务;动物医疗场所;宠物诊所","area":"","lng":119.822195,"lat":33.995965,"amap_id":"B0G1PZK52U","order":10,"prev_distance_km":0.6,"cumulative_distance_km":55.733,"amap_marker_url":"https://uri.amap.com/marker?position=119.822195,33.995965&name=%E6%B4%BE%E7%89%B9%E5%AE%A0%E7%89%A9%E5%8C%BB%E9%99%A2&src=vetmap&coordinate=gaode&callnative=1"},{"name":"爱宠屋宠物医院(碧水绿都店)","address":"富康路141号(碧水绿都东门向北20米)","phone":"18260316767","category":"医疗保健服务;动物医疗场所;宠物诊所","area":"","lng":119.822439,"lat":33.999128,"amap_id":"B0GU4CU1GS","order":11,"prev_distance_km":0.352,"cumulative_distance_km":56.086,"amap_marker_url":"https://uri.amap.com/marker?position=119.822439,33.999128&name=%E7%88%B1%E5%AE%A0%E5%B1%8B%E5%AE%A0%E7%89%A9%E5%8C%BB%E9%99%A2%28%E7%A2%A7%E6%B0%B4%E7%BB%BF%E9%83%BD%E5%BA%97%29&src=vetmap&coordinate=gaode&callnative=1"},{"name":"唯爱宠物","address":"师苑路南侧丰园苑C2号楼114室","phone":"15351510110","category":"医疗保健服务;动物医疗场所;动物医疗场所","area":"","lng":119.816149,"lat":34.0009,"amap_id":"B0KR4DWR2N","order":12,"prev_distance_km":0.612,"cumulative_distance_km":56.698,"amap_marker_url":"https://uri.amap.com/marker?position=119.816149,34.000900&name=%E5%94%AF%E7%88%B1%E5%AE%A0%E7%89%A9&src=vetmap&coordinate=gaode&callnative=1"},{"name":"名仁宠物医院","address":"师苑路与港城路交叉口南150米","phone":"0515-84838733;18012588797","category":"医疗保健服务;动物医疗场所;宠物诊所","area":"","lng":119.81686,"lat":34.000009,"amap_id":"B0FFGXMW19","order":13,"prev_distance_km":0.119,"cumulative_distance_km":56.817,"amap_marker_url":"https://uri.amap.com/marker?position=119.816860,34.000009&name=%E5%90%8D%E4%BB%81%E5%AE%A0%E7%89%A9%E5%8C%BB%E9%99%A2&src=vetmap&coordinate=gaode&callnative=1"},{"name":"美宸宠物医院","address":"海滨大道163号","phone":"15189330388","category":"医疗保健服务;动物医疗场所;宠物诊所","area":"","lng":119.819632,"lat":33.995959,"amap_id":"B0G1314LUQ","order":14,"prev_distance_km":0.518,"cumulative_distance_km":57.335,"amap_marker_url":"https://uri.amap.com/marker?position=119.819632,33.995959&name=%E7%BE%8E%E5%AE%B8%E5%AE%A0%E7%89%A9%E5%8C%BB%E9%99%A2&src=vetmap&coordinate=gaode&callnative=1"},{"name":"新一宠物医院(滨海店)","address":"永康路华德名人苑南门后2排H03栋","phone":"13851112219","category":"医疗保健服务;动物医疗场所;宠物诊所","area":"","lng":119.819374,"lat":33.993157,"amap_id":"B0G3XCFJ8R","order":15,"prev_distance_km":0.312,"cumulative_distance_km":57.647,"amap_marker_url":"https://uri.amap.com/marker?position=119.819374,33.993157&name=%E6%96%B0%E4%B8%80%E5%AE%A0%E7%89%A9%E5%8C%BB%E9%99%A2%28%E6%BB%A8%E6%B5%B7%E5%BA%97%29&src=vetmap&coordinate=gaode&callnative=1"},{"name":"滨海县天场动物防疫服务有限公司","address":"天场镇新天大街164号","phone":"","category":"医疗保健服务;动物医疗场所;动物医疗场所","area":"","lng":119.771074,"lat":33.944555,"amap_id":"B0LDMUEEVV","order":16,"prev_distance_km":7.003,"cumulative_distance_km":64.651,"amap_marker_url":"https://uri.amap.com/marker?position=119.771074,33.944555&name=%E6%BB%A8%E6%B5%B7%E5%8E%BF%E5%A4%A9%E5%9C%BA%E5%8A%A8%E7%89%A9%E9%98%B2%E7%96%AB%E6%9C%8D%E5%8A%A1%E6%9C%89%E9%99%90%E5%85%AC%E5%8F%B8&src=vetmap&coordinate=gaode&callnative=1"},{"name":"滨海县通榆会众动物防疫公司","address":"妙手回佳盲人推拿北侧230米","phone":"","category":"医疗保健服务;动物医疗场所;动物医疗场所","area":"","lng":119.845692,"lat":33.945484,"amap_id":"B0L0750U32","order":17,"prev_distance_km":6.884,"cumulative_distance_km":71.534,"amap_marker_url":"https://uri.amap.com/marker?position=119.845692,33.945484&name=%E6%BB%A8%E6%B5%B7%E5%8E%BF%E9%80%9A%E6%A6%86%E4%BC%9A%E4%BC%97%E5%8A%A8%E7%89%A9%E9%98%B2%E7%96%AB%E5%85%AC%E5%8F%B8&src=vetmap&coordinate=gaode&callnative=1"},{"name":"滨海县正红镇畜牧兽医站","address":"中心路71号","phone":"15195170888","category":"医疗保健服务;动物医疗场所;兽医站","area":"","lng":119.900934,"lat":33.883428,"amap_id":"B0IUY5TD7D","order":18,"prev_distance_km":8.579,"cumulative_distance_km":80.114,"amap_marker_url":"https://uri.amap.com/marker?position=119.900934,33.883428&name=%E6%BB%A8%E6%B5%B7%E5%8E%BF%E6%AD%A3%E7%BA%A2%E9%95%87%E7%95%9C%E7%89%A7%E5%85%BD%E5%8C%BB%E7%AB%99&src=vetmap&coordinate=gaode&callnative=1"}]}