{"summary":{"id":"d00874","province":"江苏省","city":"镇江市","district":"润州区","count":14,"total_distance_km":18.358,"coordinate_system":"GCJ-02 / Amap","generated_at":"2026-05-07 20:23:04"},"rows":[{"name":"一帆牧业畜牧服务站","address":"乔家门立交桥东边第一家","phone":"13852988962","category":"医疗保健服务;动物医疗场所;兽医站","area":"","lng":119.388959,"lat":32.161044,"amap_id":"B0K0O5IP3X","order":1,"prev_distance_km":0.0,"cumulative_distance_km":0.0,"amap_marker_url":"https://uri.amap.com/marker?position=119.388959,32.161044&name=%E4%B8%80%E5%B8%86%E7%89%A7%E4%B8%9A%E7%95%9C%E7%89%A7%E6%9C%8D%E5%8A%A1%E7%AB%99&src=vetmap&coordinate=gaode&callnative=1"},{"name":"旺旺宠物医院(24小时急诊夜诊)雅居乐店","address":"雅居乐20栋1067","phone":"0511-88809033;17368199158","category":"医疗保健服务;动物医疗场所;宠物诊所","area":"","lng":119.423525,"lat":32.163325,"amap_id":"B0HKCCBALQ","order":2,"prev_distance_km":3.264,"cumulative_distance_km":3.264,"amap_marker_url":"https://uri.amap.com/marker?position=119.423525,32.163325&name=%E6%97%BA%E6%97%BA%E5%AE%A0%E7%89%A9%E5%8C%BB%E9%99%A2%2824%E5%B0%8F%E6%97%B6%E6%80%A5%E8%AF%8A%E5%A4%9C%E8%AF%8A%29%E9%9B%85%E5%B1%85%E4%B9%90%E5%BA%97&src=vetmap&coordinate=gaode&callnative=1"},{"name":"爱琪宠物医院合安店","address":"檀山路10号魅力之城1街区170幢0105-0110室/2185","phone":"17851771222","category":"医疗保健服务;动物医疗场所;宠物诊所","area":"万科","lng":119.419457,"lat":32.176271,"amap_id":"B0I2HZ2KP5","order":3,"prev_distance_km":1.49,"cumulative_distance_km":4.753,"amap_marker_url":"https://uri.amap.com/marker?position=119.419457,32.176271&name=%E7%88%B1%E7%90%AA%E5%AE%A0%E7%89%A9%E5%8C%BB%E9%99%A2%E5%90%88%E5%AE%89%E5%BA%97&src=vetmap&coordinate=gaode&callnative=1"},{"name":"美吉宠物生活馆","address":"君临南山111号","phone":"13862452263;15195448168","category":"医疗保健服务;动物医疗场所;宠物诊所","area":"","lng":119.411079,"lat":32.178241,"amap_id":"B0FFI160OM","order":4,"prev_distance_km":0.818,"cumulative_distance_km":5.572,"amap_marker_url":"https://uri.amap.com/marker?position=119.411079,32.178241&name=%E7%BE%8E%E5%90%89%E5%AE%A0%E7%89%A9%E7%94%9F%E6%B4%BB%E9%A6%86&src=vetmap&coordinate=gaode&callnative=1"},{"name":"瑞派宠物医院(美的城店)","address":"美的悦然广场1F层143-144号商铺","phone":"0511-88880120;13337773118","category":"医疗保健服务;动物医疗场所;宠物诊所","area":"","lng":119.404983,"lat":32.184292,"amap_id":"B0I21RNPYT","order":5,"prev_distance_km":0.884,"cumulative_distance_km":6.456,"amap_marker_url":"https://uri.amap.com/marker?position=119.404983,32.184292&name=%E7%91%9E%E6%B4%BE%E5%AE%A0%E7%89%A9%E5%8C%BB%E9%99%A2%28%E7%BE%8E%E7%9A%84%E5%9F%8E%E5%BA%97%29&src=vetmap&coordinate=gaode&callnative=1"},{"name":"镇江市润州区七里甸畜牧兽医站","address":"坡岗路16号","phone":"0511-85628068","category":"医疗保健服务;动物医疗场所;兽医站","area":"","lng":119.417026,"lat":32.187373,"amap_id":"B0J09UTCH1","order":6,"prev_distance_km":1.184,"cumulative_distance_km":7.64,"amap_marker_url":"https://uri.amap.com/marker?position=119.417026,32.187373&name=%E9%95%87%E6%B1%9F%E5%B8%82%E6%B6%A6%E5%B7%9E%E5%8C%BA%E4%B8%83%E9%87%8C%E7%94%B8%E7%95%9C%E7%89%A7%E5%85%BD%E5%8C%BB%E7%AB%99&src=vetmap&coordinate=gaode&callnative=1"},{"name":"常泽宠物医院CT核磁·犬猫异宠全科·外科手术、急重症转诊中心","address":"桃西路386号润康城17幢101室","phone":"13861357105","category":"医疗保健服务;动物医疗场所;宠物诊所","area":"","lng":119.416686,"lat":32.202032,"amap_id":"B0FFLIUHT7","order":7,"prev_distance_km":1.63,"cumulative_distance_km":9.27,"amap_marker_url":"https://uri.amap.com/marker?position=119.416686,32.202032&name=%E5%B8%B8%E6%B3%BD%E5%AE%A0%E7%89%A9%E5%8C%BB%E9%99%A2CT%E6%A0%B8%E7%A3%81%C2%B7%E7%8A%AC%E7%8C%AB%E5%BC%82%E5%AE%A0%E5%85%A8%E7%A7%91%C2%B7%E5%A4%96%E7%A7%91%E6%89%8B%E6%9C%AF%E3%80%81%E6%80%A5%E9%87%8D%E7%97%87%E8%BD%AC%E8%AF%8A%E4%B8%AD%E5%BF%83&src=vetmap&coordinate=gaode&callnative=1"},{"name":"瑞派宠物医院·犬猫全科·眼科·肿瘤科(朱方路店)","address":"朱方路209号","phone":"13337770692","category":"医疗保健服务;动物医疗场所;宠物诊所","area":"","lng":119.419312,"lat":32.202061,"amap_id":"B0FFIRTF2R","order":8,"prev_distance_km":0.247,"cumulative_distance_km":9.517,"amap_marker_url":"https://uri.amap.com/marker?position=119.419312,32.202061&name=%E7%91%9E%E6%B4%BE%E5%AE%A0%E7%89%A9%E5%8C%BB%E9%99%A2%C2%B7%E7%8A%AC%E7%8C%AB%E5%85%A8%E7%A7%91%C2%B7%E7%9C%BC%E7%A7%91%C2%B7%E8%82%BF%E7%98%A4%E7%A7%91%28%E6%9C%B1%E6%96%B9%E8%B7%AF%E5%BA%97%29&src=vetmap&coordinate=gaode&callnative=1"},{"name":"云边边宠物医院","address":"润州路6号春天里3幢110室","phone":"18912805159","category":"医疗保健服务;动物医疗场所;宠物诊所","area":"","lng":119.421101,"lat":32.217852,"amap_id":"B0KKCSMRYB","order":9,"prev_distance_km":1.764,"cumulative_distance_km":11.281,"amap_marker_url":"https://uri.amap.com/marker?position=119.421101,32.217852&name=%E4%BA%91%E8%BE%B9%E8%BE%B9%E5%AE%A0%E7%89%A9%E5%8C%BB%E9%99%A2&src=vetmap&coordinate=gaode&callnative=1"},{"name":"爱心宠物医院CT.核磁 犬猫异宠专科(万达店)","address":"华都名城荣锦苑002幢1-2层0118号","phone":"0511-85241098;18912802261","category":"医疗保健服务;动物医疗场所;宠物诊所","area":"","lng":119.437521,"lat":32.194141,"amap_id":"B0FFF8DEOA","order":10,"prev_distance_km":3.056,"cumulative_distance_km":14.337,"amap_marker_url":"https://uri.amap.com/marker?position=119.437521,32.194141&name=%E7%88%B1%E5%BF%83%E5%AE%A0%E7%89%A9%E5%8C%BB%E9%99%A2CT.%E6%A0%B8%E7%A3%81%20%E7%8A%AC%E7%8C%AB%E5%BC%82%E5%AE%A0%E4%B8%93%E7%A7%91%28%E4%B8%87%E8%BE%BE%E5%BA%97%29&src=vetmap&coordinate=gaode&callnative=1"},{"name":"见秋宠物医院","address":"庄泉路16-4","phone":"18652820002","category":"医疗保健服务;动物医疗场所;宠物诊所","area":"","lng":119.43485,"lat":32.190027,"amap_id":"B0K0992380","order":11,"prev_distance_km":0.522,"cumulative_distance_km":14.859,"amap_marker_url":"https://uri.amap.com/marker?position=119.434850,32.190027&name=%E8%A7%81%E7%A7%8B%E5%AE%A0%E7%89%A9%E5%8C%BB%E9%99%A2&src=vetmap&coordinate=gaode&callnative=1"},{"name":"润鑫宠物医院","address":"南山路20-21","phone":"13914559385","category":"医疗保健服务;动物医疗场所;宠物诊所","area":"","lng":119.438653,"lat":32.18882,"amap_id":"B0FFIUFKDF","order":12,"prev_distance_km":0.382,"cumulative_distance_km":15.241,"amap_marker_url":"https://uri.amap.com/marker?position=119.438653,32.188820&name=%E6%B6%A6%E9%91%AB%E5%AE%A0%E7%89%A9%E5%8C%BB%E9%99%A2&src=vetmap&coordinate=gaode&callnative=1"},{"name":"镇江众合动物影像中心","address":"上河御府东北门西北120米","phone":"","category":"医疗保健服务;动物医疗场所;动物医疗场所","area":"","lng":119.459661,"lat":32.195976,"amap_id":"B0K0DXL7WA","order":13,"prev_distance_km":2.131,"cumulative_distance_km":17.372,"amap_marker_url":"https://uri.amap.com/marker?position=119.459661,32.195976&name=%E9%95%87%E6%B1%9F%E4%BC%97%E5%90%88%E5%8A%A8%E7%89%A9%E5%BD%B1%E5%83%8F%E4%B8%AD%E5%BF%83&src=vetmap&coordinate=gaode&callnative=1"},{"name":"镇江畜牧兽医技术站","address":"丁卯桥路1号镇江市第三人民医院","phone":"13952891979","category":"医疗保健服务;动物医疗场所;兽医站","area":"","lng":119.468868,"lat":32.191754,"amap_id":"B0FFHD0P47","order":14,"prev_distance_km":0.985,"cumulative_distance_km":18.358,"amap_marker_url":"https://uri.amap.com/marker?position=119.468868,32.191754&name=%E9%95%87%E6%B1%9F%E7%95%9C%E7%89%A7%E5%85%BD%E5%8C%BB%E6%8A%80%E6%9C%AF%E7%AB%99&src=vetmap&coordinate=gaode&callnative=1"}]}