{"summary":{"id":"d00834","province":"江苏省","city":"泰州市","district":"泰兴市","count":44,"total_distance_km":143.096,"coordinate_system":"GCJ-02 / Amap","generated_at":"2026-05-07 20:22:52"},"rows":[{"name":"啸凌宠物诊所(长江国际花园店)","address":"长江国际B5幢109-110室","phone":"13285223292;13512555859","category":"医疗保健服务;动物医疗场所;宠物诊所","area":"","lng":119.994574,"lat":32.051696,"amap_id":"B0JACRKZ3P","order":1,"prev_distance_km":0.0,"cumulative_distance_km":0.0,"amap_marker_url":"https://uri.amap.com/marker?position=119.994574,32.051696&name=%E5%95%B8%E5%87%8C%E5%AE%A0%E7%89%A9%E8%AF%8A%E6%89%80%28%E9%95%BF%E6%B1%9F%E5%9B%BD%E9%99%85%E8%8A%B1%E5%9B%AD%E5%BA%97%29&src=vetmap&coordinate=gaode&callnative=1"},{"name":"泰兴市虹桥镇畜牧兽医站","address":"分蒋线与356省道交叉口西240米","phone":"","category":"医疗保健服务;动物医疗场所;兽医站","area":"","lng":120.018469,"lat":32.074832,"amap_id":"B0FFJXTHSF","order":2,"prev_distance_km":3.419,"cumulative_distance_km":3.419,"amap_marker_url":"https://uri.amap.com/marker?position=120.018469,32.074832&name=%E6%B3%B0%E5%85%B4%E5%B8%82%E8%99%B9%E6%A1%A5%E9%95%87%E7%95%9C%E7%89%A7%E5%85%BD%E5%8C%BB%E7%AB%99&src=vetmap&coordinate=gaode&callnative=1"},{"name":"泰兴市张桥畜牧兽医站","address":"张桥镇镇西分蒋线张桥畜牧兽医站","phone":"","category":"医疗保健服务;动物医疗场所;兽医站","area":"","lng":120.067077,"lat":32.11507,"amap_id":"B020B01SEY","order":3,"prev_distance_km":6.402,"cumulative_distance_km":9.821,"amap_marker_url":"https://uri.amap.com/marker?position=120.067077,32.115070&name=%E6%B3%B0%E5%85%B4%E5%B8%82%E5%BC%A0%E6%A1%A5%E7%95%9C%E7%89%A7%E5%85%BD%E5%8C%BB%E7%AB%99&src=vetmap&coordinate=gaode&callnative=1"},{"name":"李家桥兽药门市部","address":"345国道与张匡公路交叉口西北100米","phone":"","category":"购物服务;购物相关场所;购物相关场所|医疗保健服务;动物医疗场所;动物医疗场所","area":"","lng":120.052181,"lat":32.135074,"amap_id":"B0KKN6U6XW","order":4,"prev_distance_km":2.63,"cumulative_distance_km":12.451,"amap_marker_url":"https://uri.amap.com/marker?position=120.052181,32.135074&name=%E6%9D%8E%E5%AE%B6%E6%A1%A5%E5%85%BD%E8%8D%AF%E9%97%A8%E5%B8%82%E9%83%A8&src=vetmap&coordinate=gaode&callnative=1"},{"name":"初欣宠物诊所","address":"祥生未来城市花园21幢109","phone":"18952671168","category":"医疗保健服务;动物医疗场所;宠物诊所","area":"","lng":120.038772,"lat":32.15192,"amap_id":"B0KD6CVONS","order":5,"prev_distance_km":2.259,"cumulative_distance_km":14.709,"amap_marker_url":"https://uri.amap.com/marker?position=120.038772,32.151920&name=%E5%88%9D%E6%AC%A3%E5%AE%A0%E7%89%A9%E8%AF%8A%E6%89%80&src=vetmap&coordinate=gaode&callnative=1"},{"name":"猫科犬科","address":"羌溪南路与永辉路交叉口西北180米","phone":"","category":"医疗保健服务;动物医疗场所;宠物诊所","area":"","lng":120.038715,"lat":32.151911,"amap_id":"B0K3M7U1U8","order":6,"prev_distance_km":0.005,"cumulative_distance_km":14.715,"amap_marker_url":"https://uri.amap.com/marker?position=120.038715,32.151911&name=%E7%8C%AB%E7%A7%91%E7%8A%AC%E7%A7%91&src=vetmap&coordinate=gaode&callnative=1"},{"name":"顽皮家族动物医院(羌溪公园店)","address":"永丰路182号","phone":"18013454182","category":"医疗保健服务;动物医疗场所;宠物诊所","area":"","lng":120.031223,"lat":32.162941,"amap_id":"B0FFKLVYLR","order":7,"prev_distance_km":1.415,"cumulative_distance_km":16.13,"amap_marker_url":"https://uri.amap.com/marker?position=120.031223,32.162941&name=%E9%A1%BD%E7%9A%AE%E5%AE%B6%E6%97%8F%E5%8A%A8%E7%89%A9%E5%8C%BB%E9%99%A2%28%E7%BE%8C%E6%BA%AA%E5%85%AC%E5%9B%AD%E5%BA%97%29&src=vetmap&coordinate=gaode&callnative=1"},{"name":"泰宠宠物医院(国庆二村一区店)","address":"国庆二村一区7栋11号","phone":"13914525026","category":"医疗保健服务;动物医疗场所;宠物诊所","area":"","lng":120.031018,"lat":32.162816,"amap_id":"B0FFHLYOT2","order":8,"prev_distance_km":0.024,"cumulative_distance_km":16.154,"amap_marker_url":"https://uri.amap.com/marker?position=120.031018,32.162816&name=%E6%B3%B0%E5%AE%A0%E5%AE%A0%E7%89%A9%E5%8C%BB%E9%99%A2%28%E5%9B%BD%E5%BA%86%E4%BA%8C%E6%9D%91%E4%B8%80%E5%8C%BA%E5%BA%97%29&src=vetmap&coordinate=gaode&callnative=1"},{"name":"京阳动物医院(泰兴分院)","address":"长征路永兴小区6号楼113号1楼(茂昌眼镜旁)","phone":"13040111964","category":"医疗保健服务;动物医疗场所;宠物诊所","area":"济川","lng":120.016623,"lat":32.168778,"amap_id":"B0FFJJM3LB","order":9,"prev_distance_km":1.508,"cumulative_distance_km":17.662,"amap_marker_url":"https://uri.amap.com/marker?position=120.016623,32.168778&name=%E4%BA%AC%E9%98%B3%E5%8A%A8%E7%89%A9%E5%8C%BB%E9%99%A2%28%E6%B3%B0%E5%85%B4%E5%88%86%E9%99%A2%29&src=vetmap&coordinate=gaode&callnative=1"},{"name":"乐宠宠物医院","address":"羌溪路佳源新天地5号楼128室","phone":"13052999686","category":"医疗保健服务;动物医疗场所;宠物诊所","area":"","lng":120.023225,"lat":32.173723,"amap_id":"B0J1U98TT3","order":10,"prev_distance_km":0.83,"cumulative_distance_km":18.492,"amap_marker_url":"https://uri.amap.com/marker?position=120.023225,32.173723&name=%E4%B9%90%E5%AE%A0%E5%AE%A0%E7%89%A9%E5%8C%BB%E9%99%A2&src=vetmap&coordinate=gaode&callnative=1"},{"name":"宠友医动物诊疗中心","address":"威尼斯城13号2幢104室门面房","phone":"13775733358","category":"医疗保健服务;动物医疗场所;宠物诊所","area":"","lng":120.012238,"lat":32.184148,"amap_id":"B0LGCCU1ES","order":11,"prev_distance_km":1.553,"cumulative_distance_km":20.045,"amap_marker_url":"https://uri.amap.com/marker?position=120.012238,32.184148&name=%E5%AE%A0%E5%8F%8B%E5%8C%BB%E5%8A%A8%E7%89%A9%E8%AF%8A%E7%96%97%E4%B8%AD%E5%BF%83&src=vetmap&coordinate=gaode&callnative=1"},{"name":"友佳宠物医院","address":"根思东路82号","phone":"15052878053","category":"医疗保健服务;动物医疗场所;宠物诊所","area":"","lng":120.024212,"lat":32.181843,"amap_id":"B020B0OAEN","order":12,"prev_distance_km":1.156,"cumulative_distance_km":21.201,"amap_marker_url":"https://uri.amap.com/marker?position=120.024212,32.181843&name=%E5%8F%8B%E4%BD%B3%E5%AE%A0%E7%89%A9%E5%8C%BB%E9%99%A2&src=vetmap&coordinate=gaode&callnative=1"},{"name":"爱贝宠物医院","address":"陵园路1-2号","phone":"18018296700","category":"医疗保健服务;动物医疗场所;宠物诊所","area":"","lng":120.027817,"lat":32.178839,"amap_id":"B0IDM7X5GB","order":13,"prev_distance_km":0.476,"cumulative_distance_km":21.677,"amap_marker_url":"https://uri.amap.com/marker?position=120.027817,32.178839&name=%E7%88%B1%E8%B4%9D%E5%AE%A0%E7%89%A9%E5%8C%BB%E9%99%A2&src=vetmap&coordinate=gaode&callnative=1"},{"name":"宠爱一生宠物诊所(鼓楼中路店)","address":"鼓楼东路38-1号","phone":"15961766322","category":"医疗保健服务;动物医疗场所;宠物诊所","area":"鼓楼东路","lng":120.026332,"lat":32.169952,"amap_id":"B0FFMB3HH0","order":14,"prev_distance_km":0.998,"cumulative_distance_km":22.675,"amap_marker_url":"https://uri.amap.com/marker?position=120.026332,32.169952&name=%E5%AE%A0%E7%88%B1%E4%B8%80%E7%94%9F%E5%AE%A0%E7%89%A9%E8%AF%8A%E6%89%80%28%E9%BC%93%E6%A5%BC%E4%B8%AD%E8%B7%AF%E5%BA%97%29&src=vetmap&coordinate=gaode&callnative=1"},{"name":"泰兴市畜牧兽医中心","address":"泰兴镇财校路26号","phone":"13401207890","category":"医疗保健服务;动物医疗场所;兽医站","area":"济川","lng":120.033021,"lat":32.166968,"amap_id":"B020B01SC4","order":15,"prev_distance_km":0.712,"cumulative_distance_km":23.387,"amap_marker_url":"https://uri.amap.com/marker?position=120.033021,32.166968&name=%E6%B3%B0%E5%85%B4%E5%B8%82%E7%95%9C%E7%89%A7%E5%85%BD%E5%8C%BB%E4%B8%AD%E5%BF%83&src=vetmap&coordinate=gaode&callnative=1"},{"name":"泰平道宠物医院","address":"济川街道东润路96-3号","phone":"18115940807","category":"医疗保健服务;动物医疗场所;宠物诊所","area":"济川","lng":120.046738,"lat":32.166174,"amap_id":"B0FFMETIYZ","order":16,"prev_distance_km":1.294,"cumulative_distance_km":24.681,"amap_marker_url":"https://uri.amap.com/marker?position=120.046738,32.166174&name=%E6%B3%B0%E5%B9%B3%E9%81%93%E5%AE%A0%E7%89%A9%E5%8C%BB%E9%99%A2&src=vetmap&coordinate=gaode&callnative=1"},{"name":"爱心宠物医院","address":"丽景园东南门旁","phone":"","category":"医疗保健服务;动物医疗场所;宠物诊所","area":"鼓楼东路","lng":120.045802,"lat":32.174689,"amap_id":"B0KRTZQ9NW","order":17,"prev_distance_km":0.951,"cumulative_distance_km":25.632,"amap_marker_url":"https://uri.amap.com/marker?position=120.045802,32.174689&name=%E7%88%B1%E5%BF%83%E5%AE%A0%E7%89%A9%E5%8C%BB%E9%99%A2&src=vetmap&coordinate=gaode&callnative=1"},{"name":"天使家园宠物医院","address":"鼓楼东路226号","phone":"15261066192","category":"医疗保健服务;动物医疗场所;宠物诊所","area":"鼓楼东路","lng":120.045825,"lat":32.174725,"amap_id":"B0J1CHFVDU","order":18,"prev_distance_km":0.005,"cumulative_distance_km":25.636,"amap_marker_url":"https://uri.amap.com/marker?position=120.045825,32.174725&name=%E5%A4%A9%E4%BD%BF%E5%AE%B6%E5%9B%AD%E5%AE%A0%E7%89%A9%E5%8C%BB%E9%99%A2&src=vetmap&coordinate=gaode&callnative=1"},{"name":"泰兴市姚王街道畜牧兽医站","address":"姚王镇泰姚南路48号","phone":"","category":"医疗保健服务;动物医疗场所;兽医站","area":"","lng":120.076381,"lat":32.212409,"amap_id":"B0HUKB4UH4","order":19,"prev_distance_km":5.082,"cumulative_distance_km":30.718,"amap_marker_url":"https://uri.amap.com/marker?position=120.076381,32.212409&name=%E6%B3%B0%E5%85%B4%E5%B8%82%E5%A7%9A%E7%8E%8B%E8%A1%97%E9%81%93%E7%95%9C%E7%89%A7%E5%85%BD%E5%8C%BB%E7%AB%99&src=vetmap&coordinate=gaode&callnative=1"},{"name":"姚王镇畜牧兽医站-公共卫生科","address":"众安路与胡曲线交叉口西80米","phone":"","category":"医疗保健服务;动物医疗场所;兽医站","area":"","lng":120.074267,"lat":32.215942,"amap_id":"B0L16ZRQ85","order":20,"prev_distance_km":0.44,"cumulative_distance_km":31.158,"amap_marker_url":"https://uri.amap.com/marker?position=120.074267,32.215942&name=%E5%A7%9A%E7%8E%8B%E9%95%87%E7%95%9C%E7%89%A7%E5%85%BD%E5%8C%BB%E7%AB%99-%E5%85%AC%E5%85%B1%E5%8D%AB%E7%94%9F%E7%A7%91&src=vetmap&coordinate=gaode&callnative=1"},{"name":"宣堡镇畜牧兽医站","address":"宣蒋线与康乐街交叉口北140米","phone":"","category":"医疗保健服务;动物医疗场所;兽医站","area":"","lng":119.998032,"lat":32.291564,"amap_id":"B020B0O7IO","order":21,"prev_distance_km":11.05,"cumulative_distance_km":42.208,"amap_marker_url":"https://uri.amap.com/marker?position=119.998032,32.291564&name=%E5%AE%A3%E5%A0%A1%E9%95%87%E7%95%9C%E7%89%A7%E5%85%BD%E5%8C%BB%E7%AB%99&src=vetmap&coordinate=gaode&callnative=1"},{"name":"兽医站","address":"303县道与新广线交叉口东200米","phone":"","category":"医疗保健服务;动物医疗场所;兽医站","area":"","lng":120.125689,"lat":32.294099,"amap_id":"B0JG6HKI7N","order":22,"prev_distance_km":12.003,"cumulative_distance_km":54.211,"amap_marker_url":"https://uri.amap.com/marker?position=120.125689,32.294099&name=%E5%85%BD%E5%8C%BB%E7%AB%99&src=vetmap&coordinate=gaode&callnative=1"},{"name":"新街镇畜牧兽医站","address":"好易购生活购物广场东(古宣线北)","phone":"","category":"医疗保健服务;动物医疗场所;兽医站","area":"","lng":120.111697,"lat":32.334824,"amap_id":"B020B01T01","order":23,"prev_distance_km":4.715,"cumulative_distance_km":58.926,"amap_marker_url":"https://uri.amap.com/marker?position=120.111697,32.334824&name=%E6%96%B0%E8%A1%97%E9%95%87%E7%95%9C%E7%89%A7%E5%85%BD%E5%8C%BB%E7%AB%99&src=vetmap&coordinate=gaode&callnative=1"},{"name":"泰兴市元竹畜牧兽医站","address":"爱园西路与229省道交叉口南150米元竹镇镇北村村委会附近","phone":"15052396558","category":"医疗保健服务;动物医疗场所;兽医站","area":"","lng":120.177356,"lat":32.335724,"amap_id":"B0FFJTS208","order":24,"prev_distance_km":6.17,"cumulative_distance_km":65.096,"amap_marker_url":"https://uri.amap.com/marker?position=120.177356,32.335724&name=%E6%B3%B0%E5%85%B4%E5%B8%82%E5%85%83%E7%AB%B9%E7%95%9C%E7%89%A7%E5%85%BD%E5%8C%BB%E7%AB%99&src=vetmap&coordinate=gaode&callnative=1"},{"name":"泰兴市横垛动物医院","address":"人民东路与文化路交叉口东80米","phone":"15161077391","category":"医疗保健服务;动物医疗场所;宠物诊所|医疗保健服务;动物医疗场所;兽医站","area":"","lng":120.278125,"lat":32.310374,"amap_id":"B020B024ZT","order":25,"prev_distance_km":9.879,"cumulative_distance_km":74.975,"amap_marker_url":"https://uri.amap.com/marker?position=120.278125,32.310374&name=%E6%B3%B0%E5%85%B4%E5%B8%82%E6%A8%AA%E5%9E%9B%E5%8A%A8%E7%89%A9%E5%8C%BB%E9%99%A2&src=vetmap&coordinate=gaode&callnative=1"},{"name":"古溪镇畜牧兽医站(振兴路)","address":"乾坤路与分雅路交叉口东60米","phone":"","category":"医疗保健服务;动物医疗场所;兽医站","area":"","lng":120.330269,"lat":32.343473,"amap_id":"B020B023HO","order":26,"prev_distance_km":6.128,"cumulative_distance_km":81.103,"amap_marker_url":"https://uri.amap.com/marker?position=120.330269,32.343473&name=%E5%8F%A4%E6%BA%AA%E9%95%87%E7%95%9C%E7%89%A7%E5%85%BD%E5%8C%BB%E7%AB%99%28%E6%8C%AF%E5%85%B4%E8%B7%AF%29&src=vetmap&coordinate=gaode&callnative=1"},{"name":"泰兴市分界镇畜牧兽医站","address":"繁荣南路与泰康路交叉口东北20米","phone":"","category":"医疗保健服务;动物医疗场所;兽医站","area":"","lng":120.336662,"lat":32.270303,"amap_id":"B0FFIZLN64","order":27,"prev_distance_km":8.158,"cumulative_distance_km":89.262,"amap_marker_url":"https://uri.amap.com/marker?position=120.336662,32.270303&name=%E6%B3%B0%E5%85%B4%E5%B8%82%E5%88%86%E7%95%8C%E9%95%87%E7%95%9C%E7%89%A7%E5%85%BD%E5%8C%BB%E7%AB%99&src=vetmap&coordinate=gaode&callnative=1"},{"name":"恒牧动保","address":"229省道与城黄东路交叉口东南80米","phone":"13921747966","category":"医疗保健服务;动物医疗场所;宠物诊所","area":"","lng":120.25507,"lat":32.246195,"amap_id":"B0G06BL6B7","order":28,"prev_distance_km":8.127,"cumulative_distance_km":97.389,"amap_marker_url":"https://uri.amap.com/marker?position=120.255070,32.246195&name=%E6%81%92%E7%89%A7%E5%8A%A8%E4%BF%9D&src=vetmap&coordinate=gaode&callnative=1"},{"name":"黄桥镇畜牧兽医站(塔东路店)","address":"塔东路与黄野线交叉口西南120米","phone":"15961018161","category":"医疗保健服务;动物医疗场所;兽医站","area":"","lng":120.243401,"lat":32.247177,"amap_id":"B020B0P6BM","order":29,"prev_distance_km":1.103,"cumulative_distance_km":98.492,"amap_marker_url":"https://uri.amap.com/marker?position=120.243401,32.247177&name=%E9%BB%84%E6%A1%A5%E9%95%87%E7%95%9C%E7%89%A7%E5%85%BD%E5%8C%BB%E7%AB%99%28%E5%A1%94%E4%B8%9C%E8%B7%AF%E5%BA%97%29&src=vetmap&coordinate=gaode&callnative=1"},{"name":"大嘴狗宠物诊所","address":"黄桥镇十桥南路142号","phone":"","category":"医疗保健服务;动物医疗场所;宠物诊所","area":"","lng":120.235616,"lat":32.234687,"amap_id":"B0FFI1ZRPJ","order":30,"prev_distance_km":1.57,"cumulative_distance_km":100.062,"amap_marker_url":"https://uri.amap.com/marker?position=120.235616,32.234687&name=%E5%A4%A7%E5%98%B4%E7%8B%97%E5%AE%A0%E7%89%A9%E8%AF%8A%E6%89%80&src=vetmap&coordinate=gaode&callnative=1"},{"name":"泰兴市安欣宠物诊所","address":"黄桥镇十桥南路144号","phone":"15896070088","category":"医疗保健服务;动物医疗场所;宠物诊所","area":"","lng":120.235593,"lat":32.234723,"amap_id":"B0K3SMJEUW","order":31,"prev_distance_km":0.005,"cumulative_distance_km":100.066,"amap_marker_url":"https://uri.amap.com/marker?position=120.235593,32.234723&name=%E6%B3%B0%E5%85%B4%E5%B8%82%E5%AE%89%E6%AC%A3%E5%AE%A0%E7%89%A9%E8%AF%8A%E6%89%80&src=vetmap&coordinate=gaode&callnative=1"},{"name":"宠物医院","address":"黄桥镇东进西路377-5号","phone":"13852674892","category":"医疗保健服务;动物医疗场所;宠物诊所","area":"","lng":120.22796,"lat":32.237192,"amap_id":"B0FFID2A0Y","order":32,"prev_distance_km":0.769,"cumulative_distance_km":100.835,"amap_marker_url":"https://uri.amap.com/marker?position=120.227960,32.237192&name=%E5%AE%A0%E7%89%A9%E5%8C%BB%E9%99%A2&src=vetmap&coordinate=gaode&callnative=1"},{"name":"恒爱宠物医院","address":"定慧小区(银杏西路)","phone":"13812499697","category":"医疗保健服务;动物医疗场所;宠物诊所","area":"","lng":120.22271,"lat":32.241997,"amap_id":"B0L2NSHGUE","order":33,"prev_distance_km":0.728,"cumulative_distance_km":101.562,"amap_marker_url":"https://uri.amap.com/marker?position=120.222710,32.241997&name=%E6%81%92%E7%88%B1%E5%AE%A0%E7%89%A9%E5%8C%BB%E9%99%A2&src=vetmap&coordinate=gaode&callnative=1"},{"name":"酷狗宠物","address":"黄桥镇河滨家园南区25-02号","phone":"13812499697","category":"医疗保健服务;动物医疗场所;宠物诊所","area":"","lng":120.222699,"lat":32.241977,"amap_id":"B0FFLCJAQZ","order":34,"prev_distance_km":0.002,"cumulative_distance_km":101.565,"amap_marker_url":"https://uri.amap.com/marker?position=120.222699,32.241977&name=%E9%85%B7%E7%8B%97%E5%AE%A0%E7%89%A9&src=vetmap&coordinate=gaode&callnative=1"},{"name":"泰兴市诺康宠物医院","address":"黄桥镇国裕华府四期10幢106室","phone":"15061080055","category":"医疗保健服务;动物医疗场所;宠物诊所","area":"","lng":120.215714,"lat":32.2325,"amap_id":"B0J1XRY34R","order":35,"prev_distance_km":1.242,"cumulative_distance_km":102.807,"amap_marker_url":"https://uri.amap.com/marker?position=120.215714,32.232500&name=%E6%B3%B0%E5%85%B4%E5%B8%82%E8%AF%BA%E5%BA%B7%E5%AE%A0%E7%89%A9%E5%8C%BB%E9%99%A2&src=vetmap&coordinate=gaode&callnative=1"},{"name":"溪桥兽医站","address":"黄桥镇华溪中路243号","phone":"","category":"医疗保健服务;动物医疗场所;兽医站","area":"","lng":120.189856,"lat":32.220877,"amap_id":"B020B0PHBN","order":36,"prev_distance_km":2.754,"cumulative_distance_km":105.561,"amap_marker_url":"https://uri.amap.com/marker?position=120.189856,32.220877&name=%E6%BA%AA%E6%A1%A5%E5%85%BD%E5%8C%BB%E7%AB%99&src=vetmap&coordinate=gaode&callnative=1"},{"name":"河失镇畜牧兽医站","address":"河失小学(新广线西)","phone":"","category":"医疗保健服务;动物医疗场所;兽医站","area":"","lng":120.141052,"lat":32.209212,"amap_id":"B020B0P0IR","order":37,"prev_distance_km":4.771,"cumulative_distance_km":110.332,"amap_marker_url":"https://uri.amap.com/marker?position=120.141052,32.209212&name=%E6%B2%B3%E5%A4%B1%E9%95%87%E7%95%9C%E7%89%A7%E5%85%BD%E5%8C%BB%E7%AB%99&src=vetmap&coordinate=gaode&callnative=1"},{"name":"焦荡兽医站","address":"胡曲线与分蒋线交叉口北140米","phone":"15240204068","category":"医疗保健服务;动物医疗场所;兽医站","area":"","lng":120.125857,"lat":32.134866,"amap_id":"B0G23OGLVV","order":38,"prev_distance_km":8.39,"cumulative_distance_km":118.722,"amap_marker_url":"https://uri.amap.com/marker?position=120.125857,32.134866&name=%E7%84%A6%E8%8D%A1%E5%85%BD%E5%8C%BB%E7%AB%99&src=vetmap&coordinate=gaode&callnative=1"},{"name":"泰兴市曲霞镇润民动物诊所","address":"珊七线与张匡路交叉口西北480米","phone":"","category":"医疗保健服务;动物医疗场所;宠物诊所","area":"","lng":120.156407,"lat":32.097365,"amap_id":"B0FFFZMY0A","order":39,"prev_distance_km":5.066,"cumulative_distance_km":123.788,"amap_marker_url":"https://uri.amap.com/marker?position=120.156407,32.097365&name=%E6%B3%B0%E5%85%B4%E5%B8%82%E6%9B%B2%E9%9C%9E%E9%95%87%E6%B6%A6%E6%B0%91%E5%8A%A8%E7%89%A9%E8%AF%8A%E6%89%80&src=vetmap&coordinate=gaode&callnative=1"},{"name":"泰兴市曲霞镇畜牧兽医站","address":"曲霞镇珊七线交通驾校报名处","phone":"","category":"医疗保健服务;动物医疗场所;兽医站","area":"","lng":120.156308,"lat":32.097058,"amap_id":"B0FFFZMXX5","order":40,"prev_distance_km":0.035,"cumulative_distance_km":123.823,"amap_marker_url":"https://uri.amap.com/marker?position=120.156308,32.097058&name=%E6%B3%B0%E5%85%B4%E5%B8%82%E6%9B%B2%E9%9C%9E%E9%95%87%E7%95%9C%E7%89%A7%E5%85%BD%E5%8C%BB%E7%AB%99&src=vetmap&coordinate=gaode&callnative=1"},{"name":"广陵镇畜牧兽医站","address":"广陵社区康寿老年助餐点(广陵客运站西南)","phone":"","category":"医疗保健服务;动物医疗场所;兽医站","area":"","lng":120.232576,"lat":32.096329,"amap_id":"B0FFFZJZPP","order":41,"prev_distance_km":7.185,"cumulative_distance_km":131.008,"amap_marker_url":"https://uri.amap.com/marker?position=120.232576,32.096329&name=%E5%B9%BF%E9%99%B5%E9%95%87%E7%95%9C%E7%89%A7%E5%85%BD%E5%8C%BB%E7%AB%99&src=vetmap&coordinate=gaode&callnative=1"},{"name":"厂陵兽医站","address":"广陵中街与新广线交叉口西南180米","phone":"","category":"医疗保健服务;动物医疗场所;兽医站","area":"","lng":120.232684,"lat":32.096523,"amap_id":"B0K6M6B62T","order":42,"prev_distance_km":0.024,"cumulative_distance_km":131.032,"amap_marker_url":"https://uri.amap.com/marker?position=120.232684,32.096523&name=%E5%8E%82%E9%99%B5%E5%85%BD%E5%8C%BB%E7%AB%99&src=vetmap&coordinate=gaode&callnative=1"},{"name":"宠物门诊","address":"金珊瑚路与红珊瑚路交叉口西160米","phone":"","category":"医疗保健服务;动物医疗场所;宠物诊所","area":"","lng":120.31881,"lat":32.174674,"amap_id":"B0FFHNLWDS","order":43,"prev_distance_km":11.886,"cumulative_distance_km":142.918,"amap_marker_url":"https://uri.amap.com/marker?position=120.318810,32.174674&name=%E5%AE%A0%E7%89%A9%E9%97%A8%E8%AF%8A&src=vetmap&coordinate=gaode&callnative=1"},{"name":"泰兴市珊瑚镇畜牧兽医站","address":"红珊瑚路与银珊瑚路交叉口西北100米","phone":"","category":"医疗保健服务;动物医疗场所;兽医站","area":"","lng":120.32063,"lat":32.174238,"amap_id":"B020B0PFMJ","order":44,"prev_distance_km":0.178,"cumulative_distance_km":143.096,"amap_marker_url":"https://uri.amap.com/marker?position=120.320630,32.174238&name=%E6%B3%B0%E5%85%B4%E5%B8%82%E7%8F%8A%E7%91%9A%E9%95%87%E7%95%9C%E7%89%A7%E5%85%BD%E5%8C%BB%E7%AB%99&src=vetmap&coordinate=gaode&callnative=1"}]}