{"summary":{"id":"d00858","province":"江苏省","city":"苏州市","district":"常熟市","count":59,"total_distance_km":140.66,"coordinate_system":"GCJ-02 / Amap","generated_at":"2026-05-07 19:57:16"},"rows":[{"name":"尚湖动物防疫站服务点","address":"迎阳路与北新西路交叉口南200米","phone":"","category":"医疗保健服务;动物医疗场所;动物医疗场所","area":"","lng":120.584264,"lat":31.690173,"amap_id":"B0FFL0Y8UO","order":1,"prev_distance_km":0.0,"cumulative_distance_km":0.0,"amap_marker_url":"https://uri.amap.com/marker?position=120.584264,31.690173&name=%E5%B0%9A%E6%B9%96%E5%8A%A8%E7%89%A9%E9%98%B2%E7%96%AB%E7%AB%99%E6%9C%8D%E5%8A%A1%E7%82%B9&src=vetmap&coordinate=gaode&callnative=1"},{"name":"尚湖动物防疫站","address":"尚湖镇冶塘新巷村人民北路","phone":"0512-52401127","category":"医疗保健服务;动物医疗场所;动物医疗场所","area":"","lng":120.629448,"lat":31.663846,"amap_id":"B0H25ZLT3S","order":2,"prev_distance_km":5.182,"cumulative_distance_km":5.182,"amap_marker_url":"https://uri.amap.com/marker?position=120.629448,31.663846&name=%E5%B0%9A%E6%B9%96%E5%8A%A8%E7%89%A9%E9%98%B2%E7%96%AB%E7%AB%99&src=vetmap&coordinate=gaode&callnative=1"},{"name":"诺亚动物医院·犬猫专科·高端洗护·免疫驱虫","address":"永安路56号和美家园4幢119、120","phone":"13255129119","category":"医疗保健服务;动物医疗场所;宠物诊所","area":"","lng":120.636541,"lat":31.657153,"amap_id":"B0LR3DC3N8","order":3,"prev_distance_km":1.002,"cumulative_distance_km":6.184,"amap_marker_url":"https://uri.amap.com/marker?position=120.636541,31.657153&name=%E8%AF%BA%E4%BA%9A%E5%8A%A8%E7%89%A9%E5%8C%BB%E9%99%A2%C2%B7%E7%8A%AC%E7%8C%AB%E4%B8%93%E7%A7%91%C2%B7%E9%AB%98%E7%AB%AF%E6%B4%97%E6%8A%A4%C2%B7%E5%85%8D%E7%96%AB%E9%A9%B1%E8%99%AB&src=vetmap&coordinate=gaode&callnative=1"},{"name":"辛庄动物防疫站","address":"辛庄镇老街68号","phone":"0512-52481126","category":"医疗保健服务;动物医疗场所;动物医疗场所","area":"","lng":120.595862,"lat":31.598494,"amap_id":"B020015RO2","order":4,"prev_distance_km":7.575,"cumulative_distance_km":13.759,"amap_marker_url":"https://uri.amap.com/marker?position=120.595862,31.598494&name=%E8%BE%9B%E5%BA%84%E5%8A%A8%E7%89%A9%E9%98%B2%E7%96%AB%E7%AB%99&src=vetmap&coordinate=gaode&callnative=1"},{"name":"辛庄蓝精灵宠物医院(全科医疗平价中心)","address":"辛庄镇新阳大道书香名苑132","phone":"18913205287","category":"医疗保健服务;动物医疗场所;宠物诊所","area":"","lng":120.678867,"lat":31.537492,"amap_id":"B0G1H5KKO8","order":5,"prev_distance_km":10.385,"cumulative_distance_km":24.144,"amap_marker_url":"https://uri.amap.com/marker?position=120.678867,31.537492&name=%E8%BE%9B%E5%BA%84%E8%93%9D%E7%B2%BE%E7%81%B5%E5%AE%A0%E7%89%A9%E5%8C%BB%E9%99%A2%28%E5%85%A8%E7%A7%91%E5%8C%BB%E7%96%97%E5%B9%B3%E4%BB%B7%E4%B8%AD%E5%BF%83%29&src=vetmap&coordinate=gaode&callnative=1"},{"name":"王品动物医疗中心","address":"辛庄镇常隆路8号-1","phone":"18550463497","category":"医疗保健服务;动物医疗场所;宠物诊所","area":"","lng":120.681969,"lat":31.536065,"amap_id":"B0K1C7NLMC","order":6,"prev_distance_km":0.334,"cumulative_distance_km":24.478,"amap_marker_url":"https://uri.amap.com/marker?position=120.681969,31.536065&name=%E7%8E%8B%E5%93%81%E5%8A%A8%E7%89%A9%E5%8C%BB%E7%96%97%E4%B8%AD%E5%BF%83&src=vetmap&coordinate=gaode&callnative=1"},{"name":"喜宝宠物","address":"辛庄镇新阳大道66-27号","phone":"13511850320","category":"医疗保健服务;动物医疗场所;动物医疗场所","area":"","lng":120.68602,"lat":31.536978,"amap_id":"B0LBRCJQPK","order":7,"prev_distance_km":0.397,"cumulative_distance_km":24.875,"amap_marker_url":"https://uri.amap.com/marker?position=120.686020,31.536978&name=%E5%96%9C%E5%AE%9D%E5%AE%A0%E7%89%A9&src=vetmap&coordinate=gaode&callnative=1"},{"name":"爱宠宠物诊所(常熟市沙家浜店)","address":"沙家浜镇沙霞路27号","phone":"17506160153","category":"医疗保健服务;动物医疗场所;宠物诊所","area":"","lng":120.775181,"lat":31.558138,"amap_id":"B0FFJ967YA","order":8,"prev_distance_km":8.77,"cumulative_distance_km":33.646,"amap_marker_url":"https://uri.amap.com/marker?position=120.775181,31.558138&name=%E7%88%B1%E5%AE%A0%E5%AE%A0%E7%89%A9%E8%AF%8A%E6%89%80%28%E5%B8%B8%E7%86%9F%E5%B8%82%E6%B2%99%E5%AE%B6%E6%B5%9C%E5%BA%97%29&src=vetmap&coordinate=gaode&callnative=1"},{"name":"乐宠宠物医院·骨科·心肺专科·急重症(东湖京华店)","address":"湖山路171号","phone":"18550649698","category":"医疗保健服务;动物医疗场所;宠物诊所","area":"","lng":120.77445,"lat":31.593625,"amap_id":"B0HANSMEGR","order":9,"prev_distance_km":3.947,"cumulative_distance_km":37.592,"amap_marker_url":"https://uri.amap.com/marker?position=120.774450,31.593625&name=%E4%B9%90%E5%AE%A0%E5%AE%A0%E7%89%A9%E5%8C%BB%E9%99%A2%C2%B7%E9%AA%A8%E7%A7%91%C2%B7%E5%BF%83%E8%82%BA%E4%B8%93%E7%A7%91%C2%B7%E6%80%A5%E9%87%8D%E7%97%87%28%E4%B8%9C%E6%B9%96%E4%BA%AC%E5%8D%8E%E5%BA%97%29&src=vetmap&coordinate=gaode&callnative=1"},{"name":"萌嘟宠物医院(东南店)","address":"常昆路258号","phone":"17311100166","category":"医疗保健服务;动物医疗场所;宠物诊所","area":"","lng":120.786492,"lat":31.594475,"amap_id":"B0LDNU138R","order":10,"prev_distance_km":1.144,"cumulative_distance_km":38.737,"amap_marker_url":"https://uri.amap.com/marker?position=120.786492,31.594475&name=%E8%90%8C%E5%98%9F%E5%AE%A0%E7%89%A9%E5%8C%BB%E9%99%A2%28%E4%B8%9C%E5%8D%97%E5%BA%97%29&src=vetmap&coordinate=gaode&callnative=1"},{"name":"贝康宠物诊所(金麟路店)","address":"金麟路90号","phone":"13962302902","category":"医疗保健服务;动物医疗场所;宠物诊所","area":"","lng":120.793999,"lat":31.598934,"amap_id":"B0FFKR03MI","order":11,"prev_distance_km":0.867,"cumulative_distance_km":39.604,"amap_marker_url":"https://uri.amap.com/marker?position=120.793999,31.598934&name=%E8%B4%9D%E5%BA%B7%E5%AE%A0%E7%89%A9%E8%AF%8A%E6%89%80%28%E9%87%91%E9%BA%9F%E8%B7%AF%E5%BA%97%29&src=vetmap&coordinate=gaode&callnative=1"},{"name":"橙安宠物医院","address":"森兰公寓东门旁","phone":"13338029198;18662321217","category":"医疗保健服务;动物医疗场所;宠物诊所","area":"","lng":120.793345,"lat":31.601587,"amap_id":"B0FFJYBJRY","order":12,"prev_distance_km":0.301,"cumulative_distance_km":39.905,"amap_marker_url":"https://uri.amap.com/marker?position=120.793345,31.601587&name=%E6%A9%99%E5%AE%89%E5%AE%A0%E7%89%A9%E5%8C%BB%E9%99%A2&src=vetmap&coordinate=gaode&callnative=1"},{"name":"爱宠魔力宠物(中欧假日花园店)","address":"东南街道银通路303号2幢112-113号","phone":"15370031176;15371691115","category":"医疗保健服务;动物医疗场所;宠物诊所","area":"","lng":120.820576,"lat":31.61987,"amap_id":"B0FFME8WTX","order":13,"prev_distance_km":3.284,"cumulative_distance_km":43.189,"amap_marker_url":"https://uri.amap.com/marker?position=120.820576,31.619870&name=%E7%88%B1%E5%AE%A0%E9%AD%94%E5%8A%9B%E5%AE%A0%E7%89%A9%28%E4%B8%AD%E6%AC%A7%E5%81%87%E6%97%A5%E8%8A%B1%E5%9B%AD%E5%BA%97%29&src=vetmap&coordinate=gaode&callnative=1"},{"name":"麦哆宠物医院","address":"文学街327号","phone":"","category":"医疗保健服务;动物医疗场所;宠物诊所","area":"","lng":120.834476,"lat":31.634468,"amap_id":"B0FFK59SBQ","order":14,"prev_distance_km":2.09,"cumulative_distance_km":45.279,"amap_marker_url":"https://uri.amap.com/marker?position=120.834476,31.634468&name=%E9%BA%A6%E5%93%86%E5%AE%A0%E7%89%A9%E5%8C%BB%E9%99%A2&src=vetmap&coordinate=gaode&callnative=1"},{"name":"昕奕宠医·骨科心内科·特色猫科·老年病转诊中心(富阳路店)","address":"香榭路10-25","phone":"13862347440;17826184251","category":"医疗保健服务;动物医疗场所;宠物诊所","area":"常熟","lng":120.785261,"lat":31.632074,"amap_id":"B0HROHJDVT","order":15,"prev_distance_km":4.667,"cumulative_distance_km":49.946,"amap_marker_url":"https://uri.amap.com/marker?position=120.785261,31.632074&name=%E6%98%95%E5%A5%95%E5%AE%A0%E5%8C%BB%C2%B7%E9%AA%A8%E7%A7%91%E5%BF%83%E5%86%85%E7%A7%91%C2%B7%E7%89%B9%E8%89%B2%E7%8C%AB%E7%A7%91%C2%B7%E8%80%81%E5%B9%B4%E7%97%85%E8%BD%AC%E8%AF%8A%E4%B8%AD%E5%BF%83%28%E5%AF%8C%E9%98%B3%E8%B7%AF%E5%BA%97%29&src=vetmap&coordinate=gaode&callnative=1"},{"name":"常熟嘉比熊宠物医院","address":"香榭路10-17号","phone":"13776214320","category":"医疗保健服务;动物医疗场所;宠物诊所","area":"常熟","lng":120.785168,"lat":31.631534,"amap_id":"B0JAX58627","order":16,"prev_distance_km":0.061,"cumulative_distance_km":50.006,"amap_marker_url":"https://uri.amap.com/marker?position=120.785168,31.631534&name=%E5%B8%B8%E7%86%9F%E5%98%89%E6%AF%94%E7%86%8A%E5%AE%A0%E7%89%A9%E5%8C%BB%E9%99%A2&src=vetmap&coordinate=gaode&callnative=1"},{"name":"德康宠物医院(富阳路店)","address":"富阳路16-2号","phone":"0512-52359597","category":"医疗保健服务;动物医疗场所;宠物诊所","area":"常熟","lng":120.781133,"lat":31.630947,"amap_id":"B0FFITOG4X","order":17,"prev_distance_km":0.388,"cumulative_distance_km":50.394,"amap_marker_url":"https://uri.amap.com/marker?position=120.781133,31.630947&name=%E5%BE%B7%E5%BA%B7%E5%AE%A0%E7%89%A9%E5%8C%BB%E9%99%A2%28%E5%AF%8C%E9%98%B3%E8%B7%AF%E5%BA%97%29&src=vetmap&coordinate=gaode&callnative=1"},{"name":"常熟市赵一鸣动物医院","address":"琴川街道富阳路32号","phone":"","category":"医疗保健服务;动物医疗场所;宠物诊所","area":"常熟","lng":120.780375,"lat":31.631025,"amap_id":"B0LKZLFR16","order":18,"prev_distance_km":0.072,"cumulative_distance_km":50.466,"amap_marker_url":"https://uri.amap.com/marker?position=120.780375,31.631025&name=%E5%B8%B8%E7%86%9F%E5%B8%82%E8%B5%B5%E4%B8%80%E9%B8%A3%E5%8A%A8%E7%89%A9%E5%8C%BB%E9%99%A2&src=vetmap&coordinate=gaode&callnative=1"},{"name":"莱卡宠物医院·急重症·骨科心内老年病(琴湖店)","address":"富阳路60号","phone":"17751666669;18014877013","category":"医疗保健服务;动物医疗场所;宠物诊所","area":"常熟","lng":120.778776,"lat":31.63122,"amap_id":"B0J0C7E1VC","order":19,"prev_distance_km":0.153,"cumulative_distance_km":50.619,"amap_marker_url":"https://uri.amap.com/marker?position=120.778776,31.631220&name=%E8%8E%B1%E5%8D%A1%E5%AE%A0%E7%89%A9%E5%8C%BB%E9%99%A2%C2%B7%E6%80%A5%E9%87%8D%E7%97%87%C2%B7%E9%AA%A8%E7%A7%91%E5%BF%83%E5%86%85%E8%80%81%E5%B9%B4%E7%97%85%28%E7%90%B4%E6%B9%96%E5%BA%97%29&src=vetmap&coordinate=gaode&callnative=1"},{"name":"家园宠物医院","address":"富春江西路琴湖商业广场3幢143-144","phone":"18962392319","category":"医疗保健服务;动物医疗场所;宠物诊所","area":"常熟","lng":120.781712,"lat":31.635456,"amap_id":"B0FFIS1ATF","order":20,"prev_distance_km":0.547,"cumulative_distance_km":51.166,"amap_marker_url":"https://uri.amap.com/marker?position=120.781712,31.635456&name=%E5%AE%B6%E5%9B%AD%E5%AE%A0%E7%89%A9%E5%8C%BB%E9%99%A2&src=vetmap&coordinate=gaode&callnative=1"},{"name":"安安宠医(琴湖路分院)","address":"琴湖路266号","phone":"0512-52711711","category":"医疗保健服务;动物医疗场所;宠物诊所","area":"常熟","lng":120.769171,"lat":31.647969,"amap_id":"B0FFI11JAA","order":21,"prev_distance_km":1.829,"cumulative_distance_km":52.995,"amap_marker_url":"https://uri.amap.com/marker?position=120.769171,31.647969&name=%E5%AE%89%E5%AE%89%E5%AE%A0%E5%8C%BB%28%E7%90%B4%E6%B9%96%E8%B7%AF%E5%88%86%E9%99%A2%29&src=vetmap&coordinate=gaode&callnative=1"},{"name":"瑞派玩皮动物医院·骨科心内科","address":"青墩塘路16号10幢","phone":"0512-52772778;18962351778","category":"医疗保健服务;动物医疗场所;宠物诊所","area":"常熟","lng":120.764365,"lat":31.649179,"amap_id":"B0G304HDZO","order":22,"prev_distance_km":0.474,"cumulative_distance_km":53.469,"amap_marker_url":"https://uri.amap.com/marker?position=120.764365,31.649179&name=%E7%91%9E%E6%B4%BE%E7%8E%A9%E7%9A%AE%E5%8A%A8%E7%89%A9%E5%8C%BB%E9%99%A2%C2%B7%E9%AA%A8%E7%A7%91%E5%BF%83%E5%86%85%E7%A7%91&src=vetmap&coordinate=gaode&callnative=1"},{"name":"丘比特宠物医院","address":"枫林路9-3号","phone":"18915665158","category":"医疗保健服务;动物医疗场所;宠物诊所","area":"常熟","lng":120.761536,"lat":31.656275,"amap_id":"B0GU5UVDVO","order":23,"prev_distance_km":0.833,"cumulative_distance_km":54.303,"amap_marker_url":"https://uri.amap.com/marker?position=120.761536,31.656275&name=%E4%B8%98%E6%AF%94%E7%89%B9%E5%AE%A0%E7%89%A9%E5%8C%BB%E9%99%A2&src=vetmap&coordinate=gaode&callnative=1"},{"name":"常熟市欣欣宠物医院","address":"珠江路9号","phone":"13205123333","category":"医疗保健服务;动物医疗场所;宠物诊所","area":"常熟","lng":120.764877,"lat":31.663921,"amap_id":"B0JDD5YMOH","order":24,"prev_distance_km":0.907,"cumulative_distance_km":55.21,"amap_marker_url":"https://uri.amap.com/marker?position=120.764877,31.663921&name=%E5%B8%B8%E7%86%9F%E5%B8%82%E6%AC%A3%E6%AC%A3%E5%AE%A0%E7%89%A9%E5%8C%BB%E9%99%A2&src=vetmap&coordinate=gaode&callnative=1"},{"name":"魔力岛宠物医院","address":"泰山南路80-3号(幸福小灶隔壁)","phone":"18120086123","category":"医疗保健服务;动物医疗场所;宠物诊所","area":"常熟","lng":120.767138,"lat":31.662899,"amap_id":"B0FFLEEWM7","order":25,"prev_distance_km":0.242,"cumulative_distance_km":55.452,"amap_marker_url":"https://uri.amap.com/marker?position=120.767138,31.662899&name=%E9%AD%94%E5%8A%9B%E5%B2%9B%E5%AE%A0%E7%89%A9%E5%8C%BB%E9%99%A2&src=vetmap&coordinate=gaode&callnative=1"},{"name":"大正动物诊所","address":"珠江路158号","phone":"15150474529;15851516891","category":"医疗保健服务;动物医疗场所;宠物诊所","area":"常熟","lng":120.758224,"lat":31.664482,"amap_id":"B0JUOUA5MM","order":26,"prev_distance_km":0.862,"cumulative_distance_km":56.314,"amap_marker_url":"https://uri.amap.com/marker?position=120.758224,31.664482&name=%E5%A4%A7%E6%AD%A3%E5%8A%A8%E7%89%A9%E8%AF%8A%E6%89%80&src=vetmap&coordinate=gaode&callnative=1"},{"name":"天赐宠物医院","address":"闽江东路143号","phone":"18662321217;18662329212","category":"医疗保健服务;动物医疗场所;宠物诊所","area":"常熟","lng":120.758237,"lat":31.667111,"amap_id":"B020008DVV","order":27,"prev_distance_km":0.292,"cumulative_distance_km":56.606,"amap_marker_url":"https://uri.amap.com/marker?position=120.758237,31.667111&name=%E5%A4%A9%E8%B5%90%E5%AE%A0%E7%89%A9%E5%8C%BB%E9%99%A2&src=vetmap&coordinate=gaode&callnative=1"},{"name":"常熟吉尼宠物医院(长江路店)","address":"长江路99号","phone":"0512-52816449;13776202093","category":"医疗保健服务;动物医疗场所;宠物诊所","area":"常熟","lng":120.762302,"lat":31.669853,"amap_id":"B02000K479","order":28,"prev_distance_km":0.491,"cumulative_distance_km":57.097,"amap_marker_url":"https://uri.amap.com/marker?position=120.762302,31.669853&name=%E5%B8%B8%E7%86%9F%E5%90%89%E5%B0%BC%E5%AE%A0%E7%89%A9%E5%8C%BB%E9%99%A2%28%E9%95%BF%E6%B1%9F%E8%B7%AF%E5%BA%97%29&src=vetmap&coordinate=gaode&callnative=1"},{"name":"百宠园宠物兽药店","address":"闽江西路289号","phone":"","category":"医疗保健服务;动物医疗场所;动物医疗场所","area":"常熟","lng":120.749482,"lat":31.667703,"amap_id":"B0L1SCR12X","order":29,"prev_distance_km":1.237,"cumulative_distance_km":58.334,"amap_marker_url":"https://uri.amap.com/marker?position=120.749482,31.667703&name=%E7%99%BE%E5%AE%A0%E5%9B%AD%E5%AE%A0%E7%89%A9%E5%85%BD%E8%8D%AF%E5%BA%97&src=vetmap&coordinate=gaode&callnative=1"},{"name":"常熟市动物疫病预防控制中心","address":"虞山镇珠江路384号","phone":"","category":"医疗保健服务;动物医疗场所;动物医疗场所","area":"常熟","lng":120.741809,"lat":31.664461,"amap_id":"B0FFL7YFE4","order":30,"prev_distance_km":0.811,"cumulative_distance_km":59.144,"amap_marker_url":"https://uri.amap.com/marker?position=120.741809,31.664461&name=%E5%B8%B8%E7%86%9F%E5%B8%82%E5%8A%A8%E7%89%A9%E7%96%AB%E7%97%85%E9%A2%84%E9%98%B2%E6%8E%A7%E5%88%B6%E4%B8%AD%E5%BF%83&src=vetmap&coordinate=gaode&callnative=1"},{"name":"常熟市畜禽屠宰检疫和城区动物防疫中心","address":"报慈北路181号","phone":"","category":"医疗保健服务;动物医疗场所;动物医疗场所","area":"常熟","lng":120.7383,"lat":31.667622,"amap_id":"B0K617U1WK","order":31,"prev_distance_km":0.484,"cumulative_distance_km":59.628,"amap_marker_url":"https://uri.amap.com/marker?position=120.738300,31.667622&name=%E5%B8%B8%E7%86%9F%E5%B8%82%E7%95%9C%E7%A6%BD%E5%B1%A0%E5%AE%B0%E6%A3%80%E7%96%AB%E5%92%8C%E5%9F%8E%E5%8C%BA%E5%8A%A8%E7%89%A9%E9%98%B2%E7%96%AB%E4%B8%AD%E5%BF%83&src=vetmap&coordinate=gaode&callnative=1"},{"name":"安馨宠物门诊","address":"长江路170号附近","phone":"13057491816","category":"医疗保健服务;动物医疗场所;宠物诊所","area":"常熟","lng":120.73836,"lat":31.669244,"amap_id":"B0FFKHFWBE","order":32,"prev_distance_km":0.18,"cumulative_distance_km":59.808,"amap_marker_url":"https://uri.amap.com/marker?position=120.738360,31.669244&name=%E5%AE%89%E9%A6%A8%E5%AE%A0%E7%89%A9%E9%97%A8%E8%AF%8A&src=vetmap&coordinate=gaode&callnative=1"},{"name":"安安宠医(黄河路分院)","address":"黄河路777号5幢103","phone":"0512-52862282","category":"医疗保健服务;动物医疗场所;宠物诊所","area":"常熟","lng":120.738938,"lat":31.675451,"amap_id":"B0HUBDDVTZ","order":33,"prev_distance_km":0.692,"cumulative_distance_km":60.501,"amap_marker_url":"https://uri.amap.com/marker?position=120.738938,31.675451&name=%E5%AE%89%E5%AE%89%E5%AE%A0%E5%8C%BB%28%E9%BB%84%E6%B2%B3%E8%B7%AF%E5%88%86%E9%99%A2%29&src=vetmap&coordinate=gaode&callnative=1"},{"name":"木子宠物诊所(虞山国际花园店)","address":"报慈北路326-328号","phone":"18550450197","category":"医疗保健服务;动物医疗场所;宠物诊所","area":"常熟","lng":120.733788,"lat":31.67587,"amap_id":"B0FFIUQ1V9","order":34,"prev_distance_km":0.49,"cumulative_distance_km":60.99,"amap_marker_url":"https://uri.amap.com/marker?position=120.733788,31.675870&name=%E6%9C%A8%E5%AD%90%E5%AE%A0%E7%89%A9%E8%AF%8A%E6%89%80%28%E8%99%9E%E5%B1%B1%E5%9B%BD%E9%99%85%E8%8A%B1%E5%9B%AD%E5%BA%97%29&src=vetmap&coordinate=gaode&callnative=1"},{"name":"萌嘟宠物医院(万达总院)","address":"南海路11-13号","phone":"18015458396","category":"医疗保健服务;动物医疗场所;宠物诊所","area":"","lng":120.735729,"lat":31.686938,"amap_id":"B0FFL9HQKO","order":35,"prev_distance_km":1.244,"cumulative_distance_km":62.235,"amap_marker_url":"https://uri.amap.com/marker?position=120.735729,31.686938&name=%E8%90%8C%E5%98%9F%E5%AE%A0%E7%89%A9%E5%8C%BB%E9%99%A2%28%E4%B8%87%E8%BE%BE%E6%80%BB%E9%99%A2%29&src=vetmap&coordinate=gaode&callnative=1"},{"name":"宠奇妙宠物医院·泌尿·胃肠消化·24小时急诊夜诊重症","address":"常福街道珠海路12-32号(景天花园40幢109)","phone":"17751143292","category":"医疗保健服务;动物医疗场所;宠物诊所","area":"","lng":120.732483,"lat":31.691756,"amap_id":"B0JUY1Q16B","order":36,"prev_distance_km":0.618,"cumulative_distance_km":62.852,"amap_marker_url":"https://uri.amap.com/marker?position=120.732483,31.691756&name=%E5%AE%A0%E5%A5%87%E5%A6%99%E5%AE%A0%E7%89%A9%E5%8C%BB%E9%99%A2%C2%B7%E6%B3%8C%E5%B0%BF%C2%B7%E8%83%83%E8%82%A0%E6%B6%88%E5%8C%96%C2%B724%E5%B0%8F%E6%97%B6%E6%80%A5%E8%AF%8A%E5%A4%9C%E8%AF%8A%E9%87%8D%E7%97%87&src=vetmap&coordinate=gaode&callnative=1"},{"name":"艾薇宠物诊所(海虞北路店)","address":"常熟老街静海路106号","phone":"15262508885","category":"医疗保健服务;动物医疗场所;宠物诊所","area":"","lng":120.75578,"lat":31.685906,"amap_id":"B0FFIU3BNP","order":37,"prev_distance_km":2.298,"cumulative_distance_km":65.15,"amap_marker_url":"https://uri.amap.com/marker?position=120.755780,31.685906&name=%E8%89%BE%E8%96%87%E5%AE%A0%E7%89%A9%E8%AF%8A%E6%89%80%28%E6%B5%B7%E8%99%9E%E5%8C%97%E8%B7%AF%E5%BA%97%29&src=vetmap&coordinate=gaode&callnative=1"},{"name":"爱哆宠物医院","address":"海虞北路68-12号","phone":"15995977934","category":"医疗保健服务;动物医疗场所;宠物诊所","area":"常熟","lng":120.755298,"lat":31.679754,"amap_id":"B020017UG3","order":38,"prev_distance_km":0.686,"cumulative_distance_km":65.836,"amap_marker_url":"https://uri.amap.com/marker?position=120.755298,31.679754&name=%E7%88%B1%E5%93%86%E5%AE%A0%E7%89%A9%E5%8C%BB%E9%99%A2&src=vetmap&coordinate=gaode&callnative=1"},{"name":"大咪宠物医院","address":"珠江东路83-3号","phone":"15195035235;17751114990","category":"医疗保健服务;动物医疗场所;宠物诊所","area":"常熟","lng":120.776552,"lat":31.665276,"amap_id":"B0LUZDQ2TL","order":39,"prev_distance_km":2.576,"cumulative_distance_km":68.412,"amap_marker_url":"https://uri.amap.com/marker?position=120.776552,31.665276&name=%E5%A4%A7%E5%92%AA%E5%AE%A0%E7%89%A9%E5%8C%BB%E9%99%A2&src=vetmap&coordinate=gaode&callnative=1"},{"name":"仁心卓越宠物医院","address":"李闸路68-17号","phone":"18994430065","category":"医疗保健服务;动物医疗场所;宠物诊所","area":"常熟","lng":120.746944,"lat":31.656282,"amap_id":"B0L6CHJBNX","order":40,"prev_distance_km":2.975,"cumulative_distance_km":71.388,"amap_marker_url":"https://uri.amap.com/marker?position=120.746944,31.656282&name=%E4%BB%81%E5%BF%83%E5%8D%93%E8%B6%8A%E5%AE%A0%E7%89%A9%E5%8C%BB%E9%99%A2&src=vetmap&coordinate=gaode&callnative=1"},{"name":"迎莹宠物(李闸路李闸小区43号中区店)","address":"海虞镇李闸路李闸小区43号迎莹宠物","phone":"15250307261","category":"医疗保健服务;动物医疗场所;宠物诊所","area":"常熟","lng":120.746251,"lat":31.654585,"amap_id":"B0JU9M99P7","order":41,"prev_distance_km":0.2,"cumulative_distance_km":71.587,"amap_marker_url":"https://uri.amap.com/marker?position=120.746251,31.654585&name=%E8%BF%8E%E8%8E%B9%E5%AE%A0%E7%89%A9%28%E6%9D%8E%E9%97%B8%E8%B7%AF%E6%9D%8E%E9%97%B8%E5%B0%8F%E5%8C%BA43%E5%8F%B7%E4%B8%AD%E5%8C%BA%E5%BA%97%29&src=vetmap&coordinate=gaode&callnative=1"},{"name":"瑞派宠物医院·24H夜诊·猫科·骨科专科(虞景文华店)","address":"枫林路211号","phone":"0512-52871718","category":"医疗保健服务;动物医疗场所;宠物诊所","area":"常熟","lng":120.740812,"lat":31.656813,"amap_id":"B02000HX3U","order":42,"prev_distance_km":0.571,"cumulative_distance_km":72.159,"amap_marker_url":"https://uri.amap.com/marker?position=120.740812,31.656813&name=%E7%91%9E%E6%B4%BE%E5%AE%A0%E7%89%A9%E5%8C%BB%E9%99%A2%C2%B724H%E5%A4%9C%E8%AF%8A%C2%B7%E7%8C%AB%E7%A7%91%C2%B7%E9%AA%A8%E7%A7%91%E4%B8%93%E7%A7%91%28%E8%99%9E%E6%99%AF%E6%96%87%E5%8D%8E%E5%BA%97%29&src=vetmap&coordinate=gaode&callnative=1"},{"name":"湃特宠物医院","address":"枫林路186-8号","phone":"18018147355;18913663392","category":"医疗保健服务;动物医疗场所;宠物诊所","area":"常熟","lng":120.738975,"lat":31.657625,"amap_id":"B0L3LKPQX2","order":43,"prev_distance_km":0.196,"cumulative_distance_km":72.355,"amap_marker_url":"https://uri.amap.com/marker?position=120.738975,31.657625&name=%E6%B9%83%E7%89%B9%E5%AE%A0%E7%89%A9%E5%8C%BB%E9%99%A2&src=vetmap&coordinate=gaode&callnative=1"},{"name":"慕霖宠物诊所","address":"环城北路3号-8","phone":"15312171018","category":"医疗保健服务;动物医疗场所;宠物诊所","area":"常熟","lng":120.740312,"lat":31.653379,"amap_id":"B0FFKOYRNV","order":44,"prev_distance_km":0.489,"cumulative_distance_km":72.843,"amap_marker_url":"https://uri.amap.com/marker?position=120.740312,31.653379&name=%E6%85%95%E9%9C%96%E5%AE%A0%E7%89%A9%E8%AF%8A%E6%89%80&src=vetmap&coordinate=gaode&callnative=1"},{"name":"瑞派宠物医院虞景文华店","address":"虞景文华28栋","phone":"","category":"医疗保健服务;动物医疗场所;宠物诊所","area":"常熟","lng":120.739653,"lat":31.652397,"amap_id":"B0J3TSJ57F","order":45,"prev_distance_km":0.126,"cumulative_distance_km":72.969,"amap_marker_url":"https://uri.amap.com/marker?position=120.739653,31.652397&name=%E7%91%9E%E6%B4%BE%E5%AE%A0%E7%89%A9%E5%8C%BB%E9%99%A2%E8%99%9E%E6%99%AF%E6%96%87%E5%8D%8E%E5%BA%97&src=vetmap&coordinate=gaode&callnative=1"},{"name":"爱心宠物医院(环城东路店)","address":"虞山镇环城东路86号","phone":"13862323776;17715526692","category":"医疗保健服务;动物医疗场所;宠物诊所","area":"常熟","lng":120.749473,"lat":31.640295,"amap_id":"B0FFIR650G","order":46,"prev_distance_km":1.636,"cumulative_distance_km":74.605,"amap_marker_url":"https://uri.amap.com/marker?position=120.749473,31.640295&name=%E7%88%B1%E5%BF%83%E5%AE%A0%E7%89%A9%E5%8C%BB%E9%99%A2%28%E7%8E%AF%E5%9F%8E%E4%B8%9C%E8%B7%AF%E5%BA%97%29&src=vetmap&coordinate=gaode&callnative=1"},{"name":"薇薇宠物诊所(元和路店)","address":"元和路23号","phone":"15962494539;18262113993","category":"医疗保健服务;动物医疗场所;宠物诊所","area":"常熟","lng":120.733846,"lat":31.632715,"amap_id":"B02001HBV3","order":47,"prev_distance_km":1.703,"cumulative_distance_km":76.307,"amap_marker_url":"https://uri.amap.com/marker?position=120.733846,31.632715&name=%E8%96%87%E8%96%87%E5%AE%A0%E7%89%A9%E8%AF%8A%E6%89%80%28%E5%85%83%E5%92%8C%E8%B7%AF%E5%BA%97%29&src=vetmap&coordinate=gaode&callnative=1"},{"name":"爱康宠物医院(元和路店)","address":"虞山镇元和路49号(农商银行旁)","phone":"18015610517","category":"医疗保健服务;动物医疗场所;宠物诊所","area":"常熟","lng":120.731741,"lat":31.630024,"amap_id":"B0GKPYUF0Z","order":48,"prev_distance_km":0.36,"cumulative_distance_km":76.667,"amap_marker_url":"https://uri.amap.com/marker?position=120.731741,31.630024&name=%E7%88%B1%E5%BA%B7%E5%AE%A0%E7%89%A9%E5%8C%BB%E9%99%A2%28%E5%85%83%E5%92%8C%E8%B7%AF%E5%BA%97%29&src=vetmap&coordinate=gaode&callnative=1"},{"name":"魔力岛宠物医院(莫城院)","address":"莫城街道苏常公路(莫城段)93号","phone":"18120086123","category":"医疗保健服务;动物医疗场所;宠物诊所","area":"","lng":120.727978,"lat":31.608321,"amap_id":"B0M6PULRQV","order":49,"prev_distance_km":2.439,"cumulative_distance_km":79.106,"amap_marker_url":"https://uri.amap.com/marker?position=120.727978,31.608321&name=%E9%AD%94%E5%8A%9B%E5%B2%9B%E5%AE%A0%E7%89%A9%E5%8C%BB%E9%99%A2%28%E8%8E%AB%E5%9F%8E%E9%99%A2%29&src=vetmap&coordinate=gaode&callnative=1"},{"name":"朗城水产医院(装修中)","address":"中环路与陈许路交叉口西北40米","phone":"","category":"医疗保健服务;动物医疗场所;动物医疗场所","area":"","lng":120.838354,"lat":31.548898,"amap_id":"B0GUR9ON6F","order":50,"prev_distance_km":12.369,"cumulative_distance_km":91.475,"amap_marker_url":"https://uri.amap.com/marker?position=120.838354,31.548898&name=%E6%9C%97%E5%9F%8E%E6%B0%B4%E4%BA%A7%E5%8C%BB%E9%99%A2%28%E8%A3%85%E4%BF%AE%E4%B8%AD%29&src=vetmap&coordinate=gaode&callnative=1"},{"name":"华顺兽药店","address":"沙家浜镇唐市镇中环路15号","phone":"13706237078","category":"医疗保健服务;动物医疗场所;动物医疗场所","area":"","lng":120.852168,"lat":31.543739,"amap_id":"B0H3M78K1F","order":51,"prev_distance_km":1.429,"cumulative_distance_km":92.904,"amap_marker_url":"https://uri.amap.com/marker?position=120.852168,31.543739&name=%E5%8D%8E%E9%A1%BA%E5%85%BD%E8%8D%AF%E5%BA%97&src=vetmap&coordinate=gaode&callnative=1"},{"name":"常熟市古里动物防疫站","address":"白茆镇新市南路32号","phone":"","category":"医疗保健服务;动物医疗场所;动物医疗场所","area":"","lng":120.900866,"lat":31.587862,"amap_id":"B020017B0O","order":52,"prev_distance_km":6.735,"cumulative_distance_km":99.639,"amap_marker_url":"https://uri.amap.com/marker?position=120.900866,31.587862&name=%E5%B8%B8%E7%86%9F%E5%B8%82%E5%8F%A4%E9%87%8C%E5%8A%A8%E7%89%A9%E9%98%B2%E7%96%AB%E7%AB%99&src=vetmap&coordinate=gaode&callnative=1"},{"name":"宠爱宠物店(烟沪线店)","address":"白茆镇紫芙沪宜路130-9号","phone":"13365674048;13395678097","category":"医疗保健服务;动物医疗场所;动物医疗场所","area":"","lng":120.903864,"lat":31.592701,"amap_id":"B0FFFWY4A4","order":53,"prev_distance_km":0.608,"cumulative_distance_km":100.248,"amap_marker_url":"https://uri.amap.com/marker?position=120.903864,31.592701&name=%E5%AE%A0%E7%88%B1%E5%AE%A0%E7%89%A9%E5%BA%97%28%E7%83%9F%E6%B2%AA%E7%BA%BF%E5%BA%97%29&src=vetmap&coordinate=gaode&callnative=1"},{"name":"常熟市支塘动物防疫站","address":"李泾南路与常生路交叉口西200米","phone":"","category":"医疗保健服务;动物医疗场所;动物医疗场所","area":"","lng":120.962074,"lat":31.601035,"amap_id":"B0FFFWTA2V","order":54,"prev_distance_km":5.59,"cumulative_distance_km":105.838,"amap_marker_url":"https://uri.amap.com/marker?position=120.962074,31.601035&name=%E5%B8%B8%E7%86%9F%E5%B8%82%E6%94%AF%E5%A1%98%E5%8A%A8%E7%89%A9%E9%98%B2%E7%96%AB%E7%AB%99&src=vetmap&coordinate=gaode&callnative=1"},{"name":"萌牙宠物诊所(常熟支塘店)","address":"宝芝路28号","phone":"18261728695","category":"医疗保健服务;动物医疗场所;宠物诊所","area":"","lng":120.967221,"lat":31.604407,"amap_id":"B0L1JH9GFX","order":55,"prev_distance_km":0.615,"cumulative_distance_km":106.453,"amap_marker_url":"https://uri.amap.com/marker?position=120.967221,31.604407&name=%E8%90%8C%E7%89%99%E5%AE%A0%E7%89%A9%E8%AF%8A%E6%89%80%28%E5%B8%B8%E7%86%9F%E6%94%AF%E5%A1%98%E5%BA%97%29&src=vetmap&coordinate=gaode&callnative=1"},{"name":"爱宠屋宠物诊所","address":"宝芝路56号","phone":"13160128009","category":"医疗保健服务;动物医疗场所;宠物诊所","area":"","lng":120.966495,"lat":31.605323,"amap_id":"B0FFL01VLI","order":56,"prev_distance_km":0.123,"cumulative_distance_km":106.576,"amap_marker_url":"https://uri.amap.com/marker?position=120.966495,31.605323&name=%E7%88%B1%E5%AE%A0%E5%B1%8B%E5%AE%A0%E7%89%A9%E8%AF%8A%E6%89%80&src=vetmap&coordinate=gaode&callnative=1"},{"name":"安众宠物医院","address":"梅李镇通江路36-11号(江夏路口东20米)","phone":"18913654885","category":"医疗保健服务;动物医疗场所;宠物诊所","area":"","lng":120.877966,"lat":31.709664,"amap_id":"B0FFKP9KYL","order":57,"prev_distance_km":14.312,"cumulative_distance_km":120.888,"amap_marker_url":"https://uri.amap.com/marker?position=120.877966,31.709664&name=%E5%AE%89%E4%BC%97%E5%AE%A0%E7%89%A9%E5%8C%BB%E9%99%A2&src=vetmap&coordinate=gaode&callnative=1"},{"name":"奕昕宠物医院","address":"龙溪北路与望江大道交叉口西80米","phone":"15050308069","category":"医疗保健服务;动物医疗场所;宠物诊所","area":"","lng":120.938072,"lat":31.746391,"amap_id":"B0KASYO0NS","order":58,"prev_distance_km":7.0,"cumulative_distance_km":127.887,"amap_marker_url":"https://uri.amap.com/marker?position=120.938072,31.746391&name=%E5%A5%95%E6%98%95%E5%AE%A0%E7%89%A9%E5%8C%BB%E9%99%A2&src=vetmap&coordinate=gaode&callnative=1"},{"name":"唯一宠物医院","address":"海阳路四季花园东侧","phone":"18015654689","category":"医疗保健服务;动物医疗场所;宠物诊所","area":"","lng":120.803407,"lat":31.737442,"amap_id":"B0FFJ80MTL","order":59,"prev_distance_km":12.773,"cumulative_distance_km":140.66,"amap_marker_url":"https://uri.amap.com/marker?position=120.803407,31.737442&name=%E5%94%AF%E4%B8%80%E5%AE%A0%E7%89%A9%E5%8C%BB%E9%99%A2&src=vetmap&coordinate=gaode&callnative=1"}]}