{"summary":{"id":"d00870","province":"江苏省","city":"镇江市","district":"丹阳市","count":29,"route_count":1,"max_route_clinics":29,"total_distance_km":104.354,"coordinate_system":"GCJ-02 / Amap","generated_at":"2026-05-08 19:46:22"},"routes":[{"id":"r1","name":"第1段","count":29,"total_distance_km":104.354,"rows":[{"name":"牧马人宠物医院","address":"丹桂路88号融锦广场天福花园南大门28-3号楼","phone":"0511-86858899","category":"医疗保健服务;动物医疗场所;宠物诊所","area":"","lng":119.614481,"lat":32.011757,"amap_id":"B0FFL18PSH","order":1,"prev_distance_km":0.0,"cumulative_distance_km":0.0,"amap_marker_url":"https://uri.amap.com/marker?position=119.614481,32.011757&name=%E7%89%A7%E9%A9%AC%E4%BA%BA%E5%AE%A0%E7%89%A9%E5%8C%BB%E9%99%A2&src=vetmap&coordinate=gaode&callnative=1","route_id":"r1","route_name":"第1段"},{"name":"海龙宠物诊所","address":"玉泉路71号开元大酒店楼下","phone":"","category":"医疗保健服务;动物医疗场所;宠物诊所","area":"","lng":119.600351,"lat":31.997563,"amap_id":"B0FFIQZTW2","order":2,"prev_distance_km":2.065,"cumulative_distance_km":2.065,"amap_marker_url":"https://uri.amap.com/marker?position=119.600351,31.997563&name=%E6%B5%B7%E9%BE%99%E5%AE%A0%E7%89%A9%E8%AF%8A%E6%89%80&src=vetmap&coordinate=gaode&callnative=1","route_id":"r1","route_name":"第1段"},{"name":"益佳宠物门诊","address":"经济技术开发区金陵西路国税局对面","phone":"15189150966","category":"医疗保健服务;动物医疗场所;宠物诊所","area":"","lng":119.598777,"lat":31.99784,"amap_id":"B0FFF2N71Y","order":3,"prev_distance_km":0.152,"cumulative_distance_km":2.217,"amap_marker_url":"https://uri.amap.com/marker?position=119.598777,31.997840&name=%E7%9B%8A%E4%BD%B3%E5%AE%A0%E7%89%A9%E9%97%A8%E8%AF%8A&src=vetmap&coordinate=gaode&callnative=1","route_id":"r1","route_name":"第1段"},{"name":"贝康宠物医院(开发区店)","address":"普善路普善人家南大门107-108室","phone":"17768664555;18260360945","category":"医疗保健服务;动物医疗场所;宠物诊所","area":"","lng":119.601686,"lat":31.987548,"amap_id":"B0ID7AV4WV","order":4,"prev_distance_km":1.177,"cumulative_distance_km":3.394,"amap_marker_url":"https://uri.amap.com/marker?position=119.601686,31.987548&name=%E8%B4%9D%E5%BA%B7%E5%AE%A0%E7%89%A9%E5%8C%BB%E9%99%A2%28%E5%BC%80%E5%8F%91%E5%8C%BA%E5%BA%97%29&src=vetmap&coordinate=gaode&callnative=1","route_id":"r1","route_name":"第1段"},{"name":"关爱宠物医院","address":"中山路71号","phone":"15051122627","category":"医疗保健服务;动物医疗场所;宠物诊所","area":"","lng":119.584055,"lat":31.995802,"amap_id":"B0FFGNFM25","order":5,"prev_distance_km":1.899,"cumulative_distance_km":5.293,"amap_marker_url":"https://uri.amap.com/marker?position=119.584055,31.995802&name=%E5%85%B3%E7%88%B1%E5%AE%A0%E7%89%A9%E5%8C%BB%E9%99%A2&src=vetmap&coordinate=gaode&callnative=1","route_id":"r1","route_name":"第1段"},{"name":"倍思特宠物诊所","address":"万善路伊甸园门市房1-2号","phone":"13305291725","category":"医疗保健服务;动物医疗场所;宠物诊所","area":"","lng":119.576328,"lat":31.982167,"amap_id":"B0FFLB109W","order":6,"prev_distance_km":1.682,"cumulative_distance_km":6.975,"amap_marker_url":"https://uri.amap.com/marker?position=119.576328,31.982167&name=%E5%80%8D%E6%80%9D%E7%89%B9%E5%AE%A0%E7%89%A9%E8%AF%8A%E6%89%80&src=vetmap&coordinate=gaode&callnative=1","route_id":"r1","route_name":"第1段"},{"name":"宠爱(紫竹路店)","address":"紫竹路与华南路交叉口东南140米","phone":"","category":"医疗保健服务;动物医疗场所;动物医疗场所","area":"","lng":119.57194,"lat":31.971903,"amap_id":"B0L3A7VYD4","order":7,"prev_distance_km":1.214,"cumulative_distance_km":8.189,"amap_marker_url":"https://uri.amap.com/marker?position=119.571940,31.971903&name=%E5%AE%A0%E7%88%B1%28%E7%B4%AB%E7%AB%B9%E8%B7%AF%E5%BA%97%29&src=vetmap&coordinate=gaode&callnative=1","route_id":"r1","route_name":"第1段"},{"name":"倍特宠物医院","address":"水关西路江南人家门市房1-2号","phone":"13376162323","category":"医疗保健服务;动物医疗场所;宠物诊所","area":"","lng":119.559259,"lat":31.987635,"amap_id":"B0H6V7FYAA","order":8,"prev_distance_km":2.119,"cumulative_distance_km":10.308,"amap_marker_url":"https://uri.amap.com/marker?position=119.559259,31.987635&name=%E5%80%8D%E7%89%B9%E5%AE%A0%E7%89%A9%E5%8C%BB%E9%99%A2&src=vetmap&coordinate=gaode&callnative=1","route_id":"r1","route_name":"第1段"},{"name":"青禾宠物医院","address":"泰豪公寓西北门西70米","phone":"18860890031","category":"医疗保健服务;动物医疗场所;宠物诊所","area":"","lng":119.562285,"lat":31.988149,"amap_id":"B0FFKYQ6HB","order":9,"prev_distance_km":0.291,"cumulative_distance_km":10.6,"amap_marker_url":"https://uri.amap.com/marker?position=119.562285,31.988149&name=%E9%9D%92%E7%A6%BE%E5%AE%A0%E7%89%A9%E5%8C%BB%E9%99%A2&src=vetmap&coordinate=gaode&callnative=1","route_id":"r1","route_name":"第1段"},{"name":"奥维斯宠物医院","address":"三板桥路31-32号","phone":"0511-86880010;18352890611","category":"医疗保健服务;动物医疗场所;宠物诊所","area":"","lng":119.566256,"lat":31.997274,"amap_id":"B0JAGSGCKC","order":10,"prev_distance_km":1.082,"cumulative_distance_km":11.681,"amap_marker_url":"https://uri.amap.com/marker?position=119.566256,31.997274&name=%E5%A5%A5%E7%BB%B4%E6%96%AF%E5%AE%A0%E7%89%A9%E5%8C%BB%E9%99%A2&src=vetmap&coordinate=gaode&callnative=1","route_id":"r1","route_name":"第1段"},{"name":"瑞康宠物医疗","address":"曲阿街道锦湖路19号练湖菜市场北侧","phone":"19852522021","category":"医疗保健服务;动物医疗场所;宠物诊所","area":"","lng":119.558616,"lat":32.005481,"amap_id":"B0IA6RCL6I","order":11,"prev_distance_km":1.163,"cumulative_distance_km":12.844,"amap_marker_url":"https://uri.amap.com/marker?position=119.558616,32.005481&name=%E7%91%9E%E5%BA%B7%E5%AE%A0%E7%89%A9%E5%8C%BB%E7%96%97&src=vetmap&coordinate=gaode&callnative=1","route_id":"r1","route_name":"第1段"},{"name":"丹阳市司徒镇动物防疫站","address":"司徒镇东风路","phone":"","category":"医疗保健服务;动物医疗场所;动物医疗场所","area":"","lng":119.493259,"lat":31.978048,"amap_id":"B0FFKHY028","order":12,"prev_distance_km":6.877,"cumulative_distance_km":19.721,"amap_marker_url":"https://uri.amap.com/marker?position=119.493259,31.978048&name=%E4%B8%B9%E9%98%B3%E5%B8%82%E5%8F%B8%E5%BE%92%E9%95%87%E5%8A%A8%E7%89%A9%E9%98%B2%E7%96%AB%E7%AB%99&src=vetmap&coordinate=gaode&callnative=1","route_id":"r1","route_name":"第1段"},{"name":"丹阳市延陵镇畜牧兽医站","address":"206县道与昌国南路交叉口西北40米","phone":"","category":"医疗保健服务;动物医疗场所;兽医站","area":"","lng":119.481565,"lat":31.879862,"amap_id":"B0FFFW9M4W","order":13,"prev_distance_km":10.973,"cumulative_distance_km":30.694,"amap_marker_url":"https://uri.amap.com/marker?position=119.481565,31.879862&name=%E4%B8%B9%E9%98%B3%E5%B8%82%E5%BB%B6%E9%99%B5%E9%95%87%E7%95%9C%E7%89%A7%E5%85%BD%E5%8C%BB%E7%AB%99&src=vetmap&coordinate=gaode&callnative=1","route_id":"r1","route_name":"第1段"},{"name":"云林兽医站","address":"中心街与世纪路交叉口南100米","phone":"","category":"医疗保健服务;动物医疗场所;兽医站","area":"","lng":119.541088,"lat":31.882719,"amap_id":"B0FFGIPAZW","order":14,"prev_distance_km":5.629,"cumulative_distance_km":36.324,"amap_marker_url":"https://uri.amap.com/marker?position=119.541088,31.882719&name=%E4%BA%91%E6%9E%97%E5%85%BD%E5%8C%BB%E7%AB%99&src=vetmap&coordinate=gaode&callnative=1","route_id":"r1","route_name":"第1段"},{"name":"丹阳市珥陵镇动物防疫站","address":"联城路与丹金路交叉口东100米","phone":"","category":"医疗保健服务;动物医疗场所;动物医疗场所","area":"","lng":119.599479,"lat":31.867044,"amap_id":"B0GKZH8UZ4","order":15,"prev_distance_km":5.783,"cumulative_distance_km":42.106,"amap_marker_url":"https://uri.amap.com/marker?position=119.599479,31.867044&name=%E4%B8%B9%E9%98%B3%E5%B8%82%E7%8F%A5%E9%99%B5%E9%95%87%E5%8A%A8%E7%89%A9%E9%98%B2%E7%96%AB%E7%AB%99&src=vetmap&coordinate=gaode&callnative=1","route_id":"r1","route_name":"第1段"},{"name":"里庄畜牧兽医站","address":"导墅镇","phone":"","category":"医疗保健服务;动物医疗场所;兽医站","area":"","lng":119.640714,"lat":31.807179,"amap_id":"B01FF01W78","order":16,"prev_distance_km":7.713,"cumulative_distance_km":49.819,"amap_marker_url":"https://uri.amap.com/marker?position=119.640714,31.807179&name=%E9%87%8C%E5%BA%84%E7%95%9C%E7%89%A7%E5%85%BD%E5%8C%BB%E7%AB%99&src=vetmap&coordinate=gaode&callnative=1","route_id":"r1","route_name":"第1段"},{"name":"丹阳市皇塘镇动物防疫站","address":"大南庄路与常溧西路交叉口南140米","phone":"","category":"医疗保健服务;动物医疗场所;兽医站","area":"","lng":119.694764,"lat":31.779869,"amap_id":"B0FFGWBOGT","order":17,"prev_distance_km":5.943,"cumulative_distance_km":55.762,"amap_marker_url":"https://uri.amap.com/marker?position=119.694764,31.779869&name=%E4%B8%B9%E9%98%B3%E5%B8%82%E7%9A%87%E5%A1%98%E9%95%87%E5%8A%A8%E7%89%A9%E9%98%B2%E7%96%AB%E7%AB%99&src=vetmap&coordinate=gaode&callnative=1","route_id":"r1","route_name":"第1段"},{"name":"弘润宠物医院","address":"丹阳市市场监督管理局皇塘分局西门旁","phone":"18452459033","category":"医疗保健服务;动物医疗场所;宠物诊所","area":"","lng":119.700591,"lat":31.777169,"amap_id":"B0K1HCTNVF","order":18,"prev_distance_km":0.627,"cumulative_distance_km":56.389,"amap_marker_url":"https://uri.amap.com/marker?position=119.700591,31.777169&name=%E5%BC%98%E6%B6%A6%E5%AE%A0%E7%89%A9%E5%8C%BB%E9%99%A2&src=vetmap&coordinate=gaode&callnative=1","route_id":"r1","route_name":"第1段"},{"name":"优斯特宠物医美诊所","address":"皇塘镇文昌路","phone":"13861273926","category":"医疗保健服务;动物医疗场所;宠物诊所","area":"","lng":119.702667,"lat":31.778444,"amap_id":"B0LUUZPVJ4","order":19,"prev_distance_km":0.242,"cumulative_distance_km":56.631,"amap_marker_url":"https://uri.amap.com/marker?position=119.702667,31.778444&name=%E4%BC%98%E6%96%AF%E7%89%B9%E5%AE%A0%E7%89%A9%E5%8C%BB%E7%BE%8E%E8%AF%8A%E6%89%80&src=vetmap&coordinate=gaode&callnative=1","route_id":"r1","route_name":"第1段"},{"name":"丹阳市导墅镇畜牧兽医站","address":"导墅镇卫生院东门旁","phone":"","category":"医疗保健服务;动物医疗场所;兽医站","area":"","lng":119.688488,"lat":31.837497,"amap_id":"B01FF0OHHK","order":20,"prev_distance_km":6.702,"cumulative_distance_km":63.333,"amap_marker_url":"https://uri.amap.com/marker?position=119.688488,31.837497&name=%E4%B8%B9%E9%98%B3%E5%B8%82%E5%AF%BC%E5%A2%85%E9%95%87%E7%95%9C%E7%89%A7%E5%85%BD%E5%8C%BB%E7%AB%99&src=vetmap&coordinate=gaode&callnative=1","route_id":"r1","route_name":"第1段"},{"name":"丹阳市导墅动物防疫站","address":"导墅镇卫生院后面","phone":"","category":"医疗保健服务;动物医疗场所;动物医疗场所","area":"","lng":119.688195,"lat":31.839177,"amap_id":"B0HARD17VH","order":21,"prev_distance_km":0.189,"cumulative_distance_km":63.522,"amap_marker_url":"https://uri.amap.com/marker?position=119.688195,31.839177&name=%E4%B8%B9%E9%98%B3%E5%B8%82%E5%AF%BC%E5%A2%85%E5%8A%A8%E7%89%A9%E9%98%B2%E7%96%AB%E7%AB%99&src=vetmap&coordinate=gaode&callnative=1","route_id":"r1","route_name":"第1段"},{"name":"六六宠物美容","address":"吕蒙中路与养正西路交叉口北80米","phone":"","category":"医疗保健服务;动物医疗场所;动物医疗场所","area":"","lng":119.743821,"lat":31.899384,"amap_id":"B0J10CDZMT","order":22,"prev_distance_km":8.51,"cumulative_distance_km":72.031,"amap_marker_url":"https://uri.amap.com/marker?position=119.743821,31.899384&name=%E5%85%AD%E5%85%AD%E5%AE%A0%E7%89%A9%E7%BE%8E%E5%AE%B9&src=vetmap&coordinate=gaode&callnative=1","route_id":"r1","route_name":"第1段"},{"name":"维特宠物诊所","address":"访仙西路12号","phone":"17314606101","category":"医疗保健服务;动物医疗场所;宠物诊所","area":"","lng":119.735651,"lat":31.999719,"amap_id":"B0IAFS8PWJ","order":23,"prev_distance_km":11.183,"cumulative_distance_km":83.214,"amap_marker_url":"https://uri.amap.com/marker?position=119.735651,31.999719&name=%E7%BB%B4%E7%89%B9%E5%AE%A0%E7%89%A9%E8%AF%8A%E6%89%80&src=vetmap&coordinate=gaode&callnative=1","route_id":"r1","route_name":"第1段"},{"name":"丹北镇爱特宠物医院","address":"后巷中心路129号","phone":"19051000606","category":"医疗保健服务;动物医疗场所;宠物诊所","area":"","lng":119.766238,"lat":32.081376,"amap_id":"B0K2MLVM6N","order":24,"prev_distance_km":9.527,"cumulative_distance_km":92.741,"amap_marker_url":"https://uri.amap.com/marker?position=119.766238,32.081376&name=%E4%B8%B9%E5%8C%97%E9%95%87%E7%88%B1%E7%89%B9%E5%AE%A0%E7%89%A9%E5%8C%BB%E9%99%A2&src=vetmap&coordinate=gaode&callnative=1","route_id":"r1","route_name":"第1段"},{"name":"Family宠物诊所生活馆","address":"丹北镇后巷中心大街心连心药店隔壁","phone":"18651292942","category":"医疗保健服务;动物医疗场所;宠物诊所","area":"","lng":119.766517,"lat":32.091551,"amap_id":"B0JA1ZLZMG","order":25,"prev_distance_km":1.132,"cumulative_distance_km":93.873,"amap_marker_url":"https://uri.amap.com/marker?position=119.766517,32.091551&name=Family%E5%AE%A0%E7%89%A9%E8%AF%8A%E6%89%80%E7%94%9F%E6%B4%BB%E9%A6%86&src=vetmap&coordinate=gaode&callnative=1","route_id":"r1","route_name":"第1段"},{"name":"丹阳市丹北镇动物防疫站","address":"丹北镇振兴路育才路","phone":"0511-86312343","category":"医疗保健服务;动物医疗场所;动物医疗场所","area":"","lng":119.765329,"lat":32.097262,"amap_id":"B0FFIU3OW9","order":26,"prev_distance_km":0.645,"cumulative_distance_km":94.518,"amap_marker_url":"https://uri.amap.com/marker?position=119.765329,32.097262&name=%E4%B8%B9%E9%98%B3%E5%B8%82%E4%B8%B9%E5%8C%97%E9%95%87%E5%8A%A8%E7%89%A9%E9%98%B2%E7%96%AB%E7%AB%99&src=vetmap&coordinate=gaode&callnative=1","route_id":"r1","route_name":"第1段"},{"name":"新桥兽医站宠物门诊","address":"丹界公路与建新路交叉口东北100米","phone":"13913424537","category":"医疗保健服务;动物医疗场所;兽医站","area":"","lng":119.81183,"lat":32.077559,"amap_id":"B0FFKJL7H5","order":27,"prev_distance_km":4.898,"cumulative_distance_km":99.416,"amap_marker_url":"https://uri.amap.com/marker?position=119.811830,32.077559&name=%E6%96%B0%E6%A1%A5%E5%85%BD%E5%8C%BB%E7%AB%99%E5%AE%A0%E7%89%A9%E9%97%A8%E8%AF%8A&src=vetmap&coordinate=gaode&callnative=1","route_id":"r1","route_name":"第1段"},{"name":"丹北镇爱特宠物门诊","address":"丹界线东方总厂","phone":"13913424537","category":"医疗保健服务;动物医疗场所;宠物诊所","area":"","lng":119.811832,"lat":32.077559,"amap_id":"B0G3TOQZ7G","order":28,"prev_distance_km":0.0,"cumulative_distance_km":99.416,"amap_marker_url":"https://uri.amap.com/marker?position=119.811832,32.077559&name=%E4%B8%B9%E5%8C%97%E9%95%87%E7%88%B1%E7%89%B9%E5%AE%A0%E7%89%A9%E9%97%A8%E8%AF%8A&src=vetmap&coordinate=gaode&callnative=1","route_id":"r1","route_name":"第1段"},{"name":"界牌镇畜牧兽医站","address":"界牌镇双丰路","phone":"","category":"医疗保健服务;动物医疗场所;兽医站","area":"","lng":119.862375,"lat":32.065825,"amap_id":"B0FFL80YLD","order":29,"prev_distance_km":4.938,"cumulative_distance_km":104.354,"amap_marker_url":"https://uri.amap.com/marker?position=119.862375,32.065825&name=%E7%95%8C%E7%89%8C%E9%95%87%E7%95%9C%E7%89%A7%E5%85%BD%E5%8C%BB%E7%AB%99&src=vetmap&coordinate=gaode&callnative=1","route_id":"r1","route_name":"第1段"}]}],"rows":[{"name":"牧马人宠物医院","address":"丹桂路88号融锦广场天福花园南大门28-3号楼","phone":"0511-86858899","category":"医疗保健服务;动物医疗场所;宠物诊所","area":"","lng":119.614481,"lat":32.011757,"amap_id":"B0FFL18PSH","order":1,"prev_distance_km":0.0,"cumulative_distance_km":0.0,"amap_marker_url":"https://uri.amap.com/marker?position=119.614481,32.011757&name=%E7%89%A7%E9%A9%AC%E4%BA%BA%E5%AE%A0%E7%89%A9%E5%8C%BB%E9%99%A2&src=vetmap&coordinate=gaode&callnative=1","route_id":"r1","route_name":"第1段","global_order":1},{"name":"海龙宠物诊所","address":"玉泉路71号开元大酒店楼下","phone":"","category":"医疗保健服务;动物医疗场所;宠物诊所","area":"","lng":119.600351,"lat":31.997563,"amap_id":"B0FFIQZTW2","order":2,"prev_distance_km":2.065,"cumulative_distance_km":2.065,"amap_marker_url":"https://uri.amap.com/marker?position=119.600351,31.997563&name=%E6%B5%B7%E9%BE%99%E5%AE%A0%E7%89%A9%E8%AF%8A%E6%89%80&src=vetmap&coordinate=gaode&callnative=1","route_id":"r1","route_name":"第1段","global_order":2},{"name":"益佳宠物门诊","address":"经济技术开发区金陵西路国税局对面","phone":"15189150966","category":"医疗保健服务;动物医疗场所;宠物诊所","area":"","lng":119.598777,"lat":31.99784,"amap_id":"B0FFF2N71Y","order":3,"prev_distance_km":0.152,"cumulative_distance_km":2.217,"amap_marker_url":"https://uri.amap.com/marker?position=119.598777,31.997840&name=%E7%9B%8A%E4%BD%B3%E5%AE%A0%E7%89%A9%E9%97%A8%E8%AF%8A&src=vetmap&coordinate=gaode&callnative=1","route_id":"r1","route_name":"第1段","global_order":3},{"name":"贝康宠物医院(开发区店)","address":"普善路普善人家南大门107-108室","phone":"17768664555;18260360945","category":"医疗保健服务;动物医疗场所;宠物诊所","area":"","lng":119.601686,"lat":31.987548,"amap_id":"B0ID7AV4WV","order":4,"prev_distance_km":1.177,"cumulative_distance_km":3.394,"amap_marker_url":"https://uri.amap.com/marker?position=119.601686,31.987548&name=%E8%B4%9D%E5%BA%B7%E5%AE%A0%E7%89%A9%E5%8C%BB%E9%99%A2%28%E5%BC%80%E5%8F%91%E5%8C%BA%E5%BA%97%29&src=vetmap&coordinate=gaode&callnative=1","route_id":"r1","route_name":"第1段","global_order":4},{"name":"关爱宠物医院","address":"中山路71号","phone":"15051122627","category":"医疗保健服务;动物医疗场所;宠物诊所","area":"","lng":119.584055,"lat":31.995802,"amap_id":"B0FFGNFM25","order":5,"prev_distance_km":1.899,"cumulative_distance_km":5.293,"amap_marker_url":"https://uri.amap.com/marker?position=119.584055,31.995802&name=%E5%85%B3%E7%88%B1%E5%AE%A0%E7%89%A9%E5%8C%BB%E9%99%A2&src=vetmap&coordinate=gaode&callnative=1","route_id":"r1","route_name":"第1段","global_order":5},{"name":"倍思特宠物诊所","address":"万善路伊甸园门市房1-2号","phone":"13305291725","category":"医疗保健服务;动物医疗场所;宠物诊所","area":"","lng":119.576328,"lat":31.982167,"amap_id":"B0FFLB109W","order":6,"prev_distance_km":1.682,"cumulative_distance_km":6.975,"amap_marker_url":"https://uri.amap.com/marker?position=119.576328,31.982167&name=%E5%80%8D%E6%80%9D%E7%89%B9%E5%AE%A0%E7%89%A9%E8%AF%8A%E6%89%80&src=vetmap&coordinate=gaode&callnative=1","route_id":"r1","route_name":"第1段","global_order":6},{"name":"宠爱(紫竹路店)","address":"紫竹路与华南路交叉口东南140米","phone":"","category":"医疗保健服务;动物医疗场所;动物医疗场所","area":"","lng":119.57194,"lat":31.971903,"amap_id":"B0L3A7VYD4","order":7,"prev_distance_km":1.214,"cumulative_distance_km":8.189,"amap_marker_url":"https://uri.amap.com/marker?position=119.571940,31.971903&name=%E5%AE%A0%E7%88%B1%28%E7%B4%AB%E7%AB%B9%E8%B7%AF%E5%BA%97%29&src=vetmap&coordinate=gaode&callnative=1","route_id":"r1","route_name":"第1段","global_order":7},{"name":"倍特宠物医院","address":"水关西路江南人家门市房1-2号","phone":"13376162323","category":"医疗保健服务;动物医疗场所;宠物诊所","area":"","lng":119.559259,"lat":31.987635,"amap_id":"B0H6V7FYAA","order":8,"prev_distance_km":2.119,"cumulative_distance_km":10.308,"amap_marker_url":"https://uri.amap.com/marker?position=119.559259,31.987635&name=%E5%80%8D%E7%89%B9%E5%AE%A0%E7%89%A9%E5%8C%BB%E9%99%A2&src=vetmap&coordinate=gaode&callnative=1","route_id":"r1","route_name":"第1段","global_order":8},{"name":"青禾宠物医院","address":"泰豪公寓西北门西70米","phone":"18860890031","category":"医疗保健服务;动物医疗场所;宠物诊所","area":"","lng":119.562285,"lat":31.988149,"amap_id":"B0FFKYQ6HB","order":9,"prev_distance_km":0.291,"cumulative_distance_km":10.6,"amap_marker_url":"https://uri.amap.com/marker?position=119.562285,31.988149&name=%E9%9D%92%E7%A6%BE%E5%AE%A0%E7%89%A9%E5%8C%BB%E9%99%A2&src=vetmap&coordinate=gaode&callnative=1","route_id":"r1","route_name":"第1段","global_order":9},{"name":"奥维斯宠物医院","address":"三板桥路31-32号","phone":"0511-86880010;18352890611","category":"医疗保健服务;动物医疗场所;宠物诊所","area":"","lng":119.566256,"lat":31.997274,"amap_id":"B0JAGSGCKC","order":10,"prev_distance_km":1.082,"cumulative_distance_km":11.681,"amap_marker_url":"https://uri.amap.com/marker?position=119.566256,31.997274&name=%E5%A5%A5%E7%BB%B4%E6%96%AF%E5%AE%A0%E7%89%A9%E5%8C%BB%E9%99%A2&src=vetmap&coordinate=gaode&callnative=1","route_id":"r1","route_name":"第1段","global_order":10},{"name":"瑞康宠物医疗","address":"曲阿街道锦湖路19号练湖菜市场北侧","phone":"19852522021","category":"医疗保健服务;动物医疗场所;宠物诊所","area":"","lng":119.558616,"lat":32.005481,"amap_id":"B0IA6RCL6I","order":11,"prev_distance_km":1.163,"cumulative_distance_km":12.844,"amap_marker_url":"https://uri.amap.com/marker?position=119.558616,32.005481&name=%E7%91%9E%E5%BA%B7%E5%AE%A0%E7%89%A9%E5%8C%BB%E7%96%97&src=vetmap&coordinate=gaode&callnative=1","route_id":"r1","route_name":"第1段","global_order":11},{"name":"丹阳市司徒镇动物防疫站","address":"司徒镇东风路","phone":"","category":"医疗保健服务;动物医疗场所;动物医疗场所","area":"","lng":119.493259,"lat":31.978048,"amap_id":"B0FFKHY028","order":12,"prev_distance_km":6.877,"cumulative_distance_km":19.721,"amap_marker_url":"https://uri.amap.com/marker?position=119.493259,31.978048&name=%E4%B8%B9%E9%98%B3%E5%B8%82%E5%8F%B8%E5%BE%92%E9%95%87%E5%8A%A8%E7%89%A9%E9%98%B2%E7%96%AB%E7%AB%99&src=vetmap&coordinate=gaode&callnative=1","route_id":"r1","route_name":"第1段","global_order":12},{"name":"丹阳市延陵镇畜牧兽医站","address":"206县道与昌国南路交叉口西北40米","phone":"","category":"医疗保健服务;动物医疗场所;兽医站","area":"","lng":119.481565,"lat":31.879862,"amap_id":"B0FFFW9M4W","order":13,"prev_distance_km":10.973,"cumulative_distance_km":30.694,"amap_marker_url":"https://uri.amap.com/marker?position=119.481565,31.879862&name=%E4%B8%B9%E9%98%B3%E5%B8%82%E5%BB%B6%E9%99%B5%E9%95%87%E7%95%9C%E7%89%A7%E5%85%BD%E5%8C%BB%E7%AB%99&src=vetmap&coordinate=gaode&callnative=1","route_id":"r1","route_name":"第1段","global_order":13},{"name":"云林兽医站","address":"中心街与世纪路交叉口南100米","phone":"","category":"医疗保健服务;动物医疗场所;兽医站","area":"","lng":119.541088,"lat":31.882719,"amap_id":"B0FFGIPAZW","order":14,"prev_distance_km":5.629,"cumulative_distance_km":36.324,"amap_marker_url":"https://uri.amap.com/marker?position=119.541088,31.882719&name=%E4%BA%91%E6%9E%97%E5%85%BD%E5%8C%BB%E7%AB%99&src=vetmap&coordinate=gaode&callnative=1","route_id":"r1","route_name":"第1段","global_order":14},{"name":"丹阳市珥陵镇动物防疫站","address":"联城路与丹金路交叉口东100米","phone":"","category":"医疗保健服务;动物医疗场所;动物医疗场所","area":"","lng":119.599479,"lat":31.867044,"amap_id":"B0GKZH8UZ4","order":15,"prev_distance_km":5.783,"cumulative_distance_km":42.106,"amap_marker_url":"https://uri.amap.com/marker?position=119.599479,31.867044&name=%E4%B8%B9%E9%98%B3%E5%B8%82%E7%8F%A5%E9%99%B5%E9%95%87%E5%8A%A8%E7%89%A9%E9%98%B2%E7%96%AB%E7%AB%99&src=vetmap&coordinate=gaode&callnative=1","route_id":"r1","route_name":"第1段","global_order":15},{"name":"里庄畜牧兽医站","address":"导墅镇","phone":"","category":"医疗保健服务;动物医疗场所;兽医站","area":"","lng":119.640714,"lat":31.807179,"amap_id":"B01FF01W78","order":16,"prev_distance_km":7.713,"cumulative_distance_km":49.819,"amap_marker_url":"https://uri.amap.com/marker?position=119.640714,31.807179&name=%E9%87%8C%E5%BA%84%E7%95%9C%E7%89%A7%E5%85%BD%E5%8C%BB%E7%AB%99&src=vetmap&coordinate=gaode&callnative=1","route_id":"r1","route_name":"第1段","global_order":16},{"name":"丹阳市皇塘镇动物防疫站","address":"大南庄路与常溧西路交叉口南140米","phone":"","category":"医疗保健服务;动物医疗场所;兽医站","area":"","lng":119.694764,"lat":31.779869,"amap_id":"B0FFGWBOGT","order":17,"prev_distance_km":5.943,"cumulative_distance_km":55.762,"amap_marker_url":"https://uri.amap.com/marker?position=119.694764,31.779869&name=%E4%B8%B9%E9%98%B3%E5%B8%82%E7%9A%87%E5%A1%98%E9%95%87%E5%8A%A8%E7%89%A9%E9%98%B2%E7%96%AB%E7%AB%99&src=vetmap&coordinate=gaode&callnative=1","route_id":"r1","route_name":"第1段","global_order":17},{"name":"弘润宠物医院","address":"丹阳市市场监督管理局皇塘分局西门旁","phone":"18452459033","category":"医疗保健服务;动物医疗场所;宠物诊所","area":"","lng":119.700591,"lat":31.777169,"amap_id":"B0K1HCTNVF","order":18,"prev_distance_km":0.627,"cumulative_distance_km":56.389,"amap_marker_url":"https://uri.amap.com/marker?position=119.700591,31.777169&name=%E5%BC%98%E6%B6%A6%E5%AE%A0%E7%89%A9%E5%8C%BB%E9%99%A2&src=vetmap&coordinate=gaode&callnative=1","route_id":"r1","route_name":"第1段","global_order":18},{"name":"优斯特宠物医美诊所","address":"皇塘镇文昌路","phone":"13861273926","category":"医疗保健服务;动物医疗场所;宠物诊所","area":"","lng":119.702667,"lat":31.778444,"amap_id":"B0LUUZPVJ4","order":19,"prev_distance_km":0.242,"cumulative_distance_km":56.631,"amap_marker_url":"https://uri.amap.com/marker?position=119.702667,31.778444&name=%E4%BC%98%E6%96%AF%E7%89%B9%E5%AE%A0%E7%89%A9%E5%8C%BB%E7%BE%8E%E8%AF%8A%E6%89%80&src=vetmap&coordinate=gaode&callnative=1","route_id":"r1","route_name":"第1段","global_order":19},{"name":"丹阳市导墅镇畜牧兽医站","address":"导墅镇卫生院东门旁","phone":"","category":"医疗保健服务;动物医疗场所;兽医站","area":"","lng":119.688488,"lat":31.837497,"amap_id":"B01FF0OHHK","order":20,"prev_distance_km":6.702,"cumulative_distance_km":63.333,"amap_marker_url":"https://uri.amap.com/marker?position=119.688488,31.837497&name=%E4%B8%B9%E9%98%B3%E5%B8%82%E5%AF%BC%E5%A2%85%E9%95%87%E7%95%9C%E7%89%A7%E5%85%BD%E5%8C%BB%E7%AB%99&src=vetmap&coordinate=gaode&callnative=1","route_id":"r1","route_name":"第1段","global_order":20},{"name":"丹阳市导墅动物防疫站","address":"导墅镇卫生院后面","phone":"","category":"医疗保健服务;动物医疗场所;动物医疗场所","area":"","lng":119.688195,"lat":31.839177,"amap_id":"B0HARD17VH","order":21,"prev_distance_km":0.189,"cumulative_distance_km":63.522,"amap_marker_url":"https://uri.amap.com/marker?position=119.688195,31.839177&name=%E4%B8%B9%E9%98%B3%E5%B8%82%E5%AF%BC%E5%A2%85%E5%8A%A8%E7%89%A9%E9%98%B2%E7%96%AB%E7%AB%99&src=vetmap&coordinate=gaode&callnative=1","route_id":"r1","route_name":"第1段","global_order":21},{"name":"六六宠物美容","address":"吕蒙中路与养正西路交叉口北80米","phone":"","category":"医疗保健服务;动物医疗场所;动物医疗场所","area":"","lng":119.743821,"lat":31.899384,"amap_id":"B0J10CDZMT","order":22,"prev_distance_km":8.51,"cumulative_distance_km":72.031,"amap_marker_url":"https://uri.amap.com/marker?position=119.743821,31.899384&name=%E5%85%AD%E5%85%AD%E5%AE%A0%E7%89%A9%E7%BE%8E%E5%AE%B9&src=vetmap&coordinate=gaode&callnative=1","route_id":"r1","route_name":"第1段","global_order":22},{"name":"维特宠物诊所","address":"访仙西路12号","phone":"17314606101","category":"医疗保健服务;动物医疗场所;宠物诊所","area":"","lng":119.735651,"lat":31.999719,"amap_id":"B0IAFS8PWJ","order":23,"prev_distance_km":11.183,"cumulative_distance_km":83.214,"amap_marker_url":"https://uri.amap.com/marker?position=119.735651,31.999719&name=%E7%BB%B4%E7%89%B9%E5%AE%A0%E7%89%A9%E8%AF%8A%E6%89%80&src=vetmap&coordinate=gaode&callnative=1","route_id":"r1","route_name":"第1段","global_order":23},{"name":"丹北镇爱特宠物医院","address":"后巷中心路129号","phone":"19051000606","category":"医疗保健服务;动物医疗场所;宠物诊所","area":"","lng":119.766238,"lat":32.081376,"amap_id":"B0K2MLVM6N","order":24,"prev_distance_km":9.527,"cumulative_distance_km":92.741,"amap_marker_url":"https://uri.amap.com/marker?position=119.766238,32.081376&name=%E4%B8%B9%E5%8C%97%E9%95%87%E7%88%B1%E7%89%B9%E5%AE%A0%E7%89%A9%E5%8C%BB%E9%99%A2&src=vetmap&coordinate=gaode&callnative=1","route_id":"r1","route_name":"第1段","global_order":24},{"name":"Family宠物诊所生活馆","address":"丹北镇后巷中心大街心连心药店隔壁","phone":"18651292942","category":"医疗保健服务;动物医疗场所;宠物诊所","area":"","lng":119.766517,"lat":32.091551,"amap_id":"B0JA1ZLZMG","order":25,"prev_distance_km":1.132,"cumulative_distance_km":93.873,"amap_marker_url":"https://uri.amap.com/marker?position=119.766517,32.091551&name=Family%E5%AE%A0%E7%89%A9%E8%AF%8A%E6%89%80%E7%94%9F%E6%B4%BB%E9%A6%86&src=vetmap&coordinate=gaode&callnative=1","route_id":"r1","route_name":"第1段","global_order":25},{"name":"丹阳市丹北镇动物防疫站","address":"丹北镇振兴路育才路","phone":"0511-86312343","category":"医疗保健服务;动物医疗场所;动物医疗场所","area":"","lng":119.765329,"lat":32.097262,"amap_id":"B0FFIU3OW9","order":26,"prev_distance_km":0.645,"cumulative_distance_km":94.518,"amap_marker_url":"https://uri.amap.com/marker?position=119.765329,32.097262&name=%E4%B8%B9%E9%98%B3%E5%B8%82%E4%B8%B9%E5%8C%97%E9%95%87%E5%8A%A8%E7%89%A9%E9%98%B2%E7%96%AB%E7%AB%99&src=vetmap&coordinate=gaode&callnative=1","route_id":"r1","route_name":"第1段","global_order":26},{"name":"新桥兽医站宠物门诊","address":"丹界公路与建新路交叉口东北100米","phone":"13913424537","category":"医疗保健服务;动物医疗场所;兽医站","area":"","lng":119.81183,"lat":32.077559,"amap_id":"B0FFKJL7H5","order":27,"prev_distance_km":4.898,"cumulative_distance_km":99.416,"amap_marker_url":"https://uri.amap.com/marker?position=119.811830,32.077559&name=%E6%96%B0%E6%A1%A5%E5%85%BD%E5%8C%BB%E7%AB%99%E5%AE%A0%E7%89%A9%E9%97%A8%E8%AF%8A&src=vetmap&coordinate=gaode&callnative=1","route_id":"r1","route_name":"第1段","global_order":27},{"name":"丹北镇爱特宠物门诊","address":"丹界线东方总厂","phone":"13913424537","category":"医疗保健服务;动物医疗场所;宠物诊所","area":"","lng":119.811832,"lat":32.077559,"amap_id":"B0G3TOQZ7G","order":28,"prev_distance_km":0.0,"cumulative_distance_km":99.416,"amap_marker_url":"https://uri.amap.com/marker?position=119.811832,32.077559&name=%E4%B8%B9%E5%8C%97%E9%95%87%E7%88%B1%E7%89%B9%E5%AE%A0%E7%89%A9%E9%97%A8%E8%AF%8A&src=vetmap&coordinate=gaode&callnative=1","route_id":"r1","route_name":"第1段","global_order":28},{"name":"界牌镇畜牧兽医站","address":"界牌镇双丰路","phone":"","category":"医疗保健服务;动物医疗场所;兽医站","area":"","lng":119.862375,"lat":32.065825,"amap_id":"B0FFL80YLD","order":29,"prev_distance_km":4.938,"cumulative_distance_km":104.354,"amap_marker_url":"https://uri.amap.com/marker?position=119.862375,32.065825&name=%E7%95%8C%E7%89%8C%E9%95%87%E7%95%9C%E7%89%A7%E5%85%BD%E5%8C%BB%E7%AB%99&src=vetmap&coordinate=gaode&callnative=1","route_id":"r1","route_name":"第1段","global_order":29}]}