{"summary":{"id":"d00824","province":"江苏省","city":"扬州市","district":"高邮市","count":12,"total_distance_km":90.607,"coordinate_system":"GCJ-02 / Amap","generated_at":"2026-05-07 20:22:47"},"rows":[{"name":"菱塘兽医门诊部","address":"中大路与富菱路交叉口北160米","phone":"","category":"医疗保健服务;动物医疗场所;兽医站","area":"","lng":119.235639,"lat":32.684385,"amap_id":"B0L6MGVDB2","order":1,"prev_distance_km":0.0,"cumulative_distance_km":0.0,"amap_marker_url":"https://uri.amap.com/marker?position=119.235639,32.684385&name=%E8%8F%B1%E5%A1%98%E5%85%BD%E5%8C%BB%E9%97%A8%E8%AF%8A%E9%83%A8&src=vetmap&coordinate=gaode&callnative=1"},{"name":"宠物造型","address":"蝶园路奎楼二村12一3号","phone":"13773302118;13773319293","category":"医疗保健服务;动物医疗场所;宠物诊所","area":"","lng":119.441219,"lat":32.775952,"amap_id":"B0202170CV","order":2,"prev_distance_km":21.759,"cumulative_distance_km":21.759,"amap_marker_url":"https://uri.amap.com/marker?position=119.441219,32.775952&name=%E5%AE%A0%E7%89%A9%E9%80%A0%E5%9E%8B&src=vetmap&coordinate=gaode&callnative=1"},{"name":"超达宠物诊所","address":"武安路462号","phone":"15152776381;18052556630","category":"医疗保健服务;动物医疗场所;宠物诊所","area":"","lng":119.449288,"lat":32.77164,"amap_id":"B0202152AJ","order":3,"prev_distance_km":0.894,"cumulative_distance_km":22.653,"amap_marker_url":"https://uri.amap.com/marker?position=119.449288,32.771640&name=%E8%B6%85%E8%BE%BE%E5%AE%A0%E7%89%A9%E8%AF%8A%E6%89%80&src=vetmap&coordinate=gaode&callnative=1"},{"name":"爱心宠物医院","address":"文游中路179号","phone":"15050766161","category":"医疗保健服务;动物医疗场所;宠物诊所","area":"","lng":119.449191,"lat":32.778557,"amap_id":"B0FFG82T2M","order":4,"prev_distance_km":0.769,"cumulative_distance_km":23.422,"amap_marker_url":"https://uri.amap.com/marker?position=119.449191,32.778557&name=%E7%88%B1%E5%BF%83%E5%AE%A0%E7%89%A9%E5%8C%BB%E9%99%A2&src=vetmap&coordinate=gaode&callnative=1"},{"name":"毛台宠物医院","address":"珠光路288-290号","phone":"15161828777","category":"医疗保健服务;动物医疗场所;宠物诊所","area":"","lng":119.471828,"lat":32.778359,"amap_id":"B0K23ZO2FB","order":5,"prev_distance_km":2.116,"cumulative_distance_km":25.539,"amap_marker_url":"https://uri.amap.com/marker?position=119.471828,32.778359&name=%E6%AF%9B%E5%8F%B0%E5%AE%A0%E7%89%A9%E5%8C%BB%E9%99%A2&src=vetmap&coordinate=gaode&callnative=1"},{"name":"荣宠可爱多宠物医院(高邮店)","address":"海潮东路777号","phone":"15189896897","category":"医疗保健服务;动物医疗场所;宠物诊所","area":"","lng":119.482357,"lat":32.778425,"amap_id":"B0L0RS5O5B","order":6,"prev_distance_km":0.984,"cumulative_distance_km":26.523,"amap_marker_url":"https://uri.amap.com/marker?position=119.482357,32.778425&name=%E8%8D%A3%E5%AE%A0%E5%8F%AF%E7%88%B1%E5%A4%9A%E5%AE%A0%E7%89%A9%E5%8C%BB%E9%99%A2%28%E9%AB%98%E9%82%AE%E5%BA%97%29&src=vetmap&coordinate=gaode&callnative=1"},{"name":"爱康宠物医院","address":"通湖路164号","phone":"15396757620","category":"医疗保健服务;动物医疗场所;宠物诊所","area":"","lng":119.46303,"lat":32.788925,"amap_id":"B0FFLP1UMA","order":7,"prev_distance_km":2.151,"cumulative_distance_km":28.674,"amap_marker_url":"https://uri.amap.com/marker?position=119.463030,32.788925&name=%E7%88%B1%E5%BA%B7%E5%AE%A0%E7%89%A9%E5%8C%BB%E9%99%A2&src=vetmap&coordinate=gaode&callnative=1"},{"name":"萌宠之家生活馆","address":"泰北路76-34号附近","phone":"18360326800","category":"医疗保健服务;动物医疗场所;动物医疗场所","area":"","lng":119.458099,"lat":32.797518,"amap_id":"B0FFIS85JR","order":8,"prev_distance_km":1.061,"cumulative_distance_km":29.735,"amap_marker_url":"https://uri.amap.com/marker?position=119.458099,32.797518&name=%E8%90%8C%E5%AE%A0%E4%B9%8B%E5%AE%B6%E7%94%9F%E6%B4%BB%E9%A6%86&src=vetmap&coordinate=gaode&callnative=1"},{"name":"仁爱宠物门诊所","address":"国雄路与窑巷口交叉口西80米","phone":"","category":"医疗保健服务;动物医疗场所;宠物诊所","area":"","lng":119.441614,"lat":32.797132,"amap_id":"B0LB5K1QH2","order":9,"prev_distance_km":1.541,"cumulative_distance_km":31.277,"amap_marker_url":"https://uri.amap.com/marker?position=119.441614,32.797132&name=%E4%BB%81%E7%88%B1%E5%AE%A0%E7%89%A9%E9%97%A8%E8%AF%8A%E6%89%80&src=vetmap&coordinate=gaode&callnative=1"},{"name":"高邮市营南乡畜禽检疫站","address":"临泽镇营周路20号","phone":"","category":"医疗保健服务;动物医疗场所;兽医站","area":"","lng":119.513352,"lat":33.000362,"amap_id":"B02020237G","order":10,"prev_distance_km":23.57,"cumulative_distance_km":54.846,"amap_marker_url":"https://uri.amap.com/marker?position=119.513352,33.000362&name=%E9%AB%98%E9%82%AE%E5%B8%82%E8%90%A5%E5%8D%97%E4%B9%A1%E7%95%9C%E7%A6%BD%E6%A3%80%E7%96%AB%E7%AB%99&src=vetmap&coordinate=gaode&callnative=1"},{"name":"司徒镇畜牧兽医站","address":"三垛镇","phone":"","category":"医疗保健服务;动物医疗场所;兽医站","area":"","lng":119.64261,"lat":32.892973,"amap_id":"B020202CJ3","order":11,"prev_distance_km":16.973,"cumulative_distance_km":71.819,"amap_marker_url":"https://uri.amap.com/marker?position=119.642610,32.892973&name=%E5%8F%B8%E5%BE%92%E9%95%87%E7%95%9C%E7%89%A7%E5%85%BD%E5%8C%BB%E7%AB%99&src=vetmap&coordinate=gaode&callnative=1"},{"name":"高邮市汤庄镇畜牧兽医站","address":"建业路4号","phone":"","category":"医疗保健服务;动物医疗场所;兽医站","area":"","lng":119.797248,"lat":32.784948,"amap_id":"B02020J0W2","order":12,"prev_distance_km":18.788,"cumulative_distance_km":90.607,"amap_marker_url":"https://uri.amap.com/marker?position=119.797248,32.784948&name=%E9%AB%98%E9%82%AE%E5%B8%82%E6%B1%A4%E5%BA%84%E9%95%87%E7%95%9C%E7%89%A7%E5%85%BD%E5%8C%BB%E7%AB%99&src=vetmap&coordinate=gaode&callnative=1"}]}