{"summary":{"id":"d00823","province":"江苏省","city":"扬州市","district":"邗江区","count":75,"total_distance_km":134.89,"coordinate_system":"GCJ-02 / Amap","generated_at":"2026-05-07 19:57:05"},"rows":[{"name":"杨寿镇畜牧兽医站","address":"迎宾路与华通路交叉口南80米","phone":"","category":"医疗保健服务;动物医疗场所;兽医站","area":"","lng":119.312725,"lat":32.522856,"amap_id":"B0FFL6N7TI","order":1,"prev_distance_km":0.0,"cumulative_distance_km":0.0,"amap_marker_url":"https://uri.amap.com/marker?position=119.312725,32.522856&name=%E6%9D%A8%E5%AF%BF%E9%95%87%E7%95%9C%E7%89%A7%E5%85%BD%E5%8C%BB%E7%AB%99&src=vetmap&coordinate=gaode&callnative=1"},{"name":"邗江区甘泉街道畜牧兽医站","address":"七泉路与慧照路交叉口东60米","phone":"13338857183;15195569727","category":"医疗保健服务;动物医疗场所;兽医站","area":"","lng":119.348269,"lat":32.477852,"amap_id":"B020216U5X","order":2,"prev_distance_km":6.013,"cumulative_distance_km":6.013,"amap_marker_url":"https://uri.amap.com/marker?position=119.348269,32.477852&name=%E9%82%97%E6%B1%9F%E5%8C%BA%E7%94%98%E6%B3%89%E8%A1%97%E9%81%93%E7%95%9C%E7%89%A7%E5%85%BD%E5%8C%BB%E7%AB%99&src=vetmap&coordinate=gaode&callnative=1"},{"name":"麦兜宠物医院","address":"西湖镇万科金色梦想金街4-203","phone":"16651083344","category":"医疗保健服务;动物医疗场所;宠物诊所","area":"","lng":119.379326,"lat":32.421584,"amap_id":"B0JGNCXXEL","order":3,"prev_distance_km":6.902,"cumulative_distance_km":12.915,"amap_marker_url":"https://uri.amap.com/marker?position=119.379326,32.421584&name=%E9%BA%A6%E5%85%9C%E5%AE%A0%E7%89%A9%E5%8C%BB%E9%99%A2&src=vetmap&coordinate=gaode&callnative=1"},{"name":"兽医小明宠物医院(扬州北区店)","address":"西峰路9号金叶广场","phone":"17625853915;18944452922","category":"医疗保健服务;动物医疗场所;宠物诊所","area":"","lng":119.390717,"lat":32.416583,"amap_id":"B0FFKS3IIZ","order":4,"prev_distance_km":1.205,"cumulative_distance_km":14.12,"amap_marker_url":"https://uri.amap.com/marker?position=119.390717,32.416583&name=%E5%85%BD%E5%8C%BB%E5%B0%8F%E6%98%8E%E5%AE%A0%E7%89%A9%E5%8C%BB%E9%99%A2%28%E6%89%AC%E5%B7%9E%E5%8C%97%E5%8C%BA%E5%BA%97%29&src=vetmap&coordinate=gaode&callnative=1"},{"name":"宠物美容","address":"金辉路与西峰路交叉口南40米","phone":"","category":"医疗保健服务;动物医疗场所;宠物诊所","area":"","lng":119.390979,"lat":32.416672,"amap_id":"B0L6L1GNPM","order":5,"prev_distance_km":0.027,"cumulative_distance_km":14.147,"amap_marker_url":"https://uri.amap.com/marker?position=119.390979,32.416672&name=%E5%AE%A0%E7%89%A9%E7%BE%8E%E5%AE%B9&src=vetmap&coordinate=gaode&callnative=1"},{"name":"佳优动物医院","address":"西峰路150号","phone":"","category":"医疗保健服务;动物医疗场所;宠物诊所","area":"","lng":119.391151,"lat":32.416499,"amap_id":"B0JDKH6NLU","order":6,"prev_distance_km":0.025,"cumulative_distance_km":14.172,"amap_marker_url":"https://uri.amap.com/marker?position=119.391151,32.416499&name=%E4%BD%B3%E4%BC%98%E5%8A%A8%E7%89%A9%E5%8C%BB%E9%99%A2&src=vetmap&coordinate=gaode&callnative=1"},{"name":"枕山栖谷宠物医院24h转诊中心·心超·骨科","address":"邗江北路280号7栋104室","phone":"18652752980","category":"医疗保健服务;动物医疗场所;宠物诊所","area":"","lng":119.394479,"lat":32.405875,"amap_id":"B0KGJU5D5A","order":7,"prev_distance_km":1.222,"cumulative_distance_km":15.394,"amap_marker_url":"https://uri.amap.com/marker?position=119.394479,32.405875&name=%E6%9E%95%E5%B1%B1%E6%A0%96%E8%B0%B7%E5%AE%A0%E7%89%A9%E5%8C%BB%E9%99%A224h%E8%BD%AC%E8%AF%8A%E4%B8%AD%E5%BF%83%C2%B7%E5%BF%83%E8%B6%85%C2%B7%E9%AA%A8%E7%A7%91&src=vetmap&coordinate=gaode&callnative=1"},{"name":"众心宠物医院·心超·24h急诊(山河园店)","address":"邗江北路280号7幢104室","phone":"18652752980","category":"医疗保健服务;动物医疗场所;宠物诊所","area":"","lng":119.394324,"lat":32.405671,"amap_id":"B0M6D6485G","order":8,"prev_distance_km":0.027,"cumulative_distance_km":15.421,"amap_marker_url":"https://uri.amap.com/marker?position=119.394324,32.405671&name=%E4%BC%97%E5%BF%83%E5%AE%A0%E7%89%A9%E5%8C%BB%E9%99%A2%C2%B7%E5%BF%83%E8%B6%85%C2%B724h%E6%80%A5%E8%AF%8A%28%E5%B1%B1%E6%B2%B3%E5%9B%AD%E5%BA%97%29&src=vetmap&coordinate=gaode&callnative=1"},{"name":"同欣宠物诊所(海德庄园店)","address":"邗江北路83号竹园13幢113室","phone":"15161879983","category":"医疗保健服务;动物医疗场所;宠物诊所","area":"","lng":119.395291,"lat":32.404713,"amap_id":"B0J3DULPZT","order":9,"prev_distance_km":0.14,"cumulative_distance_km":15.561,"amap_marker_url":"https://uri.amap.com/marker?position=119.395291,32.404713&name=%E5%90%8C%E6%AC%A3%E5%AE%A0%E7%89%A9%E8%AF%8A%E6%89%80%28%E6%B5%B7%E5%BE%B7%E5%BA%84%E5%9B%AD%E5%BA%97%29&src=vetmap&coordinate=gaode&callnative=1"},{"name":"百偲动物医院","address":"锦绣路与邗江北路辅路交叉口西280米,锦绣路118号","phone":"13705213940;18852570337","category":"医疗保健服务;动物医疗场所;宠物诊所","area":"","lng":119.392368,"lat":32.39938,"amap_id":"B0L2U7F3K0","order":10,"prev_distance_km":0.653,"cumulative_distance_km":16.214,"amap_marker_url":"https://uri.amap.com/marker?position=119.392368,32.399380&name=%E7%99%BE%E5%81%B2%E5%8A%A8%E7%89%A9%E5%8C%BB%E9%99%A2&src=vetmap&coordinate=gaode&callnative=1"},{"name":"牧医宠物医院·翠岗店·猫专科·流浪救助","address":"翠岗路249-2号","phone":"15605259861;18762322027","category":"医疗保健服务;动物医疗场所;宠物诊所","area":"翠岗","lng":119.3883,"lat":32.396157,"amap_id":"B0I03AZDOH","order":11,"prev_distance_km":0.524,"cumulative_distance_km":16.738,"amap_marker_url":"https://uri.amap.com/marker?position=119.388300,32.396157&name=%E7%89%A7%E5%8C%BB%E5%AE%A0%E7%89%A9%E5%8C%BB%E9%99%A2%C2%B7%E7%BF%A0%E5%B2%97%E5%BA%97%C2%B7%E7%8C%AB%E4%B8%93%E7%A7%91%C2%B7%E6%B5%81%E6%B5%AA%E6%95%91%E5%8A%A9&src=vetmap&coordinate=gaode&callnative=1"},{"name":"唯医宠物医院宠福心店·犬猫专科·肿瘤·心脏专科","address":"文昌西路350号(新港名城花园小区沿街商铺)","phone":"13615251005;13626120221","category":"医疗保健服务;动物医疗场所;宠物诊所","area":"翠岗","lng":119.388527,"lat":32.391503,"amap_id":"B0J2OAFQZW","order":12,"prev_distance_km":0.518,"cumulative_distance_km":17.256,"amap_marker_url":"https://uri.amap.com/marker?position=119.388527,32.391503&name=%E5%94%AF%E5%8C%BB%E5%AE%A0%E7%89%A9%E5%8C%BB%E9%99%A2%E5%AE%A0%E7%A6%8F%E5%BF%83%E5%BA%97%C2%B7%E7%8A%AC%E7%8C%AB%E4%B8%93%E7%A7%91%C2%B7%E8%82%BF%E7%98%A4%C2%B7%E5%BF%83%E8%84%8F%E4%B8%93%E7%A7%91&src=vetmap&coordinate=gaode&callnative=1"},{"name":"荣宠宠物医院(望月路)","address":"望月路381号","phone":"17368906381","category":"医疗保健服务;动物医疗场所;宠物诊所","area":"","lng":119.390255,"lat":32.385411,"amap_id":"B0I0RCWPLT","order":13,"prev_distance_km":0.697,"cumulative_distance_km":17.952,"amap_marker_url":"https://uri.amap.com/marker?position=119.390255,32.385411&name=%E8%8D%A3%E5%AE%A0%E5%AE%A0%E7%89%A9%E5%8C%BB%E9%99%A2%28%E6%9C%9B%E6%9C%88%E8%B7%AF%29&src=vetmap&coordinate=gaode&callnative=1"},{"name":"星辰宠物医院","address":"新城西区新盛街道京华城路奥都花城北门东边41栋110号","phone":"0514-82073332;15366427877","category":"医疗保健服务;动物医疗场所;宠物诊所","area":"","lng":119.384209,"lat":32.384246,"amap_id":"B0IA2L9071","order":14,"prev_distance_km":0.582,"cumulative_distance_km":18.535,"amap_marker_url":"https://uri.amap.com/marker?position=119.384209,32.384246&name=%E6%98%9F%E8%BE%B0%E5%AE%A0%E7%89%A9%E5%8C%BB%E9%99%A2&src=vetmap&coordinate=gaode&callnative=1"},{"name":"哆哆宠物医院","address":"新城西区新盛街道京华城路39号","phone":"15380328188","category":"医疗保健服务;动物医疗场所;宠物诊所","area":"","lng":119.382179,"lat":32.384014,"amap_id":"B0FFF1GM7I","order":15,"prev_distance_km":0.192,"cumulative_distance_km":18.727,"amap_marker_url":"https://uri.amap.com/marker?position=119.382179,32.384014&name=%E5%93%86%E5%93%86%E5%AE%A0%E7%89%A9%E5%8C%BB%E9%99%A2&src=vetmap&coordinate=gaode&callnative=1"},{"name":"酷狗动物医院(文汇西路店)","address":"文汇西路390号天和国际南门东150米路北","phone":"13815814577;18061152081","category":"医疗保健服务;动物医疗场所;宠物诊所","area":"文汇西路","lng":119.385739,"lat":32.377456,"amap_id":"B0FFHK2QXD","order":16,"prev_distance_km":0.802,"cumulative_distance_km":19.529,"amap_marker_url":"https://uri.amap.com/marker?position=119.385739,32.377456&name=%E9%85%B7%E7%8B%97%E5%8A%A8%E7%89%A9%E5%8C%BB%E9%99%A2%28%E6%96%87%E6%B1%87%E8%A5%BF%E8%B7%AF%E5%BA%97%29&src=vetmap&coordinate=gaode&callnative=1"},{"name":"珍爱宠物","address":"文汇西路506号","phone":"15852888305","category":"医疗保健服务;动物医疗场所;宠物诊所","area":"文汇西路","lng":119.38335,"lat":32.376858,"amap_id":"B0I13RXQGF","order":17,"prev_distance_km":0.234,"cumulative_distance_km":19.763,"amap_marker_url":"https://uri.amap.com/marker?position=119.383350,32.376858&name=%E7%8F%8D%E7%88%B1%E5%AE%A0%E7%89%A9&src=vetmap&coordinate=gaode&callnative=1"},{"name":"星悦宠物医院","address":"富丽康城东南门西90米","phone":"18061836613","category":"医疗保健服务;动物医疗场所;宠物诊所","area":"文汇西路","lng":119.389922,"lat":32.375466,"amap_id":"B0JA5AH032","order":18,"prev_distance_km":0.636,"cumulative_distance_km":20.399,"amap_marker_url":"https://uri.amap.com/marker?position=119.389922,32.375466&name=%E6%98%9F%E6%82%A6%E5%AE%A0%E7%89%A9%E5%8C%BB%E9%99%A2&src=vetmap&coordinate=gaode&callnative=1"},{"name":"DAMC德它动物医院","address":"邗上街道百祥路59-4号","phone":"18951432252","category":"医疗保健服务;动物医疗场所;宠物诊所","area":"","lng":119.393985,"lat":32.371555,"amap_id":"B0K15C31PY","order":19,"prev_distance_km":0.579,"cumulative_distance_km":20.978,"amap_marker_url":"https://uri.amap.com/marker?position=119.393985,32.371555&name=DAMC%E5%BE%B7%E5%AE%83%E5%8A%A8%E7%89%A9%E5%8C%BB%E9%99%A2&src=vetmap&coordinate=gaode&callnative=1"},{"name":"缘来宠物医生(扬州邗江万达广场店)","address":"万达广场北侧商业街17-133号","phone":"15062844452","category":"医疗保健服务;动物医疗场所;宠物诊所","area":"邗江中路","lng":119.398601,"lat":32.369747,"amap_id":"B0FFK7553F","order":20,"prev_distance_km":0.478,"cumulative_distance_km":21.456,"amap_marker_url":"https://uri.amap.com/marker?position=119.398601,32.369747&name=%E7%BC%98%E6%9D%A5%E5%AE%A0%E7%89%A9%E5%8C%BB%E7%94%9F%28%E6%89%AC%E5%B7%9E%E9%82%97%E6%B1%9F%E4%B8%87%E8%BE%BE%E5%B9%BF%E5%9C%BA%E5%BA%97%29&src=vetmap&coordinate=gaode&callnative=1"},{"name":"喵壹生宠物医院·猫科中心(扬州邗江万达广场店)","address":"邗江中路302号万达广场(扬州邗江店)","phone":"15751680700","category":"医疗保健服务;动物医疗场所;宠物诊所","area":"邗江中路","lng":119.397832,"lat":32.36867,"amap_id":"B0KBO78JLP","order":21,"prev_distance_km":0.14,"cumulative_distance_km":21.596,"amap_marker_url":"https://uri.amap.com/marker?position=119.397832,32.368670&name=%E5%96%B5%E5%A3%B9%E7%94%9F%E5%AE%A0%E7%89%A9%E5%8C%BB%E9%99%A2%C2%B7%E7%8C%AB%E7%A7%91%E4%B8%AD%E5%BF%83%28%E6%89%AC%E5%B7%9E%E9%82%97%E6%B1%9F%E4%B8%87%E8%BE%BE%E5%B9%BF%E5%9C%BA%E5%BA%97%29&src=vetmap&coordinate=gaode&callnative=1"},{"name":"荣宠宠物医院(邗江万达店)","address":"邗江中路302号5-122","phone":"18756087856","category":"医疗保健服务;动物医疗场所;宠物诊所","area":"邗江中路","lng":119.398958,"lat":32.368426,"amap_id":"B0GK07DAGL","order":22,"prev_distance_km":0.109,"cumulative_distance_km":21.705,"amap_marker_url":"https://uri.amap.com/marker?position=119.398958,32.368426&name=%E8%8D%A3%E5%AE%A0%E5%AE%A0%E7%89%A9%E5%8C%BB%E9%99%A2%28%E9%82%97%E6%B1%9F%E4%B8%87%E8%BE%BE%E5%BA%97%29&src=vetmap&coordinate=gaode&callnative=1"},{"name":"扬城宠物医院百祥路店(骨科·心脏科·体外碎石·腔镜微创)","address":"百祥路23号","phone":"0514-82201230;17361941089","category":"医疗保健服务;动物医疗场所;宠物诊所","area":"","lng":119.394835,"lat":32.366877,"amap_id":"B0LU6SMB26","order":23,"prev_distance_km":0.424,"cumulative_distance_km":22.129,"amap_marker_url":"https://uri.amap.com/marker?position=119.394835,32.366877&name=%E6%89%AC%E5%9F%8E%E5%AE%A0%E7%89%A9%E5%8C%BB%E9%99%A2%E7%99%BE%E7%A5%A5%E8%B7%AF%E5%BA%97%28%E9%AA%A8%E7%A7%91%C2%B7%E5%BF%83%E8%84%8F%E7%A7%91%C2%B7%E4%BD%93%E5%A4%96%E7%A2%8E%E7%9F%B3%C2%B7%E8%85%94%E9%95%9C%E5%BE%AE%E5%88%9B%29&src=vetmap&coordinate=gaode&callnative=1"},{"name":"牧医宠物医院·月城店·心脏专科·骨外科","address":"月城科技广场4号楼107室","phone":"15605259861;18762322027","category":"医疗保健服务;动物医疗场所;宠物诊所","area":"","lng":119.394602,"lat":32.364005,"amap_id":"B0IA9MMMGN","order":24,"prev_distance_km":0.32,"cumulative_distance_km":22.449,"amap_marker_url":"https://uri.amap.com/marker?position=119.394602,32.364005&name=%E7%89%A7%E5%8C%BB%E5%AE%A0%E7%89%A9%E5%8C%BB%E9%99%A2%C2%B7%E6%9C%88%E5%9F%8E%E5%BA%97%C2%B7%E5%BF%83%E8%84%8F%E4%B8%93%E7%A7%91%C2%B7%E9%AA%A8%E5%A4%96%E7%A7%91&src=vetmap&coordinate=gaode&callnative=1"},{"name":"恒爱宠物医院","address":"邗江中路138号金域蓝湾公馆38-111","phone":"15252784428;17696719422","category":"医疗保健服务;动物医疗场所;宠物诊所","area":"邗江中路","lng":119.397904,"lat":32.361199,"amap_id":"B0LDRABD8M","order":25,"prev_distance_km":0.44,"cumulative_distance_km":22.889,"amap_marker_url":"https://uri.amap.com/marker?position=119.397904,32.361199&name=%E6%81%92%E7%88%B1%E5%AE%A0%E7%89%A9%E5%8C%BB%E9%99%A2&src=vetmap&coordinate=gaode&callnative=1"},{"name":"扬州宠颐生宠物医院(邗江区万达分院)","address":"江阳中路509号(鸿大花园北门)","phone":"0514-87116696","category":"医疗保健服务;动物医疗场所;宠物诊所","area":"江阳中路","lng":119.403788,"lat":32.368016,"amap_id":"B0H0FSN7T7","order":26,"prev_distance_km":0.938,"cumulative_distance_km":23.827,"amap_marker_url":"https://uri.amap.com/marker?position=119.403788,32.368016&name=%E6%89%AC%E5%B7%9E%E5%AE%A0%E9%A2%90%E7%94%9F%E5%AE%A0%E7%89%A9%E5%8C%BB%E9%99%A2%28%E9%82%97%E6%B1%9F%E5%8C%BA%E4%B8%87%E8%BE%BE%E5%88%86%E9%99%A2%29&src=vetmap&coordinate=gaode&callnative=1"},{"name":"爱康动物医院(西站店)","address":"江阳中路509号(鸿大花园北门)","phone":"0514-87116696;15952797819","category":"医疗保健服务;动物医疗场所;宠物诊所","area":"江阳中路","lng":119.403815,"lat":32.368009,"amap_id":"B0FFGE1MMW","order":27,"prev_distance_km":0.003,"cumulative_distance_km":23.829,"amap_marker_url":"https://uri.amap.com/marker?position=119.403815,32.368009&name=%E7%88%B1%E5%BA%B7%E5%8A%A8%E7%89%A9%E5%8C%BB%E9%99%A2%28%E8%A5%BF%E7%AB%99%E5%BA%97%29&src=vetmap&coordinate=gaode&callnative=1"},{"name":"艾贝尔宠物医院(维扬路分院)","address":"维扬路89号(中集集品嘉园)3-108","phone":"19962512330","category":"医疗保健服务;动物医疗场所;宠物诊所","area":"江阳中路","lng":119.413353,"lat":32.369274,"amap_id":"B0FFJ9X0S3","order":28,"prev_distance_km":0.907,"cumulative_distance_km":24.736,"amap_marker_url":"https://uri.amap.com/marker?position=119.413353,32.369274&name=%E8%89%BE%E8%B4%9D%E5%B0%94%E5%AE%A0%E7%89%A9%E5%8C%BB%E9%99%A2%28%E7%BB%B4%E6%89%AC%E8%B7%AF%E5%88%86%E9%99%A2%29&src=vetmap&coordinate=gaode&callnative=1"},{"name":"扬州市畜牧兽医和水产技术指导站","address":"扬子江中路336号牧业大厦F1层","phone":"0514-80988307","category":"医疗保健服务;动物医疗场所;兽医站","area":"江阳中路","lng":119.416574,"lat":32.374277,"amap_id":"B020201SP7","order":29,"prev_distance_km":0.633,"cumulative_distance_km":25.369,"amap_marker_url":"https://uri.amap.com/marker?position=119.416574,32.374277&name=%E6%89%AC%E5%B7%9E%E5%B8%82%E7%95%9C%E7%89%A7%E5%85%BD%E5%8C%BB%E5%92%8C%E6%B0%B4%E4%BA%A7%E6%8A%80%E6%9C%AF%E6%8C%87%E5%AF%BC%E7%AB%99&src=vetmap&coordinate=gaode&callnative=1"},{"name":"扬子江动物医院(扬子江中路店)","address":"扬子江中路338号","phone":"0514-87885477;4006999175","category":"医疗保健服务;动物医疗场所;宠物诊所","area":"文汇西路","lng":119.416851,"lat":32.374935,"amap_id":"B0FFFDBF0A","order":30,"prev_distance_km":0.078,"cumulative_distance_km":25.447,"amap_marker_url":"https://uri.amap.com/marker?position=119.416851,32.374935&name=%E6%89%AC%E5%AD%90%E6%B1%9F%E5%8A%A8%E7%89%A9%E5%8C%BB%E9%99%A2%28%E6%89%AC%E5%AD%90%E6%B1%9F%E4%B8%AD%E8%B7%AF%E5%BA%97%29&src=vetmap&coordinate=gaode&callnative=1"},{"name":"狂犬疫苗","address":"江阳中路与扬子江中路辅路交叉口北200米","phone":"13328120120","category":"医疗保健服务;动物医疗场所;动物医疗场所","area":"江阳中路","lng":119.417368,"lat":32.374838,"amap_id":"B0JUYRXAWR","order":31,"prev_distance_km":0.05,"cumulative_distance_km":25.497,"amap_marker_url":"https://uri.amap.com/marker?position=119.417368,32.374838&name=%E7%8B%82%E7%8A%AC%E7%96%AB%E8%8B%97&src=vetmap&coordinate=gaode&callnative=1"},{"name":"关爱宠物医疗","address":"扬子江路347号","phone":"18118226379","category":"医疗保健服务;动物医疗场所;宠物诊所","area":"江阳中路","lng":119.417379,"lat":32.374496,"amap_id":"B0FFIW5I51","order":32,"prev_distance_km":0.038,"cumulative_distance_km":25.535,"amap_marker_url":"https://uri.amap.com/marker?position=119.417379,32.374496&name=%E5%85%B3%E7%88%B1%E5%AE%A0%E7%89%A9%E5%8C%BB%E7%96%97&src=vetmap&coordinate=gaode&callnative=1"},{"name":"初心宠物医院(扬子江中路店)","address":"扬子江中路540号","phone":"0514-87119229;19962522278","category":"医疗保健服务;动物医疗场所;宠物诊所","area":"文汇西路","lng":119.416425,"lat":32.381275,"amap_id":"B0L07A0Q3C","order":33,"prev_distance_km":0.759,"cumulative_distance_km":26.294,"amap_marker_url":"https://uri.amap.com/marker?position=119.416425,32.381275&name=%E5%88%9D%E5%BF%83%E5%AE%A0%E7%89%A9%E5%8C%BB%E9%99%A2%28%E6%89%AC%E5%AD%90%E6%B1%9F%E4%B8%AD%E8%B7%AF%E5%BA%97%29&src=vetmap&coordinate=gaode&callnative=1"},{"name":"福贝宠物医院","address":"文汇东路171号","phone":"13390667752;18617581301","category":"医疗保健服务;动物医疗场所;宠物诊所","area":"文汇西路","lng":119.420128,"lat":32.385102,"amap_id":"B0H06DDP3N","order":34,"prev_distance_km":0.55,"cumulative_distance_km":26.843,"amap_marker_url":"https://uri.amap.com/marker?position=119.420128,32.385102&name=%E7%A6%8F%E8%B4%9D%E5%AE%A0%E7%89%A9%E5%8C%BB%E9%99%A2&src=vetmap&coordinate=gaode&callnative=1"},{"name":"扬州大学动物医院","address":"扬州大学(文汇路校区)","phone":"0514-87979036","category":"医疗保健服务;动物医疗场所;宠物诊所","area":"","lng":119.425946,"lat":32.38818,"amap_id":"B0202018CI","order":35,"prev_distance_km":0.645,"cumulative_distance_km":27.488,"amap_marker_url":"https://uri.amap.com/marker?position=119.425946,32.388180&name=%E6%89%AC%E5%B7%9E%E5%A4%A7%E5%AD%A6%E5%8A%A8%E7%89%A9%E5%8C%BB%E9%99%A2&src=vetmap&coordinate=gaode&callnative=1"},{"name":"宠园(砚池锦悦花苑店)","address":"兴城东路6-8号","phone":"0514-82881884","category":"医疗保健服务;动物医疗场所;宠物诊所","area":"文汇西路","lng":119.42615,"lat":32.380415,"amap_id":"B0FFIK9Y0W","order":36,"prev_distance_km":0.864,"cumulative_distance_km":28.352,"amap_marker_url":"https://uri.amap.com/marker?position=119.426150,32.380415&name=%E5%AE%A0%E5%9B%AD%28%E7%A0%9A%E6%B1%A0%E9%94%A6%E6%82%A6%E8%8A%B1%E8%8B%91%E5%BA%97%29&src=vetmap&coordinate=gaode&callnative=1"},{"name":"扬城宠物医院(荷花池店)","address":"兴城东路6-8号","phone":"0514-82881884","category":"医疗保健服务;动物医疗场所;宠物诊所","area":"文汇西路","lng":119.42615,"lat":32.380415,"amap_id":"B0L1Y9F3BS","order":37,"prev_distance_km":0.0,"cumulative_distance_km":28.352,"amap_marker_url":"https://uri.amap.com/marker?position=119.426150,32.380415&name=%E6%89%AC%E5%9F%8E%E5%AE%A0%E7%89%A9%E5%8C%BB%E9%99%A2%28%E8%8D%B7%E8%8A%B1%E6%B1%A0%E5%BA%97%29&src=vetmap&coordinate=gaode&callnative=1"},{"name":"邗江区兽牧兽医站","address":"四望亭路302号","phone":"","category":"医疗保健服务;动物医疗场所;兽医站","area":"","lng":119.419535,"lat":32.397452,"amap_id":"B0FFFON0SZ","order":38,"prev_distance_km":1.994,"cumulative_distance_km":30.345,"amap_marker_url":"https://uri.amap.com/marker?position=119.419535,32.397452&name=%E9%82%97%E6%B1%9F%E5%8C%BA%E5%85%BD%E7%89%A7%E5%85%BD%E5%8C%BB%E7%AB%99&src=vetmap&coordinate=gaode&callnative=1"},{"name":"它安宠物医院(邗江店)","address":"四望亭路399-11号","phone":"18205253370;18248700312","category":"医疗保健服务;动物医疗场所;宠物诊所","area":"","lng":119.40634,"lat":32.396623,"amap_id":"B0KDZ7QJT6","order":39,"prev_distance_km":1.242,"cumulative_distance_km":31.588,"amap_marker_url":"https://uri.amap.com/marker?position=119.406340,32.396623&name=%E5%AE%83%E5%AE%89%E5%AE%A0%E7%89%A9%E5%8C%BB%E9%99%A2%28%E9%82%97%E6%B1%9F%E5%BA%97%29&src=vetmap&coordinate=gaode&callnative=1"},{"name":"宠园宠物医疗宠物美容院(望月店)","address":"望月路98号","phone":"","category":"医疗保健服务;动物医疗场所;宠物诊所","area":"邗江中路","lng":119.400511,"lat":32.387484,"amap_id":"B0KKHA0Y1F","order":40,"prev_distance_km":1.154,"cumulative_distance_km":32.742,"amap_marker_url":"https://uri.amap.com/marker?position=119.400511,32.387484&name=%E5%AE%A0%E5%9B%AD%E5%AE%A0%E7%89%A9%E5%8C%BB%E7%96%97%E5%AE%A0%E7%89%A9%E7%BE%8E%E5%AE%B9%E9%99%A2%28%E6%9C%9B%E6%9C%88%E5%BA%97%29&src=vetmap&coordinate=gaode&callnative=1"},{"name":"七彩精灵宠物医院","address":"邗江中路565号","phone":"18014972755","category":"医疗保健服务;动物医疗场所;宠物诊所","area":"邗江中路","lng":119.398243,"lat":32.386334,"amap_id":"B0I6M1YEJ8","order":41,"prev_distance_km":0.248,"cumulative_distance_km":32.99,"amap_marker_url":"https://uri.amap.com/marker?position=119.398243,32.386334&name=%E4%B8%83%E5%BD%A9%E7%B2%BE%E7%81%B5%E5%AE%A0%E7%89%A9%E5%8C%BB%E9%99%A2&src=vetmap&coordinate=gaode&callnative=1"},{"name":"扬城宠物医院(新城河路店)","address":"新城河路5号防爆支队综合楼","phone":"15305279259","category":"医疗保健服务;动物医疗场所;宠物诊所","area":"邗江中路","lng":119.40358,"lat":32.386256,"amap_id":"B0LDRA47T5","order":42,"prev_distance_km":0.501,"cumulative_distance_km":33.492,"amap_marker_url":"https://uri.amap.com/marker?position=119.403580,32.386256&name=%E6%89%AC%E5%9F%8E%E5%AE%A0%E7%89%A9%E5%8C%BB%E9%99%A2%28%E6%96%B0%E5%9F%8E%E6%B2%B3%E8%B7%AF%E5%BA%97%29&src=vetmap&coordinate=gaode&callnative=1"},{"name":"畜牧兽医和水产技术指导站","address":"现代广场9幢325","phone":"","category":"医疗保健服务;动物医疗场所;兽医站","area":"邗江中路","lng":119.402591,"lat":32.381596,"amap_id":"B0KBT7UT47","order":43,"prev_distance_km":0.526,"cumulative_distance_km":34.018,"amap_marker_url":"https://uri.amap.com/marker?position=119.402591,32.381596&name=%E7%95%9C%E7%89%A7%E5%85%BD%E5%8C%BB%E5%92%8C%E6%B0%B4%E4%BA%A7%E6%8A%80%E6%9C%AF%E6%8C%87%E5%AF%BC%E7%AB%99&src=vetmap&coordinate=gaode&callnative=1"},{"name":"不言宠物医院","address":"维扬路8号雅居乐兰亭公馆东门南侧107-1","phone":"","category":"医疗保健服务;动物医疗场所;宠物诊所","area":"","lng":119.413724,"lat":32.358661,"amap_id":"B0KU1CKO17","order":44,"prev_distance_km":2.756,"cumulative_distance_km":36.774,"amap_marker_url":"https://uri.amap.com/marker?position=119.413724,32.358661&name=%E4%B8%8D%E8%A8%80%E5%AE%A0%E7%89%A9%E5%8C%BB%E9%99%A2&src=vetmap&coordinate=gaode&callnative=1"},{"name":"小暖宠物医院","address":"扬子江南路465号","phone":"18752530995","category":"医疗保健服务;动物医疗场所;宠物诊所","area":"","lng":119.42362,"lat":32.343227,"amap_id":"B0J07C7PF2","order":45,"prev_distance_km":1.952,"cumulative_distance_km":38.726,"amap_marker_url":"https://uri.amap.com/marker?position=119.423620,32.343227&name=%E5%B0%8F%E6%9A%96%E5%AE%A0%E7%89%A9%E5%8C%BB%E9%99%A2&src=vetmap&coordinate=gaode&callnative=1"},{"name":"它一生宠物医院·心脏专科","address":"汊河街道南浦花园北门它一生宠物医院","phone":"0514-87118738;18936497420","category":"医疗保健服务;动物医疗场所;宠物诊所","area":"汇金谷/汊河汇金谷","lng":119.391436,"lat":32.342246,"amap_id":"B0JKB7NP0D","order":46,"prev_distance_km":3.025,"cumulative_distance_km":41.751,"amap_marker_url":"https://uri.amap.com/marker?position=119.391436,32.342246&name=%E5%AE%83%E4%B8%80%E7%94%9F%E5%AE%A0%E7%89%A9%E5%8C%BB%E9%99%A2%C2%B7%E5%BF%83%E8%84%8F%E4%B8%93%E7%A7%91&src=vetmap&coordinate=gaode&callnative=1"},{"name":"嗷呜宠物诊所","address":"汊河银河路9号阳光地带19栋14室","phone":"19975052680","category":"医疗保健服务;动物医疗场所;宠物诊所","area":"汇金谷/汊河汇金谷","lng":119.387136,"lat":32.341873,"amap_id":"B0H05HGIMT","order":47,"prev_distance_km":0.406,"cumulative_distance_km":42.158,"amap_marker_url":"https://uri.amap.com/marker?position=119.387136,32.341873&name=%E5%97%B7%E5%91%9C%E5%AE%A0%E7%89%A9%E8%AF%8A%E6%89%80&src=vetmap&coordinate=gaode&callnative=1"},{"name":"兽医站冻青分点","address":"高旻寺路与润扬南路交叉口东140米","phone":"","category":"医疗保健服务;动物医疗场所;兽医站","area":"","lng":119.397525,"lat":32.324575,"amap_id":"B0I0YCVVOZ","order":48,"prev_distance_km":2.157,"cumulative_distance_km":44.315,"amap_marker_url":"https://uri.amap.com/marker?position=119.397525,32.324575&name=%E5%85%BD%E5%8C%BB%E7%AB%99%E5%86%BB%E9%9D%92%E5%88%86%E7%82%B9&src=vetmap&coordinate=gaode&callnative=1"},{"name":"晨宝宠物","address":"吉祥路中信泰富锦上18栋103","phone":"","category":"医疗保健服务;动物医疗场所;动物医疗场所","area":"","lng":119.369448,"lat":32.362903,"amap_id":"B0L2V57SG9","order":49,"prev_distance_km":5.012,"cumulative_distance_km":49.327,"amap_marker_url":"https://uri.amap.com/marker?position=119.369448,32.362903&name=%E6%99%A8%E5%AE%9D%E5%AE%A0%E7%89%A9&src=vetmap&coordinate=gaode&callnative=1"},{"name":"荣宠宠物医院(蒋王店)","address":"栖祥路93号","phone":"18852512281","category":"医疗保健服务;动物医疗场所;宠物诊所","area":"","lng":119.359084,"lat":32.362217,"amap_id":"B0JRK55UF7","order":50,"prev_distance_km":0.976,"cumulative_distance_km":50.303,"amap_marker_url":"https://uri.amap.com/marker?position=119.359084,32.362217&name=%E8%8D%A3%E5%AE%A0%E5%AE%A0%E7%89%A9%E5%8C%BB%E9%99%A2%28%E8%92%8B%E7%8E%8B%E5%BA%97%29&src=vetmap&coordinate=gaode&callnative=1"},{"name":"蒋王街道畜牧兽医站","address":"文汇西路汇智苑","phone":"","category":"医疗保健服务;动物医疗场所;兽医站","area":"","lng":119.349729,"lat":32.364577,"amap_id":"B0G3UX687B","order":51,"prev_distance_km":0.917,"cumulative_distance_km":51.22,"amap_marker_url":"https://uri.amap.com/marker?position=119.349729,32.364577&name=%E8%92%8B%E7%8E%8B%E8%A1%97%E9%81%93%E7%95%9C%E7%89%A7%E5%85%BD%E5%8C%BB%E7%AB%99&src=vetmap&coordinate=gaode&callnative=1"},{"name":"恒爱宠物医院24h·骨科·外科·心脏","address":"新盛街道京华城路380号","phone":"0514-82775327;18118250773","category":"医疗保健服务;动物医疗场所;宠物诊所","area":"","lng":119.36273,"lat":32.383343,"amap_id":"B0K0U734VK","order":52,"prev_distance_km":2.418,"cumulative_distance_km":53.638,"amap_marker_url":"https://uri.amap.com/marker?position=119.362730,32.383343&name=%E6%81%92%E7%88%B1%E5%AE%A0%E7%89%A9%E5%8C%BB%E9%99%A224h%C2%B7%E9%AA%A8%E7%A7%91%C2%B7%E5%A4%96%E7%A7%91%C2%B7%E5%BF%83%E8%84%8F&src=vetmap&coordinate=gaode&callnative=1"},{"name":"贝诺宠物医院","address":"京华城路356号(万豪西花苑紫荆轩)2-103","phone":"15189870181","category":"医疗保健服务;动物医疗场所;宠物诊所","area":"","lng":119.36352,"lat":32.38329,"amap_id":"B0HB4S91AA","order":53,"prev_distance_km":0.074,"cumulative_distance_km":53.712,"amap_marker_url":"https://uri.amap.com/marker?position=119.363520,32.383290&name=%E8%B4%9D%E8%AF%BA%E5%AE%A0%E7%89%A9%E5%8C%BB%E9%99%A2&src=vetmap&coordinate=gaode&callnative=1"},{"name":"思维特宠物医院","address":"京华城路308号","phone":"0514-82775327;13270555288","category":"医疗保健服务;动物医疗场所;宠物诊所","area":"","lng":119.365864,"lat":32.383505,"amap_id":"B0HDTCK4M6","order":54,"prev_distance_km":0.221,"cumulative_distance_km":53.933,"amap_marker_url":"https://uri.amap.com/marker?position=119.365864,32.383505&name=%E6%80%9D%E7%BB%B4%E7%89%B9%E5%AE%A0%E7%89%A9%E5%8C%BB%E9%99%A2&src=vetmap&coordinate=gaode&callnative=1"},{"name":"世爱宠物医院","address":"京华城路329号","phone":"13338843011;15380391237","category":"医疗保健服务;动物医疗场所;宠物诊所","area":"","lng":119.368125,"lat":32.382989,"amap_id":"B0FFIP17Q7","order":55,"prev_distance_km":0.22,"cumulative_distance_km":54.153,"amap_marker_url":"https://uri.amap.com/marker?position=119.368125,32.382989&name=%E4%B8%96%E7%88%B1%E5%AE%A0%E7%89%A9%E5%8C%BB%E9%99%A2&src=vetmap&coordinate=gaode&callnative=1"},{"name":"荣宠宠物医院(万科店)","address":"扬子江北路699号彩虹汇A栋110-111号","phone":"18652752980","category":"医疗保健服务;动物医疗场所;宠物诊所","area":"","lng":119.407866,"lat":32.420963,"amap_id":"B0I01CWPSD","order":56,"prev_distance_km":5.635,"cumulative_distance_km":59.788,"amap_marker_url":"https://uri.amap.com/marker?position=119.407866,32.420963&name=%E8%8D%A3%E5%AE%A0%E5%AE%A0%E7%89%A9%E5%8C%BB%E9%99%A2%28%E4%B8%87%E7%A7%91%E5%BA%97%29&src=vetmap&coordinate=gaode&callnative=1"},{"name":"瑞丰动物医院(双塘路店)","address":"双塘东路石油山庄南区3-105F号商铺","phone":"","category":"医疗保健服务;动物医疗场所;宠物诊所","area":"","lng":119.405935,"lat":32.436912,"amap_id":"B0JDXSHG1T","order":57,"prev_distance_km":1.783,"cumulative_distance_km":61.571,"amap_marker_url":"https://uri.amap.com/marker?position=119.405935,32.436912&name=%E7%91%9E%E4%B8%B0%E5%8A%A8%E7%89%A9%E5%8C%BB%E9%99%A2%28%E5%8F%8C%E5%A1%98%E8%B7%AF%E5%BA%97%29&src=vetmap&coordinate=gaode&callnative=1"},{"name":"可爱多宠物医院·24小时急诊(双塘路店)","address":"西湖镇双塘东路石油山庄南区商铺3-105F号","phone":"18994889537","category":"医疗保健服务;动物医疗场所;宠物诊所","area":"","lng":119.405978,"lat":32.436943,"amap_id":"B0FFMHH1M4","order":58,"prev_distance_km":0.005,"cumulative_distance_km":61.576,"amap_marker_url":"https://uri.amap.com/marker?position=119.405978,32.436943&name=%E5%8F%AF%E7%88%B1%E5%A4%9A%E5%AE%A0%E7%89%A9%E5%8C%BB%E9%99%A2%C2%B724%E5%B0%8F%E6%97%B6%E6%80%A5%E8%AF%8A%28%E5%8F%8C%E5%A1%98%E8%B7%AF%E5%BA%97%29&src=vetmap&coordinate=gaode&callnative=1"},{"name":"启萌宠物医院","address":"石油山庄南区南门西120米","phone":"","category":"医疗保健服务;动物医疗场所;宠物诊所","area":"","lng":119.405914,"lat":32.436985,"amap_id":"B0KRNBFWD8","order":59,"prev_distance_km":0.008,"cumulative_distance_km":61.584,"amap_marker_url":"https://uri.amap.com/marker?position=119.405914,32.436985&name=%E5%90%AF%E8%90%8C%E5%AE%A0%E7%89%A9%E5%8C%BB%E9%99%A2&src=vetmap&coordinate=gaode&callnative=1"},{"name":"甜宠宠物医院","address":"邗沟路107号","phone":"17605145674","category":"医疗保健服务;动物医疗场所;宠物诊所","area":"","lng":119.444006,"lat":32.423097,"amap_id":"B0KRRCW0T1","order":60,"prev_distance_km":3.894,"cumulative_distance_km":65.478,"amap_marker_url":"https://uri.amap.com/marker?position=119.444006,32.423097&name=%E7%94%9C%E5%AE%A0%E5%AE%A0%E7%89%A9%E5%8C%BB%E9%99%A2&src=vetmap&coordinate=gaode&callnative=1"},{"name":"布拿拿宠物行为调整中心","address":"鸿福三寸1-104","phone":"","category":"医疗保健服务;动物医疗场所;宠物诊所","area":"","lng":119.449043,"lat":32.42564,"amap_id":"B0J3TUJ85Z","order":61,"prev_distance_km":0.551,"cumulative_distance_km":66.029,"amap_marker_url":"https://uri.amap.com/marker?position=119.449043,32.425640&name=%E5%B8%83%E6%8B%BF%E6%8B%BF%E5%AE%A0%E7%89%A9%E8%A1%8C%E4%B8%BA%E8%B0%83%E6%95%B4%E4%B8%AD%E5%BF%83&src=vetmap&coordinate=gaode&callnative=1"},{"name":"霍医生小动物医院(邗江北区分院)","address":"中海嘉境南门东130米","phone":"","category":"医疗保健服务;动物医疗场所;宠物诊所","area":"","lng":119.458125,"lat":32.426875,"amap_id":"B0LUNO3CI0","order":62,"prev_distance_km":0.863,"cumulative_distance_km":66.892,"amap_marker_url":"https://uri.amap.com/marker?position=119.458125,32.426875&name=%E9%9C%8D%E5%8C%BB%E7%94%9F%E5%B0%8F%E5%8A%A8%E7%89%A9%E5%8C%BB%E9%99%A2%28%E9%82%97%E6%B1%9F%E5%8C%97%E5%8C%BA%E5%88%86%E9%99%A2%29&src=vetmap&coordinate=gaode&callnative=1"},{"name":"荣宠宠物医院(吾悦店)","address":"竹西吾悦金街57-201/202","phone":"13092076527","category":"医疗保健服务;动物医疗场所;宠物诊所","area":"","lng":119.460923,"lat":32.418807,"amap_id":"B0FFKPXKGE","order":63,"prev_distance_km":0.935,"cumulative_distance_km":67.827,"amap_marker_url":"https://uri.amap.com/marker?position=119.460923,32.418807&name=%E8%8D%A3%E5%AE%A0%E5%AE%A0%E7%89%A9%E5%8C%BB%E9%99%A2%28%E5%90%BE%E6%82%A6%E5%BA%97%29&src=vetmap&coordinate=gaode&callnative=1"},{"name":"心怡宠物诊所(高桥路店)","address":"高桥路128号2阳光水岸东大门","phone":"","category":"医疗保健服务;动物医疗场所;宠物诊所","area":"梅岭","lng":119.449989,"lat":32.412234,"amap_id":"B0FFFDCPW5","order":64,"prev_distance_km":1.26,"cumulative_distance_km":69.087,"amap_marker_url":"https://uri.amap.com/marker?position=119.449989,32.412234&name=%E5%BF%83%E6%80%A1%E5%AE%A0%E7%89%A9%E8%AF%8A%E6%89%80%28%E9%AB%98%E6%A1%A5%E8%B7%AF%E5%BA%97%29&src=vetmap&coordinate=gaode&callnative=1"},{"name":"海飞宠物诊所","address":"梅岭东路58号-10","phone":"13328126669","category":"医疗保健服务;动物医疗场所;宠物诊所","area":"梅岭","lng":119.449843,"lat":32.407041,"amap_id":"B0FFJGDB3X","order":65,"prev_distance_km":0.578,"cumulative_distance_km":69.665,"amap_marker_url":"https://uri.amap.com/marker?position=119.449843,32.407041&name=%E6%B5%B7%E9%A3%9E%E5%AE%A0%E7%89%A9%E8%AF%8A%E6%89%80&src=vetmap&coordinate=gaode&callnative=1"},{"name":"天使宠物医院(莱茵苑店)","address":"史可法东路93-8号","phone":"0514-87834953;15995131205;17388096207","category":"医疗保健服务;动物医疗场所;宠物诊所","area":"梅岭","lng":119.450376,"lat":32.405387,"amap_id":"B0FFGF3MWZ","order":66,"prev_distance_km":0.191,"cumulative_distance_km":69.855,"amap_marker_url":"https://uri.amap.com/marker?position=119.450376,32.405387&name=%E5%A4%A9%E4%BD%BF%E5%AE%A0%E7%89%A9%E5%8C%BB%E9%99%A2%28%E8%8E%B1%E8%8C%B5%E8%8B%91%E5%BA%97%29&src=vetmap&coordinate=gaode&callnative=1"},{"name":"瑞仁康宠物诊所","address":"江苏省扬州市邗江区高桥路90号","phone":"","category":"医疗保健服务;动物医疗场所;宠物诊所","area":"梅岭","lng":119.450742,"lat":32.405457,"amap_id":"B0JUGP4N6I","order":67,"prev_distance_km":0.035,"cumulative_distance_km":69.891,"amap_marker_url":"https://uri.amap.com/marker?position=119.450742,32.405457&name=%E7%91%9E%E4%BB%81%E5%BA%B7%E5%AE%A0%E7%89%A9%E8%AF%8A%E6%89%80&src=vetmap&coordinate=gaode&callnative=1"},{"name":"心动宠物诊所(玉器街店)","address":"玉器街75号105室","phone":"15952718385","category":"医疗保健服务;动物医疗场所;宠物诊所","area":"梅岭","lng":119.444059,"lat":32.408064,"amap_id":"B0FFFDCX6N","order":68,"prev_distance_km":0.691,"cumulative_distance_km":70.582,"amap_marker_url":"https://uri.amap.com/marker?position=119.444059,32.408064&name=%E5%BF%83%E5%8A%A8%E5%AE%A0%E7%89%A9%E8%AF%8A%E6%89%80%28%E7%8E%89%E5%99%A8%E8%A1%97%E5%BA%97%29&src=vetmap&coordinate=gaode&callnative=1"},{"name":"扬州宠颐生宠物医院(梅岭路分院)","address":"蜀冈瘦西湖风景名胜区梅岭东路8号1幢","phone":"0514-87938829;13773467061","category":"医疗保健服务;动物医疗场所;宠物诊所","area":"梅岭","lng":119.442292,"lat":32.406964,"amap_id":"B0IAF9CNU0","order":69,"prev_distance_km":0.206,"cumulative_distance_km":70.788,"amap_marker_url":"https://uri.amap.com/marker?position=119.442292,32.406964&name=%E6%89%AC%E5%B7%9E%E5%AE%A0%E9%A2%90%E7%94%9F%E5%AE%A0%E7%89%A9%E5%8C%BB%E9%99%A2%28%E6%A2%85%E5%B2%AD%E8%B7%AF%E5%88%86%E9%99%A2%29&src=vetmap&coordinate=gaode&callnative=1"},{"name":"爱兴康动物诊疗","address":"天星花苑北门旁","phone":"","category":"医疗保健服务;动物医疗场所;宠物诊所","area":"梅岭","lng":119.442292,"lat":32.406884,"amap_id":"B0KUARGB78","order":70,"prev_distance_km":0.009,"cumulative_distance_km":70.797,"amap_marker_url":"https://uri.amap.com/marker?position=119.442292,32.406884&name=%E7%88%B1%E5%85%B4%E5%BA%B7%E5%8A%A8%E7%89%A9%E8%AF%8A%E7%96%97&src=vetmap&coordinate=gaode&callnative=1"},{"name":"瑞丰动物医院佳竹分院","address":"扬子佳竹苑东南门旁","phone":"","category":"医疗保健服务;动物医疗场所;宠物诊所","area":"","lng":119.444496,"lat":32.417413,"amap_id":"B0JBBXX5XC","order":71,"prev_distance_km":1.189,"cumulative_distance_km":71.986,"amap_marker_url":"https://uri.amap.com/marker?position=119.444496,32.417413&name=%E7%91%9E%E4%B8%B0%E5%8A%A8%E7%89%A9%E5%8C%BB%E9%99%A2%E4%BD%B3%E7%AB%B9%E5%88%86%E9%99%A2&src=vetmap&coordinate=gaode&callnative=1"},{"name":"槐泗镇兽医服务联系点","address":"扬子北路与学士西路交叉口西北100米","phone":"13852524483;13912120228","category":"医疗保健服务;动物医疗场所;兽医站","area":"","lng":119.443109,"lat":32.453126,"amap_id":"B0FFGZGSTB","order":72,"prev_distance_km":3.973,"cumulative_distance_km":75.959,"amap_marker_url":"https://uri.amap.com/marker?position=119.443109,32.453126&name=%E6%A7%90%E6%B3%97%E9%95%87%E5%85%BD%E5%8C%BB%E6%9C%8D%E5%8A%A1%E8%81%94%E7%B3%BB%E7%82%B9&src=vetmap&coordinate=gaode&callnative=1"},{"name":"邗江区公道镇畜牧兽医站","address":"公道中心卫生院北门东90米","phone":"0514-87391515","category":"医疗保健服务;动物医疗场所;兽医站","area":"","lng":119.352854,"lat":32.583427,"amap_id":"B020201B3C","order":73,"prev_distance_km":16.779,"cumulative_distance_km":92.738,"amap_marker_url":"https://uri.amap.com/marker?position=119.352854,32.583427&name=%E9%82%97%E6%B1%9F%E5%8C%BA%E5%85%AC%E9%81%93%E9%95%87%E7%95%9C%E7%89%A7%E5%85%BD%E5%8C%BB%E7%AB%99&src=vetmap&coordinate=gaode&callnative=1"},{"name":"有一宠(滨江西苑如意园店)","address":"如意园东门商铺3-122","phone":"15335035352;15371256096","category":"医疗保健服务;动物医疗场所;宠物诊所","area":"","lng":119.463054,"lat":32.294805,"amap_id":"B0IAZHSVP2","order":74,"prev_distance_km":33.718,"cumulative_distance_km":126.456,"amap_marker_url":"https://uri.amap.com/marker?position=119.463054,32.294805&name=%E6%9C%89%E4%B8%80%E5%AE%A0%28%E6%BB%A8%E6%B1%9F%E8%A5%BF%E8%8B%91%E5%A6%82%E6%84%8F%E5%9B%AD%E5%BA%97%29&src=vetmap&coordinate=gaode&callnative=1"},{"name":"奇多宠物","address":"西康路与支路一交叉口北60米","phone":"","category":"购物服务;专卖店;宠物用品店|医疗保健服务;动物医疗场所;动物医疗场所","area":"","lng":119.387275,"lat":32.254225,"amap_id":"B0LGCLUV8R","order":75,"prev_distance_km":8.433,"cumulative_distance_km":134.89,"amap_marker_url":"https://uri.amap.com/marker?position=119.387275,32.254225&name=%E5%A5%87%E5%A4%9A%E5%AE%A0%E7%89%A9&src=vetmap&coordinate=gaode&callnative=1"}]}