{"summary":{"id":"d00820","province":"江苏省","city":"扬州市","district":"宝应县","count":15,"route_count":1,"max_route_clinics":15,"total_distance_km":8.869,"coordinate_system":"GCJ-02 / Amap","generated_at":"2026-05-07 21:28:51"},"routes":[{"id":"r1","name":"第1段","count":15,"total_distance_km":8.869,"rows":[{"name":"悦宠宠物医院","address":"吾悦十二星座s8-1-119.120.121.122","phone":"18021742228","category":"医疗保健服务;动物医疗场所;宠物诊所","area":"","lng":119.354398,"lat":33.211766,"amap_id":"B0JAZA00B5","order":1,"prev_distance_km":0.0,"cumulative_distance_km":0.0,"amap_marker_url":"https://uri.amap.com/marker?position=119.354398,33.211766&name=%E6%82%A6%E5%AE%A0%E5%AE%A0%E7%89%A9%E5%8C%BB%E9%99%A2&src=vetmap&coordinate=gaode&callnative=1","route_id":"r1","route_name":"第1段"},{"name":"派多格宠物医院","address":"安宜镇嘉年华城市花园东门","phone":"","category":"医疗保健服务;动物医疗场所;宠物诊所","area":"","lng":119.349641,"lat":33.216047,"amap_id":"B0JKYH6XDX","order":2,"prev_distance_km":0.65,"cumulative_distance_km":0.65,"amap_marker_url":"https://uri.amap.com/marker?position=119.349641,33.216047&name=%E6%B4%BE%E5%A4%9A%E6%A0%BC%E5%AE%A0%E7%89%A9%E5%8C%BB%E9%99%A2&src=vetmap&coordinate=gaode&callnative=1","route_id":"r1","route_name":"第1段"},{"name":"大橘宠物医院","address":"嘉年华城市花园西门东100米","phone":"15052543041","category":"医疗保健服务;动物医疗场所;宠物诊所","area":"","lng":119.348025,"lat":33.216875,"amap_id":"B0LK97BA1Y","order":3,"prev_distance_km":0.176,"cumulative_distance_km":0.826,"amap_marker_url":"https://uri.amap.com/marker?position=119.348025,33.216875&name=%E5%A4%A7%E6%A9%98%E5%AE%A0%E7%89%A9%E5%8C%BB%E9%99%A2&src=vetmap&coordinate=gaode&callnative=1","route_id":"r1","route_name":"第1段"},{"name":"萌宠小筑宠物门诊","address":"白田南路碧桂园内5-107","phone":"15952538457","category":"医疗保健服务;动物医疗场所;宠物诊所","area":"","lng":119.339625,"lat":33.221025,"amap_id":"B0FFL0QSYU","order":4,"prev_distance_km":0.907,"cumulative_distance_km":1.734,"amap_marker_url":"https://uri.amap.com/marker?position=119.339625,33.221025&name=%E8%90%8C%E5%AE%A0%E5%B0%8F%E7%AD%91%E5%AE%A0%E7%89%A9%E9%97%A8%E8%AF%8A&src=vetmap&coordinate=gaode&callnative=1","route_id":"r1","route_name":"第1段"},{"name":"德心宠物诊所","address":"阳光水岸20栋3号门市","phone":"","category":"医疗保健服务;动物医疗场所;宠物诊所","area":"","lng":119.339119,"lat":33.227326,"amap_id":"B0I2JR3503","order":5,"prev_distance_km":0.702,"cumulative_distance_km":2.436,"amap_marker_url":"https://uri.amap.com/marker?position=119.339119,33.227326&name=%E5%BE%B7%E5%BF%83%E5%AE%A0%E7%89%A9%E8%AF%8A%E6%89%80&src=vetmap&coordinate=gaode&callnative=1","route_id":"r1","route_name":"第1段"},{"name":"艾美宠物","address":"南园西路与安宜南路交叉口东80米","phone":"","category":"医疗保健服务;动物医疗场所;宠物诊所|购物服务;专卖店;专营店","area":"","lng":119.316221,"lat":33.224859,"amap_id":"B0L6CRSPYO","order":6,"prev_distance_km":2.147,"cumulative_distance_km":4.583,"amap_marker_url":"https://uri.amap.com/marker?position=119.316221,33.224859&name=%E8%89%BE%E7%BE%8E%E5%AE%A0%E7%89%A9&src=vetmap&coordinate=gaode&callnative=1","route_id":"r1","route_name":"第1段"},{"name":"乐宝宠物会所","address":"南城根路135号","phone":"15161436006;15312809395","category":"医疗保健服务;动物医疗场所;宠物诊所","area":"","lng":119.318732,"lat":33.229907,"amap_id":"B02020J2RV","order":7,"prev_distance_km":0.608,"cumulative_distance_km":5.191,"amap_marker_url":"https://uri.amap.com/marker?position=119.318732,33.229907&name=%E4%B9%90%E5%AE%9D%E5%AE%A0%E7%89%A9%E4%BC%9A%E6%89%80&src=vetmap&coordinate=gaode&callnative=1","route_id":"r1","route_name":"第1段"},{"name":"琪宝宠物诊所","address":"中国石化城南加油站西北侧50米","phone":"","category":"医疗保健服务;动物医疗场所;宠物诊所","area":"","lng":119.318737,"lat":33.229926,"amap_id":"B0J30C0EYO","order":8,"prev_distance_km":0.002,"cumulative_distance_km":5.194,"amap_marker_url":"https://uri.amap.com/marker?position=119.318737,33.229926&name=%E7%90%AA%E5%AE%9D%E5%AE%A0%E7%89%A9%E8%AF%8A%E6%89%80&src=vetmap&coordinate=gaode&callnative=1","route_id":"r1","route_name":"第1段"},{"name":"宠乐美","address":"苏中中路77号","phone":"","category":"医疗保健服务;动物医疗场所;动物医疗场所","area":"","lng":119.321388,"lat":33.232144,"amap_id":"B0L3XS14TN","order":9,"prev_distance_km":0.349,"cumulative_distance_km":5.542,"amap_marker_url":"https://uri.amap.com/marker?position=119.321388,33.232144&name=%E5%AE%A0%E4%B9%90%E7%BE%8E&src=vetmap&coordinate=gaode&callnative=1","route_id":"r1","route_name":"第1段"},{"name":"点点宠物诊所","address":"苏中南路77号锅炉厂8号连家店","phone":"15152712678","category":"医疗保健服务;动物医疗场所;宠物诊所","area":"","lng":119.32139,"lat":33.232729,"amap_id":"B0FFMDWIKB","order":10,"prev_distance_km":0.065,"cumulative_distance_km":5.607,"amap_marker_url":"https://uri.amap.com/marker?position=119.321390,33.232729&name=%E7%82%B9%E7%82%B9%E5%AE%A0%E7%89%A9%E8%AF%8A%E6%89%80&src=vetmap&coordinate=gaode&callnative=1","route_id":"r1","route_name":"第1段"},{"name":"萌奇奇宠物诊所","address":"安宜镇亚细亚广场南花园小区22号门市","phone":"18651051615","category":"医疗保健服务;动物医疗场所;宠物诊所","area":"","lng":119.320321,"lat":33.233556,"amap_id":"B0FFHNE6GA","order":11,"prev_distance_km":0.135,"cumulative_distance_km":5.743,"amap_marker_url":"https://uri.amap.com/marker?position=119.320321,33.233556&name=%E8%90%8C%E5%A5%87%E5%A5%87%E5%AE%A0%E7%89%A9%E8%AF%8A%E6%89%80&src=vetmap&coordinate=gaode&callnative=1","route_id":"r1","route_name":"第1段"},{"name":"宝应县畜牧兽医站","address":"苏中中路583号","phone":"","category":"医疗保健服务;动物医疗场所;兽医站","area":"","lng":119.319822,"lat":33.238339,"amap_id":"B020202040","order":12,"prev_distance_km":0.534,"cumulative_distance_km":6.277,"amap_marker_url":"https://uri.amap.com/marker?position=119.319822,33.238339&name=%E5%AE%9D%E5%BA%94%E5%8E%BF%E7%95%9C%E7%89%A7%E5%85%BD%E5%8C%BB%E7%AB%99&src=vetmap&coordinate=gaode&callnative=1","route_id":"r1","route_name":"第1段"},{"name":"鸿泰宠物医院","address":"白田中路鸿盛新城东门","phone":"17321506683","category":"医疗保健服务;动物医疗场所;宠物诊所","area":"","lng":119.330944,"lat":33.246906,"amap_id":"B0IRZU4SL8","order":13,"prev_distance_km":1.406,"cumulative_distance_km":7.683,"amap_marker_url":"https://uri.amap.com/marker?position=119.330944,33.246906&name=%E9%B8%BF%E6%B3%B0%E5%AE%A0%E7%89%A9%E5%8C%BB%E9%99%A2&src=vetmap&coordinate=gaode&callnative=1","route_id":"r1","route_name":"第1段"},{"name":"鸿泰宠物医院24小时急诊","address":"白田中路与泰山东路交叉口西北120米","phone":"17321506683","category":"医疗保健服务;动物医疗场所;宠物诊所","area":"","lng":119.330914,"lat":33.246909,"amap_id":"B0IB27TNFV","order":14,"prev_distance_km":0.003,"cumulative_distance_km":7.686,"amap_marker_url":"https://uri.amap.com/marker?position=119.330914,33.246909&name=%E9%B8%BF%E6%B3%B0%E5%AE%A0%E7%89%A9%E5%8C%BB%E9%99%A224%E5%B0%8F%E6%97%B6%E6%80%A5%E8%AF%8A&src=vetmap&coordinate=gaode&callnative=1","route_id":"r1","route_name":"第1段"},{"name":"琪宝宠物医院24小时急诊","address":"阳光锦城56-B01","phone":"18796691311","category":"医疗保健服务;动物医疗场所;宠物诊所","area":"","lng":119.323836,"lat":33.255749,"amap_id":"B0GUC575NT","order":15,"prev_distance_km":1.183,"cumulative_distance_km":8.869,"amap_marker_url":"https://uri.amap.com/marker?position=119.323836,33.255749&name=%E7%90%AA%E5%AE%9D%E5%AE%A0%E7%89%A9%E5%8C%BB%E9%99%A224%E5%B0%8F%E6%97%B6%E6%80%A5%E8%AF%8A&src=vetmap&coordinate=gaode&callnative=1","route_id":"r1","route_name":"第1段"}]}],"rows":[{"name":"悦宠宠物医院","address":"吾悦十二星座s8-1-119.120.121.122","phone":"18021742228","category":"医疗保健服务;动物医疗场所;宠物诊所","area":"","lng":119.354398,"lat":33.211766,"amap_id":"B0JAZA00B5","order":1,"prev_distance_km":0.0,"cumulative_distance_km":0.0,"amap_marker_url":"https://uri.amap.com/marker?position=119.354398,33.211766&name=%E6%82%A6%E5%AE%A0%E5%AE%A0%E7%89%A9%E5%8C%BB%E9%99%A2&src=vetmap&coordinate=gaode&callnative=1","route_id":"r1","route_name":"第1段","global_order":1},{"name":"派多格宠物医院","address":"安宜镇嘉年华城市花园东门","phone":"","category":"医疗保健服务;动物医疗场所;宠物诊所","area":"","lng":119.349641,"lat":33.216047,"amap_id":"B0JKYH6XDX","order":2,"prev_distance_km":0.65,"cumulative_distance_km":0.65,"amap_marker_url":"https://uri.amap.com/marker?position=119.349641,33.216047&name=%E6%B4%BE%E5%A4%9A%E6%A0%BC%E5%AE%A0%E7%89%A9%E5%8C%BB%E9%99%A2&src=vetmap&coordinate=gaode&callnative=1","route_id":"r1","route_name":"第1段","global_order":2},{"name":"大橘宠物医院","address":"嘉年华城市花园西门东100米","phone":"15052543041","category":"医疗保健服务;动物医疗场所;宠物诊所","area":"","lng":119.348025,"lat":33.216875,"amap_id":"B0LK97BA1Y","order":3,"prev_distance_km":0.176,"cumulative_distance_km":0.826,"amap_marker_url":"https://uri.amap.com/marker?position=119.348025,33.216875&name=%E5%A4%A7%E6%A9%98%E5%AE%A0%E7%89%A9%E5%8C%BB%E9%99%A2&src=vetmap&coordinate=gaode&callnative=1","route_id":"r1","route_name":"第1段","global_order":3},{"name":"萌宠小筑宠物门诊","address":"白田南路碧桂园内5-107","phone":"15952538457","category":"医疗保健服务;动物医疗场所;宠物诊所","area":"","lng":119.339625,"lat":33.221025,"amap_id":"B0FFL0QSYU","order":4,"prev_distance_km":0.907,"cumulative_distance_km":1.734,"amap_marker_url":"https://uri.amap.com/marker?position=119.339625,33.221025&name=%E8%90%8C%E5%AE%A0%E5%B0%8F%E7%AD%91%E5%AE%A0%E7%89%A9%E9%97%A8%E8%AF%8A&src=vetmap&coordinate=gaode&callnative=1","route_id":"r1","route_name":"第1段","global_order":4},{"name":"德心宠物诊所","address":"阳光水岸20栋3号门市","phone":"","category":"医疗保健服务;动物医疗场所;宠物诊所","area":"","lng":119.339119,"lat":33.227326,"amap_id":"B0I2JR3503","order":5,"prev_distance_km":0.702,"cumulative_distance_km":2.436,"amap_marker_url":"https://uri.amap.com/marker?position=119.339119,33.227326&name=%E5%BE%B7%E5%BF%83%E5%AE%A0%E7%89%A9%E8%AF%8A%E6%89%80&src=vetmap&coordinate=gaode&callnative=1","route_id":"r1","route_name":"第1段","global_order":5},{"name":"艾美宠物","address":"南园西路与安宜南路交叉口东80米","phone":"","category":"医疗保健服务;动物医疗场所;宠物诊所|购物服务;专卖店;专营店","area":"","lng":119.316221,"lat":33.224859,"amap_id":"B0L6CRSPYO","order":6,"prev_distance_km":2.147,"cumulative_distance_km":4.583,"amap_marker_url":"https://uri.amap.com/marker?position=119.316221,33.224859&name=%E8%89%BE%E7%BE%8E%E5%AE%A0%E7%89%A9&src=vetmap&coordinate=gaode&callnative=1","route_id":"r1","route_name":"第1段","global_order":6},{"name":"乐宝宠物会所","address":"南城根路135号","phone":"15161436006;15312809395","category":"医疗保健服务;动物医疗场所;宠物诊所","area":"","lng":119.318732,"lat":33.229907,"amap_id":"B02020J2RV","order":7,"prev_distance_km":0.608,"cumulative_distance_km":5.191,"amap_marker_url":"https://uri.amap.com/marker?position=119.318732,33.229907&name=%E4%B9%90%E5%AE%9D%E5%AE%A0%E7%89%A9%E4%BC%9A%E6%89%80&src=vetmap&coordinate=gaode&callnative=1","route_id":"r1","route_name":"第1段","global_order":7},{"name":"琪宝宠物诊所","address":"中国石化城南加油站西北侧50米","phone":"","category":"医疗保健服务;动物医疗场所;宠物诊所","area":"","lng":119.318737,"lat":33.229926,"amap_id":"B0J30C0EYO","order":8,"prev_distance_km":0.002,"cumulative_distance_km":5.194,"amap_marker_url":"https://uri.amap.com/marker?position=119.318737,33.229926&name=%E7%90%AA%E5%AE%9D%E5%AE%A0%E7%89%A9%E8%AF%8A%E6%89%80&src=vetmap&coordinate=gaode&callnative=1","route_id":"r1","route_name":"第1段","global_order":8},{"name":"宠乐美","address":"苏中中路77号","phone":"","category":"医疗保健服务;动物医疗场所;动物医疗场所","area":"","lng":119.321388,"lat":33.232144,"amap_id":"B0L3XS14TN","order":9,"prev_distance_km":0.349,"cumulative_distance_km":5.542,"amap_marker_url":"https://uri.amap.com/marker?position=119.321388,33.232144&name=%E5%AE%A0%E4%B9%90%E7%BE%8E&src=vetmap&coordinate=gaode&callnative=1","route_id":"r1","route_name":"第1段","global_order":9},{"name":"点点宠物诊所","address":"苏中南路77号锅炉厂8号连家店","phone":"15152712678","category":"医疗保健服务;动物医疗场所;宠物诊所","area":"","lng":119.32139,"lat":33.232729,"amap_id":"B0FFMDWIKB","order":10,"prev_distance_km":0.065,"cumulative_distance_km":5.607,"amap_marker_url":"https://uri.amap.com/marker?position=119.321390,33.232729&name=%E7%82%B9%E7%82%B9%E5%AE%A0%E7%89%A9%E8%AF%8A%E6%89%80&src=vetmap&coordinate=gaode&callnative=1","route_id":"r1","route_name":"第1段","global_order":10},{"name":"萌奇奇宠物诊所","address":"安宜镇亚细亚广场南花园小区22号门市","phone":"18651051615","category":"医疗保健服务;动物医疗场所;宠物诊所","area":"","lng":119.320321,"lat":33.233556,"amap_id":"B0FFHNE6GA","order":11,"prev_distance_km":0.135,"cumulative_distance_km":5.743,"amap_marker_url":"https://uri.amap.com/marker?position=119.320321,33.233556&name=%E8%90%8C%E5%A5%87%E5%A5%87%E5%AE%A0%E7%89%A9%E8%AF%8A%E6%89%80&src=vetmap&coordinate=gaode&callnative=1","route_id":"r1","route_name":"第1段","global_order":11},{"name":"宝应县畜牧兽医站","address":"苏中中路583号","phone":"","category":"医疗保健服务;动物医疗场所;兽医站","area":"","lng":119.319822,"lat":33.238339,"amap_id":"B020202040","order":12,"prev_distance_km":0.534,"cumulative_distance_km":6.277,"amap_marker_url":"https://uri.amap.com/marker?position=119.319822,33.238339&name=%E5%AE%9D%E5%BA%94%E5%8E%BF%E7%95%9C%E7%89%A7%E5%85%BD%E5%8C%BB%E7%AB%99&src=vetmap&coordinate=gaode&callnative=1","route_id":"r1","route_name":"第1段","global_order":12},{"name":"鸿泰宠物医院","address":"白田中路鸿盛新城东门","phone":"17321506683","category":"医疗保健服务;动物医疗场所;宠物诊所","area":"","lng":119.330944,"lat":33.246906,"amap_id":"B0IRZU4SL8","order":13,"prev_distance_km":1.406,"cumulative_distance_km":7.683,"amap_marker_url":"https://uri.amap.com/marker?position=119.330944,33.246906&name=%E9%B8%BF%E6%B3%B0%E5%AE%A0%E7%89%A9%E5%8C%BB%E9%99%A2&src=vetmap&coordinate=gaode&callnative=1","route_id":"r1","route_name":"第1段","global_order":13},{"name":"鸿泰宠物医院24小时急诊","address":"白田中路与泰山东路交叉口西北120米","phone":"17321506683","category":"医疗保健服务;动物医疗场所;宠物诊所","area":"","lng":119.330914,"lat":33.246909,"amap_id":"B0IB27TNFV","order":14,"prev_distance_km":0.003,"cumulative_distance_km":7.686,"amap_marker_url":"https://uri.amap.com/marker?position=119.330914,33.246909&name=%E9%B8%BF%E6%B3%B0%E5%AE%A0%E7%89%A9%E5%8C%BB%E9%99%A224%E5%B0%8F%E6%97%B6%E6%80%A5%E8%AF%8A&src=vetmap&coordinate=gaode&callnative=1","route_id":"r1","route_name":"第1段","global_order":14},{"name":"琪宝宠物医院24小时急诊","address":"阳光锦城56-B01","phone":"18796691311","category":"医疗保健服务;动物医疗场所;宠物诊所","area":"","lng":119.323836,"lat":33.255749,"amap_id":"B0GUC575NT","order":15,"prev_distance_km":1.183,"cumulative_distance_km":8.869,"amap_marker_url":"https://uri.amap.com/marker?position=119.323836,33.255749&name=%E7%90%AA%E5%AE%9D%E5%AE%A0%E7%89%A9%E5%8C%BB%E9%99%A224%E5%B0%8F%E6%97%B6%E6%80%A5%E8%AF%8A&src=vetmap&coordinate=gaode&callnative=1","route_id":"r1","route_name":"第1段","global_order":15}]}