{"summary":{"id":"d00818","province":"江苏省","city":"徐州市","district":"鼓楼区","count":26,"total_distance_km":23.711,"coordinate_system":"GCJ-02 / Amap","generated_at":"2026-05-07 20:22:45"},"rows":[{"name":"新城北宠物门诊","address":"九里街道九里新苑经房五期商业1号楼109","phone":"13775897674","category":"医疗保健服务;动物医疗场所;宠物诊所","area":"","lng":117.1518,"lat":34.323883,"amap_id":"B0I3K5B5UA","order":1,"prev_distance_km":0.0,"cumulative_distance_km":0.0,"amap_marker_url":"https://uri.amap.com/marker?position=117.151800,34.323883&name=%E6%96%B0%E5%9F%8E%E5%8C%97%E5%AE%A0%E7%89%A9%E9%97%A8%E8%AF%8A&src=vetmap&coordinate=gaode&callnative=1"},{"name":"康源宠物医院","address":"丁万河南路九里万科人才公寓店铺46-119号","phone":"18936579573","category":"医疗保健服务;动物医疗场所;宠物诊所","area":"","lng":117.154451,"lat":34.304306,"amap_id":"B0J0UA12ME","order":2,"prev_distance_km":2.19,"cumulative_distance_km":2.19,"amap_marker_url":"https://uri.amap.com/marker?position=117.154451,34.304306&name=%E5%BA%B7%E6%BA%90%E5%AE%A0%E7%89%A9%E5%8C%BB%E9%99%A2&src=vetmap&coordinate=gaode&callnative=1"},{"name":"旺康宠物门诊","address":"恒嘉·郡望花园北区南门旁","phone":"15852004686","category":"医疗保健服务;动物医疗场所;宠物诊所","area":"","lng":117.180738,"lat":34.298771,"amap_id":"B0FFFSZOYX","order":3,"prev_distance_km":2.492,"cumulative_distance_km":4.682,"amap_marker_url":"https://uri.amap.com/marker?position=117.180738,34.298771&name=%E6%97%BA%E5%BA%B7%E5%AE%A0%E7%89%A9%E9%97%A8%E8%AF%8A&src=vetmap&coordinate=gaode&callnative=1"},{"name":"派诺宠物诊所","address":"中山北路和奔腾大道交叉口向西400米锦绣山水南门口1-7门面","phone":"18112209940","category":"医疗保健服务;动物医疗场所;宠物诊所","area":"","lng":117.18649,"lat":34.296975,"amap_id":"B0FFFSTCWA","order":4,"prev_distance_km":0.565,"cumulative_distance_km":5.247,"amap_marker_url":"https://uri.amap.com/marker?position=117.186490,34.296975&name=%E6%B4%BE%E8%AF%BA%E5%AE%A0%E7%89%A9%E8%AF%8A%E6%89%80&src=vetmap&coordinate=gaode&callnative=1"},{"name":"瑞亚宠物医院","address":"祥和路30-9","phone":"18796274789","category":"医疗保健服务;动物医疗场所;宠物诊所","area":"祥和","lng":117.193988,"lat":34.292891,"amap_id":"B0FFKRT09R","order":5,"prev_distance_km":0.825,"cumulative_distance_km":6.072,"amap_marker_url":"https://uri.amap.com/marker?position=117.193988,34.292891&name=%E7%91%9E%E4%BA%9A%E5%AE%A0%E7%89%A9%E5%8C%BB%E9%99%A2&src=vetmap&coordinate=gaode&callnative=1"},{"name":"虎虎宠物医院","address":"华厦水云间2期南门东210米","phone":"18795423217","category":"医疗保健服务;动物医疗场所;宠物诊所","area":"马场湖","lng":117.201427,"lat":34.296306,"amap_id":"B0FFHTR26D","order":6,"prev_distance_km":0.782,"cumulative_distance_km":6.854,"amap_marker_url":"https://uri.amap.com/marker?position=117.201427,34.296306&name=%E8%99%8E%E8%99%8E%E5%AE%A0%E7%89%A9%E5%8C%BB%E9%99%A2&src=vetmap&coordinate=gaode&callnative=1"},{"name":"美康动物医院(棕榈湾店)","address":"棕榈湾小区12号楼1-106商铺","phone":"18606163634","category":"医疗保健服务;动物医疗场所;宠物诊所","area":"马场湖","lng":117.204532,"lat":34.298387,"amap_id":"B0J29R63FE","order":7,"prev_distance_km":0.367,"cumulative_distance_km":7.221,"amap_marker_url":"https://uri.amap.com/marker?position=117.204532,34.298387&name=%E7%BE%8E%E5%BA%B7%E5%8A%A8%E7%89%A9%E5%8C%BB%E9%99%A2%28%E6%A3%95%E6%A6%88%E6%B9%BE%E5%BA%97%29&src=vetmap&coordinate=gaode&callnative=1"},{"name":"宠爱多宠物生活馆(棕榈湾店)","address":"煌庭棕榈湾商业街27-1","phone":"18752154075","category":"医疗保健服务;动物医疗场所;动物医疗场所","area":"马场湖","lng":117.205178,"lat":34.298088,"amap_id":"B0FFJCAI36","order":8,"prev_distance_km":0.068,"cumulative_distance_km":7.289,"amap_marker_url":"https://uri.amap.com/marker?position=117.205178,34.298088&name=%E5%AE%A0%E7%88%B1%E5%A4%9A%E5%AE%A0%E7%89%A9%E7%94%9F%E6%B4%BB%E9%A6%86%28%E6%A3%95%E6%A6%88%E6%B9%BE%E5%BA%97%29&src=vetmap&coordinate=gaode&callnative=1"},{"name":"宠先锋宠物大药房","address":"煌庭棕榈湾西区西南门东70米","phone":"","category":"医疗保健服务;动物医疗场所;宠物诊所","area":"马场湖","lng":117.204463,"lat":34.296066,"amap_id":"B0L30HKOUG","order":9,"prev_distance_km":0.234,"cumulative_distance_km":7.523,"amap_marker_url":"https://uri.amap.com/marker?position=117.204463,34.296066&name=%E5%AE%A0%E5%85%88%E9%94%8B%E5%AE%A0%E7%89%A9%E5%A4%A7%E8%8D%AF%E6%88%BF&src=vetmap&coordinate=gaode&callnative=1"},{"name":"森蓝宠物医院·小动物·中兽医专科","address":"祥和南区1号楼1单元101","phone":"15105204463","category":"医疗保健服务;动物医疗场所;宠物诊所","area":"祥和","lng":117.200679,"lat":34.291089,"amap_id":"B0J0GUIC3B","order":10,"prev_distance_km":0.654,"cumulative_distance_km":8.177,"amap_marker_url":"https://uri.amap.com/marker?position=117.200679,34.291089&name=%E6%A3%AE%E8%93%9D%E5%AE%A0%E7%89%A9%E5%8C%BB%E9%99%A2%C2%B7%E5%B0%8F%E5%8A%A8%E7%89%A9%C2%B7%E4%B8%AD%E5%85%BD%E5%8C%BB%E4%B8%93%E7%A7%91&src=vetmap&coordinate=gaode&callnative=1"},{"name":"安安宠医(春泽园分院)","address":"春泽园A1号1","phone":"18068725958","category":"医疗保健服务;动物医疗场所;宠物诊所","area":"祥和","lng":117.202016,"lat":34.284463,"amap_id":"B0H337WUE8","order":11,"prev_distance_km":0.747,"cumulative_distance_km":8.924,"amap_marker_url":"https://uri.amap.com/marker?position=117.202016,34.284463&name=%E5%AE%89%E5%AE%89%E5%AE%A0%E5%8C%BB%28%E6%98%A5%E6%B3%BD%E5%9B%AD%E5%88%86%E9%99%A2%29&src=vetmap&coordinate=gaode&callnative=1"},{"name":"博爱宠物诊所","address":"复兴北路农工商超市南200米153号","phone":"0516-82390889","category":"医疗保健服务;动物医疗场所;宠物诊所","area":"","lng":117.202599,"lat":34.282077,"amap_id":"B0FFFONUTO","order":12,"prev_distance_km":0.271,"cumulative_distance_km":9.195,"amap_marker_url":"https://uri.amap.com/marker?position=117.202599,34.282077&name=%E5%8D%9A%E7%88%B1%E5%AE%A0%E7%89%A9%E8%AF%8A%E6%89%80&src=vetmap&coordinate=gaode&callnative=1"},{"name":"美康动物医院","address":"二环北路华府天地门面房一号楼2","phone":"0516-83737222;18606163634","category":"医疗保健服务;动物医疗场所;宠物诊所","area":"","lng":117.196394,"lat":34.283674,"amap_id":"B0FFHY6UJA","order":13,"prev_distance_km":0.597,"cumulative_distance_km":9.792,"amap_marker_url":"https://uri.amap.com/marker?position=117.196394,34.283674&name=%E7%BE%8E%E5%BA%B7%E5%8A%A8%E7%89%A9%E5%8C%BB%E9%99%A2&src=vetmap&coordinate=gaode&callnative=1"},{"name":"鼓楼家宝宠物医院","address":"万科北宸天地东门商铺3-1-106号","phone":"15996970598","category":"医疗保健服务;动物医疗场所;宠物诊所","area":"","lng":117.192303,"lat":34.28531,"amap_id":"B0JUVC8FNZ","order":14,"prev_distance_km":0.418,"cumulative_distance_km":10.209,"amap_marker_url":"https://uri.amap.com/marker?position=117.192303,34.285310&name=%E9%BC%93%E6%A5%BC%E5%AE%B6%E5%AE%9D%E5%AE%A0%E7%89%A9%E5%8C%BB%E9%99%A2&src=vetmap&coordinate=gaode&callnative=1"},{"name":"犬心犬意宠物医院(水苑长桥小区店)","address":"二环北路水苑长桥小区A6-104","phone":"15895236393","category":"医疗保健服务;动物医疗场所;宠物诊所","area":"九龙湖","lng":117.189647,"lat":34.284316,"amap_id":"B0KG4SMJ57","order":15,"prev_distance_km":0.268,"cumulative_distance_km":10.477,"amap_marker_url":"https://uri.amap.com/marker?position=117.189647,34.284316&name=%E7%8A%AC%E5%BF%83%E7%8A%AC%E6%84%8F%E5%AE%A0%E7%89%A9%E5%8C%BB%E9%99%A2%28%E6%B0%B4%E8%8B%91%E9%95%BF%E6%A1%A5%E5%B0%8F%E5%8C%BA%E5%BA%97%29&src=vetmap&coordinate=gaode&callnative=1"},{"name":"宠缘宠物诊所(九龙湖西路店)","address":"怡康花园2号1-106","phone":"","category":"医疗保健服务;动物医疗场所;宠物诊所","area":"马场湖","lng":117.18198,"lat":34.287068,"amap_id":"B0FFG997K9","order":16,"prev_distance_km":0.768,"cumulative_distance_km":11.245,"amap_marker_url":"https://uri.amap.com/marker?position=117.181980,34.287068&name=%E5%AE%A0%E7%BC%98%E5%AE%A0%E7%89%A9%E8%AF%8A%E6%89%80%28%E4%B9%9D%E9%BE%99%E6%B9%96%E8%A5%BF%E8%B7%AF%E5%BA%97%29&src=vetmap&coordinate=gaode&callnative=1"},{"name":"久禾宠物医院","address":"合群桥2号-1-103","phone":"15221266795;18252130376","category":"医疗保健服务;动物医疗场所;宠物诊所","area":"","lng":117.16928,"lat":34.274494,"amap_id":"B0K23LTN7I","order":17,"prev_distance_km":1.821,"cumulative_distance_km":13.066,"amap_marker_url":"https://uri.amap.com/marker?position=117.169280,34.274494&name=%E4%B9%85%E7%A6%BE%E5%AE%A0%E7%89%A9%E5%8C%BB%E9%99%A2&src=vetmap&coordinate=gaode&callnative=1"},{"name":"瑞派宠物医院(鼓楼凯旋门店)","address":"铜沛路凯旋门B10-104-105","phone":"0516-87316988","category":"医疗保健服务;动物医疗场所;宠物诊所","area":"","lng":117.183393,"lat":34.273916,"amap_id":"B0FFJI0S52","order":18,"prev_distance_km":1.298,"cumulative_distance_km":14.365,"amap_marker_url":"https://uri.amap.com/marker?position=117.183393,34.273916&name=%E7%91%9E%E6%B4%BE%E5%AE%A0%E7%89%A9%E5%8C%BB%E9%99%A2%28%E9%BC%93%E6%A5%BC%E5%87%AF%E6%97%8B%E9%97%A8%E5%BA%97%29&src=vetmap&coordinate=gaode&callnative=1"},{"name":"徐州牧生动物医院有限公司","address":"铜沛路与兵工路交叉口东140米","phone":"","category":"医疗保健服务;动物医疗场所;宠物诊所","area":"","lng":117.183563,"lat":34.273918,"amap_id":"B0JR2KH6GP","order":19,"prev_distance_km":0.016,"cumulative_distance_km":14.38,"amap_marker_url":"https://uri.amap.com/marker?position=117.183563,34.273918&name=%E5%BE%90%E5%B7%9E%E7%89%A7%E7%94%9F%E5%8A%A8%E7%89%A9%E5%8C%BB%E9%99%A2%E6%9C%89%E9%99%90%E5%85%AC%E5%8F%B8&src=vetmap&coordinate=gaode&callnative=1"},{"name":"悠沫宠物诊所(环城路店)","address":"环城路126号中建大厦斜对面","phone":"","category":"医疗保健服务;动物医疗场所;宠物诊所","area":"","lng":117.186856,"lat":34.276744,"amap_id":"B0FFJOTWKI","order":20,"prev_distance_km":0.436,"cumulative_distance_km":14.817,"amap_marker_url":"https://uri.amap.com/marker?position=117.186856,34.276744&name=%E6%82%A0%E6%B2%AB%E5%AE%A0%E7%89%A9%E8%AF%8A%E6%89%80%28%E7%8E%AF%E5%9F%8E%E8%B7%AF%E5%BA%97%29&src=vetmap&coordinate=gaode&callnative=1"},{"name":"宠立方·关爱宠物医院","address":"环城路龙商天娇商业3号楼102室","phone":"15162282985","category":"医疗保健服务;动物医疗场所;宠物诊所","area":"","lng":117.189629,"lat":34.274246,"amap_id":"B0FFKN0OEH","order":21,"prev_distance_km":0.377,"cumulative_distance_km":15.193,"amap_marker_url":"https://uri.amap.com/marker?position=117.189629,34.274246&name=%E5%AE%A0%E7%AB%8B%E6%96%B9%C2%B7%E5%85%B3%E7%88%B1%E5%AE%A0%E7%89%A9%E5%8C%BB%E9%99%A2&src=vetmap&coordinate=gaode&callnative=1"},{"name":"徐州中牧畜禽门诊部(黄河东路店)","address":"黄河东岸32号楼(民主北路地铁站2号口步行470米)","phone":"0516-83757167","category":"医疗保健服务;动物医疗场所;宠物诊所","area":"","lng":117.197115,"lat":34.26897,"amap_id":"B0FFFA5E1B","order":22,"prev_distance_km":0.904,"cumulative_distance_km":16.098,"amap_marker_url":"https://uri.amap.com/marker?position=117.197115,34.268970&name=%E5%BE%90%E5%B7%9E%E4%B8%AD%E7%89%A7%E7%95%9C%E7%A6%BD%E9%97%A8%E8%AF%8A%E9%83%A8%28%E9%BB%84%E6%B2%B3%E4%B8%9C%E8%B7%AF%E5%BA%97%29&src=vetmap&coordinate=gaode&callnative=1"},{"name":"贝宠爱宠物门诊","address":"下淀路95号路南(下淀地铁站1号口步行390米)","phone":"15952209146","category":"医疗保健服务;动物医疗场所;宠物诊所","area":"下淀","lng":117.220956,"lat":34.284924,"amap_id":"B0FFKZU1RI","order":23,"prev_distance_km":2.819,"cumulative_distance_km":18.916,"amap_marker_url":"https://uri.amap.com/marker?position=117.220956,34.284924&name=%E8%B4%9D%E5%AE%A0%E7%88%B1%E5%AE%A0%E7%89%A9%E9%97%A8%E8%AF%8A&src=vetmap&coordinate=gaode&callnative=1"},{"name":"康宝宠物门诊","address":"下淀路141号(杨庄地铁站1号口步行410米)","phone":"13852000534","category":"医疗保健服务;动物医疗场所;宠物诊所","area":"下淀","lng":117.233839,"lat":34.290622,"amap_id":"B0HKUZPORE","order":24,"prev_distance_km":1.342,"cumulative_distance_km":20.259,"amap_marker_url":"https://uri.amap.com/marker?position=117.233839,34.290622&name=%E5%BA%B7%E5%AE%9D%E5%AE%A0%E7%89%A9%E9%97%A8%E8%AF%8A&src=vetmap&coordinate=gaode&callnative=1"},{"name":"富贵宠物","address":"美的乐城三期23号楼商业-109号","phone":"18606160535","category":"医疗保健服务;动物医疗场所;动物医疗场所","area":"","lng":117.235716,"lat":34.292645,"amap_id":"B0LRZR2BQL","order":25,"prev_distance_km":0.283,"cumulative_distance_km":20.542,"amap_marker_url":"https://uri.amap.com/marker?position=117.235716,34.292645&name=%E5%AF%8C%E8%B4%B5%E5%AE%A0%E7%89%A9&src=vetmap&coordinate=gaode&callnative=1"},{"name":"爱心宠物(秦洪立交)","address":"东三环快速路刘湾机电大市场西区1号楼-138","phone":"17368933110;18205211533","category":"医疗保健服务;动物医疗场所;宠物诊所","area":"","lng":117.241035,"lat":34.320803,"amap_id":"B0FFIWAKOX","order":26,"prev_distance_km":3.169,"cumulative_distance_km":23.711,"amap_marker_url":"https://uri.amap.com/marker?position=117.241035,34.320803&name=%E7%88%B1%E5%BF%83%E5%AE%A0%E7%89%A9%28%E7%A7%A6%E6%B4%AA%E7%AB%8B%E4%BA%A4%29&src=vetmap&coordinate=gaode&callnative=1"}]}