{"summary":{"id":"d00872","province":"江苏省","city":"镇江市","district":"句容市","count":24,"total_distance_km":95.673,"coordinate_system":"GCJ-02 / Amap","generated_at":"2026-05-07 19:57:21"},"rows":[{"name":"悠米动物医院","address":"宝华镇仙林东路十号招商国际E城商业1幢107,108,109号","phone":"","category":"医疗保健服务;动物医疗场所;宠物诊所","area":"","lng":119.022391,"lat":32.121252,"amap_id":"B0L3MRNMZT","order":1,"prev_distance_km":0.0,"cumulative_distance_km":0.0,"amap_marker_url":"https://uri.amap.com/marker?position=119.022391,32.121252&name=%E6%82%A0%E7%B1%B3%E5%8A%A8%E7%89%A9%E5%8C%BB%E9%99%A2&src=vetmap&coordinate=gaode&callnative=1"},{"name":"灵成宠物","address":"牡丹路与宝志路交叉口东200米","phone":"","category":"医疗保健服务;动物医疗场所;宠物诊所","area":"","lng":119.024277,"lat":32.127092,"amap_id":"B0KAG7LCX4","order":2,"prev_distance_km":0.673,"cumulative_distance_km":0.673,"amap_marker_url":"https://uri.amap.com/marker?position=119.024277,32.127092&name=%E7%81%B5%E6%88%90%E5%AE%A0%E7%89%A9&src=vetmap&coordinate=gaode&callnative=1"},{"name":"宠医森动物医院(恒大雅苑店)","address":"宝华镇恒大雅苑西门外铺7-106","phone":"17333138169","category":"医疗保健服务;动物医疗场所;宠物诊所","area":"","lng":119.027894,"lat":32.123386,"amap_id":"B0JD0RUJ61","order":3,"prev_distance_km":0.535,"cumulative_distance_km":1.208,"amap_marker_url":"https://uri.amap.com/marker?position=119.027894,32.123386&name=%E5%AE%A0%E5%8C%BB%E6%A3%AE%E5%8A%A8%E7%89%A9%E5%8C%BB%E9%99%A2%28%E6%81%92%E5%A4%A7%E9%9B%85%E8%8B%91%E5%BA%97%29&src=vetmap&coordinate=gaode&callnative=1"},{"name":"镇江市·医佳宠物医院","address":"宝华大道与牡丹路交叉口南120米","phone":"","category":"医疗保健服务;动物医疗场所;宠物诊所","area":"","lng":119.0383,"lat":32.128365,"amap_id":"B0J31LN61O","order":4,"prev_distance_km":1.126,"cumulative_distance_km":2.333,"amap_marker_url":"https://uri.amap.com/marker?position=119.038300,32.128365&name=%E9%95%87%E6%B1%9F%E5%B8%82%C2%B7%E5%8C%BB%E4%BD%B3%E5%AE%A0%E7%89%A9%E5%8C%BB%E9%99%A2&src=vetmap&coordinate=gaode&callnative=1"},{"name":"医佳宠物医院24小时急诊","address":"宝华镇仙林东路58号京东花园1栋111号","phone":"13921552523","category":"医疗保健服务;动物医疗场所;宠物诊所","area":"","lng":119.038295,"lat":32.12843,"amap_id":"B0JRADGGE1","order":5,"prev_distance_km":0.007,"cumulative_distance_km":2.341,"amap_marker_url":"https://uri.amap.com/marker?position=119.038295,32.128430&name=%E5%8C%BB%E4%BD%B3%E5%AE%A0%E7%89%A9%E5%8C%BB%E9%99%A224%E5%B0%8F%E6%97%B6%E6%80%A5%E8%AF%8A&src=vetmap&coordinate=gaode&callnative=1"},{"name":"友家宠物医院","address":"仙林东路88号朗诗万都玲珑樾商铺4-112","phone":"13851823869","category":"医疗保健服务;动物医疗场所;宠物诊所","area":"","lng":119.048164,"lat":32.129143,"amap_id":"B0FFLMPU6L","order":6,"prev_distance_km":0.933,"cumulative_distance_km":3.273,"amap_marker_url":"https://uri.amap.com/marker?position=119.048164,32.129143&name=%E5%8F%8B%E5%AE%B6%E5%AE%A0%E7%89%A9%E5%8C%BB%E9%99%A2&src=vetmap&coordinate=gaode&callnative=1"},{"name":"城胜畜禽技术服务部","address":"053乡道与004乡道交叉口西北60米","phone":"","category":"医疗保健服务;动物医疗场所;兽医站","area":"","lng":119.182305,"lat":32.047663,"amap_id":"B0G066KAUH","order":7,"prev_distance_km":15.549,"cumulative_distance_km":18.823,"amap_marker_url":"https://uri.amap.com/marker?position=119.182305,32.047663&name=%E5%9F%8E%E8%83%9C%E7%95%9C%E7%A6%BD%E6%8A%80%E6%9C%AF%E6%9C%8D%E5%8A%A1%E9%83%A8&src=vetmap&coordinate=gaode&callnative=1"},{"name":"佳禾动物医院(凤凰城店)","address":"碧桂园凤凰城柏丽湾A18湾F101-2","phone":"18118956601","category":"医疗保健服务;动物医疗场所;宠物诊所","area":"","lng":119.118075,"lat":32.012725,"amap_id":"B0KBJUBLZW","order":8,"prev_distance_km":7.194,"cumulative_distance_km":26.017,"amap_marker_url":"https://uri.amap.com/marker?position=119.118075,32.012725&name=%E4%BD%B3%E7%A6%BE%E5%8A%A8%E7%89%A9%E5%8C%BB%E9%99%A2%28%E5%87%A4%E5%87%B0%E5%9F%8E%E5%BA%97%29&src=vetmap&coordinate=gaode&callnative=1"},{"name":"小不点动物医院","address":"凤凰大道2号","phone":"17512535312","category":"医疗保健服务;动物医疗场所;宠物诊所","area":"","lng":119.114948,"lat":32.010494,"amap_id":"B0IKXARNXA","order":9,"prev_distance_km":0.385,"cumulative_distance_km":26.402,"amap_marker_url":"https://uri.amap.com/marker?position=119.114948,32.010494&name=%E5%B0%8F%E4%B8%8D%E7%82%B9%E5%8A%A8%E7%89%A9%E5%8C%BB%E9%99%A2&src=vetmap&coordinate=gaode&callnative=1"},{"name":"瑞派宠物医院(江苏农林教学动物医院)","address":"江苏农林职业技术学院北院4号门旁","phone":"0511-87906096","category":"医疗保健服务;动物医疗场所;兽医站","area":"","lng":119.169702,"lat":31.963506,"amap_id":"B0J30HAH9I","order":10,"prev_distance_km":7.346,"cumulative_distance_km":33.748,"amap_marker_url":"https://uri.amap.com/marker?position=119.169702,31.963506&name=%E7%91%9E%E6%B4%BE%E5%AE%A0%E7%89%A9%E5%8C%BB%E9%99%A2%28%E6%B1%9F%E8%8B%8F%E5%86%9C%E6%9E%97%E6%95%99%E5%AD%A6%E5%8A%A8%E7%89%A9%E5%8C%BB%E9%99%A2%29&src=vetmap&coordinate=gaode&callnative=1"},{"name":"句容农校兽医院","address":"句卓路3号","phone":"","category":"医疗保健服务;动物医疗场所;兽医站","area":"","lng":119.169758,"lat":31.96339,"amap_id":"B0FFFRYG9J","order":11,"prev_distance_km":0.014,"cumulative_distance_km":33.762,"amap_marker_url":"https://uri.amap.com/marker?position=119.169758,31.963390&name=%E5%8F%A5%E5%AE%B9%E5%86%9C%E6%A0%A1%E5%85%BD%E5%8C%BB%E9%99%A2&src=vetmap&coordinate=gaode&callnative=1"},{"name":"皮皮虾宠物医院","address":"千禧小区9-16号","phone":"0511-87300332;18020481170","category":"医疗保健服务;动物医疗场所;宠物诊所","area":"","lng":119.164403,"lat":31.960082,"amap_id":"B0FFJAXN2W","order":12,"prev_distance_km":0.625,"cumulative_distance_km":34.387,"amap_marker_url":"https://uri.amap.com/marker?position=119.164403,31.960082&name=%E7%9A%AE%E7%9A%AE%E8%99%BE%E5%AE%A0%E7%89%A9%E5%8C%BB%E9%99%A2&src=vetmap&coordinate=gaode&callnative=1"},{"name":"乐康宠物医院(句容店)","address":"崇明西路与和爱路交叉口东南80米","phone":"","category":"医疗保健服务;动物医疗场所;宠物诊所","area":"","lng":119.14811,"lat":31.95205,"amap_id":"B0I2LAZH3W","order":13,"prev_distance_km":1.778,"cumulative_distance_km":36.165,"amap_marker_url":"https://uri.amap.com/marker?position=119.148110,31.952050&name=%E4%B9%90%E5%BA%B7%E5%AE%A0%E7%89%A9%E5%8C%BB%E9%99%A2%28%E5%8F%A5%E5%AE%B9%E5%BA%97%29&src=vetmap&coordinate=gaode&callnative=1"},{"name":"佳禾宠物医院·犬猫全科·消化内科(城西枫景苑店)","address":"黄梅镇世茂路城西枫景苑2栋16-18门市房","phone":"","category":"医疗保健服务;动物医疗场所;宠物诊所","area":"","lng":119.14789,"lat":31.948022,"amap_id":"B0L0THB08I","order":14,"prev_distance_km":0.448,"cumulative_distance_km":36.613,"amap_marker_url":"https://uri.amap.com/marker?position=119.147890,31.948022&name=%E4%BD%B3%E7%A6%BE%E5%AE%A0%E7%89%A9%E5%8C%BB%E9%99%A2%C2%B7%E7%8A%AC%E7%8C%AB%E5%85%A8%E7%A7%91%C2%B7%E6%B6%88%E5%8C%96%E5%86%85%E7%A7%91%28%E5%9F%8E%E8%A5%BF%E6%9E%AB%E6%99%AF%E8%8B%91%E5%BA%97%29&src=vetmap&coordinate=gaode&callnative=1"},{"name":"佳禾动物医院","address":"华阳南路10-11号","phone":"0511-87777120;17768653399","category":"医疗保健服务;动物医疗场所;宠物诊所","area":"","lng":119.166488,"lat":31.942486,"amap_id":"B0I179VR8Y","order":15,"prev_distance_km":1.86,"cumulative_distance_km":38.473,"amap_marker_url":"https://uri.amap.com/marker?position=119.166488,31.942486&name=%E4%BD%B3%E7%A6%BE%E5%8A%A8%E7%89%A9%E5%8C%BB%E9%99%A2&src=vetmap&coordinate=gaode&callnative=1"},{"name":"恒爱宠物医院(句容店)","address":"宁杭北路317号","phone":"","category":"医疗保健服务;动物医疗场所;宠物诊所","area":"","lng":119.173268,"lat":31.949269,"amap_id":"B0I2R5R7N9","order":16,"prev_distance_km":0.989,"cumulative_distance_km":39.462,"amap_marker_url":"https://uri.amap.com/marker?position=119.173268,31.949269&name=%E6%81%92%E7%88%B1%E5%AE%A0%E7%89%A9%E5%8C%BB%E9%99%A2%28%E5%8F%A5%E5%AE%B9%E5%BA%97%29&src=vetmap&coordinate=gaode&callnative=1"},{"name":"法唯特宠物医院(哈佛星城店)","address":"东昌东路12-8","phone":"15952976510","category":"医疗保健服务;动物医疗场所;宠物诊所","area":"","lng":119.181791,"lat":31.953725,"amap_id":"B0I2KHFU45","order":17,"prev_distance_km":0.945,"cumulative_distance_km":40.406,"amap_marker_url":"https://uri.amap.com/marker?position=119.181791,31.953725&name=%E6%B3%95%E5%94%AF%E7%89%B9%E5%AE%A0%E7%89%A9%E5%8C%BB%E9%99%A2%28%E5%93%88%E4%BD%9B%E6%98%9F%E5%9F%8E%E5%BA%97%29&src=vetmap&coordinate=gaode&callnative=1"},{"name":"莱斯宠物医院","address":"肖杆路香溪湾s5-106室","phone":"18115582686","category":"医疗保健服务;动物医疗场所;宠物诊所","area":"","lng":119.191191,"lat":31.951088,"amap_id":"B0JGO6RW73","order":18,"prev_distance_km":0.934,"cumulative_distance_km":41.34,"amap_marker_url":"https://uri.amap.com/marker?position=119.191191,31.951088&name=%E8%8E%B1%E6%96%AF%E5%AE%A0%E7%89%A9%E5%8C%BB%E9%99%A2&src=vetmap&coordinate=gaode&callnative=1"},{"name":"佳禾宠物医院(东方华城店)","address":"华阳镇东方华城东昌中路2-3","phone":"18061190033","category":"医疗保健服务;动物医疗场所;宠物诊所","area":"","lng":119.183702,"lat":31.943911,"amap_id":"B0JRMHLINM","order":19,"prev_distance_km":1.066,"cumulative_distance_km":42.406,"amap_marker_url":"https://uri.amap.com/marker?position=119.183702,31.943911&name=%E4%BD%B3%E7%A6%BE%E5%AE%A0%E7%89%A9%E5%8C%BB%E9%99%A2%28%E4%B8%9C%E6%96%B9%E5%8D%8E%E5%9F%8E%E5%BA%97%29&src=vetmap&coordinate=gaode&callnative=1"},{"name":"句容市华阳畜牧兽医站","address":"河东路东北40米","phone":"","category":"医疗保健服务;动物医疗场所;兽医站","area":"","lng":119.181273,"lat":31.940003,"amap_id":"B0H64ZGW9D","order":20,"prev_distance_km":0.491,"cumulative_distance_km":42.898,"amap_marker_url":"https://uri.amap.com/marker?position=119.181273,31.940003&name=%E5%8F%A5%E5%AE%B9%E5%B8%82%E5%8D%8E%E9%98%B3%E7%95%9C%E7%89%A7%E5%85%BD%E5%8C%BB%E7%AB%99&src=vetmap&coordinate=gaode&callnative=1"},{"name":"茅山镇动物防疫","address":"001乡道与015乡道交叉口南140米","phone":"13815163718","category":"医疗保健服务;动物医疗场所;动物医疗场所","area":"","lng":119.282163,"lat":31.905112,"amap_id":"B0FFHXF13Y","order":21,"prev_distance_km":10.282,"cumulative_distance_km":53.179,"amap_marker_url":"https://uri.amap.com/marker?position=119.282163,31.905112&name=%E8%8C%85%E5%B1%B1%E9%95%87%E5%8A%A8%E7%89%A9%E9%98%B2%E7%96%AB&src=vetmap&coordinate=gaode&callnative=1"},{"name":"句容市赤山湖渔病防治医院","address":"201县道附近","phone":"","category":"医疗保健服务;动物医疗场所;兽医站","area":"","lng":119.09616,"lat":31.859933,"amap_id":"B0FFJSOQI6","order":22,"prev_distance_km":18.267,"cumulative_distance_km":71.446,"amap_marker_url":"https://uri.amap.com/marker?position=119.096160,31.859933&name=%E5%8F%A5%E5%AE%B9%E5%B8%82%E8%B5%A4%E5%B1%B1%E6%B9%96%E6%B8%94%E7%97%85%E9%98%B2%E6%B2%BB%E5%8C%BB%E9%99%A2&src=vetmap&coordinate=gaode&callnative=1"},{"name":"句容市郭庄畜牧兽医站","address":"郭庄健身广场斜对面","phone":"","category":"医疗保健服务;动物医疗场所;兽医站","area":"","lng":119.045561,"lat":31.806806,"amap_id":"B01FF026DM","order":23,"prev_distance_km":7.599,"cumulative_distance_km":79.045,"amap_marker_url":"https://uri.amap.com/marker?position=119.045561,31.806806&name=%E5%8F%A5%E5%AE%B9%E5%B8%82%E9%83%AD%E5%BA%84%E7%95%9C%E7%89%A7%E5%85%BD%E5%8C%BB%E7%AB%99&src=vetmap&coordinate=gaode&callnative=1"},{"name":"句容市畜牧兽医站天王中心站","address":"Z03县道与天鹅路交叉口南220米","phone":"","category":"医疗保健服务;动物医疗场所;兽医站","area":"","lng":119.206721,"lat":31.746882,"amap_id":"B0HDDCC0L4","order":24,"prev_distance_km":16.628,"cumulative_distance_km":95.673,"amap_marker_url":"https://uri.amap.com/marker?position=119.206721,31.746882&name=%E5%8F%A5%E5%AE%B9%E5%B8%82%E7%95%9C%E7%89%A7%E5%85%BD%E5%8C%BB%E7%AB%99%E5%A4%A9%E7%8E%8B%E4%B8%AD%E5%BF%83%E7%AB%99&src=vetmap&coordinate=gaode&callnative=1"}]}