{"summary":{"id":"d00836","province":"江苏省","city":"泰州市","district":"靖江市","count":27,"route_count":1,"max_route_clinics":27,"total_distance_km":57.238,"coordinate_system":"GCJ-02 / Amap","generated_at":"2026-05-08 19:45:57"},"routes":[{"id":"r1","name":"第1段","count":27,"total_distance_km":57.238,"rows":[{"name":"靖江鉴源宠物诊所","address":"新桥润新路御景华庭76号","phone":"15061029995","category":"医疗保健服务;动物医疗场所;宠物诊所","area":"","lng":120.070993,"lat":31.998894,"amap_id":"B0J1ORI9PR","order":1,"prev_distance_km":0.0,"cumulative_distance_km":0.0,"amap_marker_url":"https://uri.amap.com/marker?position=120.070993,31.998894&name=%E9%9D%96%E6%B1%9F%E9%89%B4%E6%BA%90%E5%AE%A0%E7%89%A9%E8%AF%8A%E6%89%80&src=vetmap&coordinate=gaode&callnative=1","route_id":"r1","route_name":"第1段"},{"name":"宠翻天宠物诊所","address":"府前街与环镇北路交叉口南80米","phone":"","category":"医疗保健服务;动物医疗场所;宠物诊所","area":"","lng":120.074325,"lat":32.002275,"amap_id":"B0M61AFXZD","order":2,"prev_distance_km":0.49,"cumulative_distance_km":0.49,"amap_marker_url":"https://uri.amap.com/marker?position=120.074325,32.002275&name=%E5%AE%A0%E7%BF%BB%E5%A4%A9%E5%AE%A0%E7%89%A9%E8%AF%8A%E6%89%80&src=vetmap&coordinate=gaode&callnative=1","route_id":"r1","route_name":"第1段"},{"name":"靖江市新桥畜牧兽医站","address":"新桥中路61号","phone":"18652695268","category":"医疗保健服务;动物医疗场所;兽医站","area":"","lng":120.076675,"lat":32.001316,"amap_id":"B0FFG0GDGI","order":3,"prev_distance_km":0.246,"cumulative_distance_km":0.736,"amap_marker_url":"https://uri.amap.com/marker?position=120.076675,32.001316&name=%E9%9D%96%E6%B1%9F%E5%B8%82%E6%96%B0%E6%A1%A5%E7%95%9C%E7%89%A7%E5%85%BD%E5%8C%BB%E7%AB%99&src=vetmap&coordinate=gaode&callnative=1","route_id":"r1","route_name":"第1段"},{"name":"壹家宠物门诊(公新公路店)","address":"公新公路与新亚北路交叉口西240米","phone":"18652695268","category":"医疗保健服务;动物医疗场所;宠物诊所","area":"","lng":120.078734,"lat":32.001337,"amap_id":"B0G04B6ANT","order":4,"prev_distance_km":0.194,"cumulative_distance_km":0.93,"amap_marker_url":"https://uri.amap.com/marker?position=120.078734,32.001337&name=%E5%A3%B9%E5%AE%B6%E5%AE%A0%E7%89%A9%E9%97%A8%E8%AF%8A%28%E5%85%AC%E6%96%B0%E5%85%AC%E8%B7%AF%E5%BA%97%29&src=vetmap&coordinate=gaode&callnative=1","route_id":"r1","route_name":"第1段"},{"name":"靖江市东兴畜牧兽医站","address":"东兴南路28号","phone":"","category":"医疗保健服务;动物医疗场所;兽医站","area":"","lng":120.170451,"lat":31.983903,"amap_id":"B0JKHAA3A8","order":5,"prev_distance_km":8.864,"cumulative_distance_km":9.794,"amap_marker_url":"https://uri.amap.com/marker?position=120.170451,31.983903&name=%E9%9D%96%E6%B1%9F%E5%B8%82%E4%B8%9C%E5%85%B4%E7%95%9C%E7%89%A7%E5%85%BD%E5%8C%BB%E7%AB%99&src=vetmap&coordinate=gaode&callnative=1","route_id":"r1","route_name":"第1段"},{"name":"靖江市马桥畜牧兽医站","address":"马桥镇江平路","phone":"0523-84580119","category":"医疗保健服务;动物医疗场所;兽医站","area":"","lng":120.210022,"lat":32.036208,"amap_id":"B020B0OG8K","order":6,"prev_distance_km":6.91,"cumulative_distance_km":16.704,"amap_marker_url":"https://uri.amap.com/marker?position=120.210022,32.036208&name=%E9%9D%96%E6%B1%9F%E5%B8%82%E9%A9%AC%E6%A1%A5%E7%95%9C%E7%89%A7%E5%85%BD%E5%8C%BB%E7%AB%99&src=vetmap&coordinate=gaode&callnative=1","route_id":"r1","route_name":"第1段"},{"name":"七月小先生宠物诊所","address":"车站路新景园9幢16号","phone":"19975159004","category":"医疗保健服务;动物医疗场所;宠物诊所","area":"工农路","lng":120.259964,"lat":32.004585,"amap_id":"B0I2VC422H","order":7,"prev_distance_km":5.877,"cumulative_distance_km":22.581,"amap_marker_url":"https://uri.amap.com/marker?position=120.259964,32.004585&name=%E4%B8%83%E6%9C%88%E5%B0%8F%E5%85%88%E7%94%9F%E5%AE%A0%E7%89%A9%E8%AF%8A%E6%89%80&src=vetmap&coordinate=gaode&callnative=1","route_id":"r1","route_name":"第1段"},{"name":"靖江瑞霖宠物医院","address":"人民中路133号","phone":"13814464424","category":"医疗保健服务;动物医疗场所;宠物诊所","area":"工农路","lng":120.26448,"lat":32.002351,"amap_id":"B0LUN56FNT","order":8,"prev_distance_km":0.493,"cumulative_distance_km":23.074,"amap_marker_url":"https://uri.amap.com/marker?position=120.264480,32.002351&name=%E9%9D%96%E6%B1%9F%E7%91%9E%E9%9C%96%E5%AE%A0%E7%89%A9%E5%8C%BB%E9%99%A2&src=vetmap&coordinate=gaode&callnative=1","route_id":"r1","route_name":"第1段"},{"name":"凯利蓝宠物医院","address":"合兴路华侨新村25幢106号","phone":"13852637119","category":"医疗保健服务;动物医疗场所;宠物诊所","area":"","lng":120.260979,"lat":31.999558,"amap_id":"B0JAAHI6UN","order":9,"prev_distance_km":0.453,"cumulative_distance_km":23.527,"amap_marker_url":"https://uri.amap.com/marker?position=120.260979,31.999558&name=%E5%87%AF%E5%88%A9%E8%93%9D%E5%AE%A0%E7%89%A9%E5%8C%BB%E9%99%A2&src=vetmap&coordinate=gaode&callnative=1","route_id":"r1","route_name":"第1段"},{"name":"嘉禾宠物医院(中洲路店)","address":"中洲路18号","phone":"0523-84868639;13775717705","category":"医疗保健服务;动物医疗场所;宠物诊所","area":"","lng":120.25839,"lat":31.996177,"amap_id":"B020B023A7","order":10,"prev_distance_km":0.448,"cumulative_distance_km":23.975,"amap_marker_url":"https://uri.amap.com/marker?position=120.258390,31.996177&name=%E5%98%89%E7%A6%BE%E5%AE%A0%E7%89%A9%E5%8C%BB%E9%99%A2%28%E4%B8%AD%E6%B4%B2%E8%B7%AF%E5%BA%97%29&src=vetmap&coordinate=gaode&callnative=1","route_id":"r1","route_name":"第1段"},{"name":"普爱宠物诊疗中心","address":"江洲路28号","phone":"15152660607;15371560776","category":"医疗保健服务;动物医疗场所;宠物诊所","area":"","lng":120.258016,"lat":31.991644,"amap_id":"B0H6OZRLB5","order":11,"prev_distance_km":0.505,"cumulative_distance_km":24.48,"amap_marker_url":"https://uri.amap.com/marker?position=120.258016,31.991644&name=%E6%99%AE%E7%88%B1%E5%AE%A0%E7%89%A9%E8%AF%8A%E7%96%97%E4%B8%AD%E5%BF%83&src=vetmap&coordinate=gaode&callnative=1","route_id":"r1","route_name":"第1段"},{"name":"小新宠物诊所","address":"滨江新城御水湾花园云顶3号楼102","phone":"13815988332","category":"医疗保健服务;动物医疗场所;宠物诊所","area":"","lng":120.271469,"lat":31.986499,"amap_id":"B0L2AC1TRU","order":12,"prev_distance_km":1.392,"cumulative_distance_km":25.872,"amap_marker_url":"https://uri.amap.com/marker?position=120.271469,31.986499&name=%E5%B0%8F%E6%96%B0%E5%AE%A0%E7%89%A9%E8%AF%8A%E6%89%80&src=vetmap&coordinate=gaode&callnative=1","route_id":"r1","route_name":"第1段"},{"name":"派瑞宠物诊所(南环花苑店)","address":"南环花苑晨阳路1-54号","phone":"15152668559","category":"医疗保健服务;动物医疗场所;宠物诊所","area":"","lng":120.279912,"lat":31.995076,"amap_id":"B020B0PKJ1","order":13,"prev_distance_km":1.242,"cumulative_distance_km":27.115,"amap_marker_url":"https://uri.amap.com/marker?position=120.279912,31.995076&name=%E6%B4%BE%E7%91%9E%E5%AE%A0%E7%89%A9%E8%AF%8A%E6%89%80%28%E5%8D%97%E7%8E%AF%E8%8A%B1%E8%8B%91%E5%BA%97%29&src=vetmap&coordinate=gaode&callnative=1","route_id":"r1","route_name":"第1段"},{"name":"康诺宠物诊所","address":"桃园路与江平路交叉口北160米","phone":"17552313140","category":"医疗保健服务;动物医疗场所;宠物诊所","area":"","lng":120.28262,"lat":32.014835,"amap_id":"B0HDS57JXV","order":14,"prev_distance_km":2.212,"cumulative_distance_km":29.327,"amap_marker_url":"https://uri.amap.com/marker?position=120.282620,32.014835&name=%E5%BA%B7%E8%AF%BA%E5%AE%A0%E7%89%A9%E8%AF%8A%E6%89%80&src=vetmap&coordinate=gaode&callnative=1","route_id":"r1","route_name":"第1段"},{"name":"伴侣宠物诊所","address":"永兴街8号","phone":"15189928606","category":"医疗保健服务;动物医疗场所;宠物诊所","area":"靖城","lng":120.277659,"lat":32.015656,"amap_id":"B0FFGOL2P7","order":15,"prev_distance_km":0.477,"cumulative_distance_km":29.803,"amap_marker_url":"https://uri.amap.com/marker?position=120.277659,32.015656&name=%E4%BC%B4%E4%BE%A3%E5%AE%A0%E7%89%A9%E8%AF%8A%E6%89%80&src=vetmap&coordinate=gaode&callnative=1","route_id":"r1","route_name":"第1段"},{"name":"靖江市瑞慈宠物医院","address":"双港路景馨花园北区1-10号","phone":"","category":"医疗保健服务;动物医疗场所;宠物诊所","area":"靖城","lng":120.270375,"lat":32.011013,"amap_id":"B0J1N5IB4O","order":16,"prev_distance_km":0.859,"cumulative_distance_km":30.662,"amap_marker_url":"https://uri.amap.com/marker?position=120.270375,32.011013&name=%E9%9D%96%E6%B1%9F%E5%B8%82%E7%91%9E%E6%85%88%E5%AE%A0%E7%89%A9%E5%8C%BB%E9%99%A2&src=vetmap&coordinate=gaode&callnative=1","route_id":"r1","route_name":"第1段"},{"name":"阳光宠物诊所(泰州靖江市)","address":"双港路84附近","phone":"18262598889","category":"医疗保健服务;动物医疗场所;宠物诊所","area":"靖城","lng":120.270332,"lat":32.011067,"amap_id":"B020B0OAK3","order":17,"prev_distance_km":0.007,"cumulative_distance_km":30.67,"amap_marker_url":"https://uri.amap.com/marker?position=120.270332,32.011067&name=%E9%98%B3%E5%85%89%E5%AE%A0%E7%89%A9%E8%AF%8A%E6%89%80%28%E6%B3%B0%E5%B7%9E%E9%9D%96%E6%B1%9F%E5%B8%82%29&src=vetmap&coordinate=gaode&callnative=1","route_id":"r1","route_name":"第1段"},{"name":"圣宠宠物(渔婆路店)","address":"靖城渔婆北路85号综合楼底层由北向南第7间南侧","phone":"18115911821","category":"医疗保健服务;动物医疗场所;动物医疗场所","area":"靖城","lng":120.262661,"lat":32.023029,"amap_id":"B0LRA5130C","order":18,"prev_distance_km":1.514,"cumulative_distance_km":32.184,"amap_marker_url":"https://uri.amap.com/marker?position=120.262661,32.023029&name=%E5%9C%A3%E5%AE%A0%E5%AE%A0%E7%89%A9%28%E6%B8%94%E5%A9%86%E8%B7%AF%E5%BA%97%29&src=vetmap&coordinate=gaode&callnative=1","route_id":"r1","route_name":"第1段"},{"name":"嘉禾宠物医院(新建街店)","address":"靖城街道新建北路毛家庭5/7-5","phone":"0523-84868639","category":"医疗保健服务;动物医疗场所;宠物诊所","area":"靖城","lng":120.267882,"lat":32.024316,"amap_id":"B0FFGA8A0D","order":19,"prev_distance_km":0.513,"cumulative_distance_km":32.696,"amap_marker_url":"https://uri.amap.com/marker?position=120.267882,32.024316&name=%E5%98%89%E7%A6%BE%E5%AE%A0%E7%89%A9%E5%8C%BB%E9%99%A2%28%E6%96%B0%E5%BB%BA%E8%A1%97%E5%BA%97%29&src=vetmap&coordinate=gaode&callnative=1","route_id":"r1","route_name":"第1段"},{"name":"宠物情缘(靖安路店)","address":"紫薇园东北门旁","phone":"13914538229","category":"医疗保健服务;动物医疗场所;宠物诊所","area":"靖城","lng":120.270699,"lat":32.026522,"amap_id":"B0J14PX82V","order":20,"prev_distance_km":0.362,"cumulative_distance_km":33.058,"amap_marker_url":"https://uri.amap.com/marker?position=120.270699,32.026522&name=%E5%AE%A0%E7%89%A9%E6%83%85%E7%BC%98%28%E9%9D%96%E5%AE%89%E8%B7%AF%E5%BA%97%29&src=vetmap&coordinate=gaode&callnative=1","route_id":"r1","route_name":"第1段"},{"name":"宠物诊所","address":"靖江市城北园区人民北路165号兽医站门诊","phone":"18136939062","category":"医疗保健服务;动物医疗场所;宠物诊所","area":"","lng":120.277741,"lat":32.032025,"amap_id":"B0JR51Z6Y5","order":21,"prev_distance_km":0.903,"cumulative_distance_km":33.96,"amap_marker_url":"https://uri.amap.com/marker?position=120.277741,32.032025&name=%E5%AE%A0%E7%89%A9%E8%AF%8A%E6%89%80&src=vetmap&coordinate=gaode&callnative=1","route_id":"r1","route_name":"第1段"},{"name":"佳贝宠物诊所","address":"北环西路加州洋房5号商铺","phone":"18261052875","category":"医疗保健服务;动物医疗场所;宠物诊所","area":"","lng":120.274762,"lat":32.036013,"amap_id":"B0FFJID8UA","order":22,"prev_distance_km":0.525,"cumulative_distance_km":34.485,"amap_marker_url":"https://uri.amap.com/marker?position=120.274762,32.036013&name=%E4%BD%B3%E8%B4%9D%E5%AE%A0%E7%89%A9%E8%AF%8A%E6%89%80&src=vetmap&coordinate=gaode&callnative=1","route_id":"r1","route_name":"第1段"},{"name":"靖江市孤山畜牧兽医站","address":"园山路3号","phone":"","category":"医疗保健服务;动物医疗场所;兽医站","area":"","lng":120.306157,"lat":32.065016,"amap_id":"B0FFG0OWE8","order":23,"prev_distance_km":4.377,"cumulative_distance_km":38.862,"amap_marker_url":"https://uri.amap.com/marker?position=120.306157,32.065016&name=%E9%9D%96%E6%B1%9F%E5%B8%82%E5%AD%A4%E5%B1%B1%E7%95%9C%E7%89%A7%E5%85%BD%E5%8C%BB%E7%AB%99&src=vetmap&coordinate=gaode&callnative=1","route_id":"r1","route_name":"第1段"},{"name":"靖江市季市畜牧兽医站","address":"老姜八路三元桥段与姜勤线交叉口南80米","phone":"","category":"医疗保健服务;动物医疗场所;兽医站","area":"","lng":120.311145,"lat":32.10627,"amap_id":"B0FFFL2JGX","order":24,"prev_distance_km":4.611,"cumulative_distance_km":43.473,"amap_marker_url":"https://uri.amap.com/marker?position=120.311145,32.106270&name=%E9%9D%96%E6%B1%9F%E5%B8%82%E5%AD%A3%E5%B8%82%E7%95%9C%E7%89%A7%E5%85%BD%E5%8C%BB%E7%AB%99&src=vetmap&coordinate=gaode&callnative=1","route_id":"r1","route_name":"第1段"},{"name":"港宠动物诊所","address":"江平路西8号","phone":"15161025317","category":"医疗保健服务;动物医疗场所;宠物诊所","area":"","lng":120.37561,"lat":32.05183,"amap_id":"B0LKRR7318","order":25,"prev_distance_km":8.575,"cumulative_distance_km":52.049,"amap_marker_url":"https://uri.amap.com/marker?position=120.375610,32.051830&name=%E6%B8%AF%E5%AE%A0%E5%8A%A8%E7%89%A9%E8%AF%8A%E6%89%80&src=vetmap&coordinate=gaode&callnative=1","route_id":"r1","route_name":"第1段"},{"name":"靖江市斜桥畜牧兽医站服务大厅","address":"斜桥镇江平路西8号","phone":"","category":"医疗保健服务;动物医疗场所;兽医站","area":"","lng":120.376053,"lat":32.052041,"amap_id":"B0FFG4IMJ5","order":26,"prev_distance_km":0.048,"cumulative_distance_km":52.096,"amap_marker_url":"https://uri.amap.com/marker?position=120.376053,32.052041&name=%E9%9D%96%E6%B1%9F%E5%B8%82%E6%96%9C%E6%A1%A5%E7%95%9C%E7%89%A7%E5%85%BD%E5%8C%BB%E7%AB%99%E6%9C%8D%E5%8A%A1%E5%A4%A7%E5%8E%85&src=vetmap&coordinate=gaode&callnative=1","route_id":"r1","route_name":"第1段"},{"name":"靖江市西来畜牧兽医站","address":"西来镇S336西来畜牧兽医站","phone":"","category":"医疗保健服务;动物医疗场所;兽医站","area":"","lng":120.410503,"lat":32.087898,"amap_id":"B020B0OFY2","order":27,"prev_distance_km":5.141,"cumulative_distance_km":57.238,"amap_marker_url":"https://uri.amap.com/marker?position=120.410503,32.087898&name=%E9%9D%96%E6%B1%9F%E5%B8%82%E8%A5%BF%E6%9D%A5%E7%95%9C%E7%89%A7%E5%85%BD%E5%8C%BB%E7%AB%99&src=vetmap&coordinate=gaode&callnative=1","route_id":"r1","route_name":"第1段"}]}],"rows":[{"name":"靖江鉴源宠物诊所","address":"新桥润新路御景华庭76号","phone":"15061029995","category":"医疗保健服务;动物医疗场所;宠物诊所","area":"","lng":120.070993,"lat":31.998894,"amap_id":"B0J1ORI9PR","order":1,"prev_distance_km":0.0,"cumulative_distance_km":0.0,"amap_marker_url":"https://uri.amap.com/marker?position=120.070993,31.998894&name=%E9%9D%96%E6%B1%9F%E9%89%B4%E6%BA%90%E5%AE%A0%E7%89%A9%E8%AF%8A%E6%89%80&src=vetmap&coordinate=gaode&callnative=1","route_id":"r1","route_name":"第1段","global_order":1},{"name":"宠翻天宠物诊所","address":"府前街与环镇北路交叉口南80米","phone":"","category":"医疗保健服务;动物医疗场所;宠物诊所","area":"","lng":120.074325,"lat":32.002275,"amap_id":"B0M61AFXZD","order":2,"prev_distance_km":0.49,"cumulative_distance_km":0.49,"amap_marker_url":"https://uri.amap.com/marker?position=120.074325,32.002275&name=%E5%AE%A0%E7%BF%BB%E5%A4%A9%E5%AE%A0%E7%89%A9%E8%AF%8A%E6%89%80&src=vetmap&coordinate=gaode&callnative=1","route_id":"r1","route_name":"第1段","global_order":2},{"name":"靖江市新桥畜牧兽医站","address":"新桥中路61号","phone":"18652695268","category":"医疗保健服务;动物医疗场所;兽医站","area":"","lng":120.076675,"lat":32.001316,"amap_id":"B0FFG0GDGI","order":3,"prev_distance_km":0.246,"cumulative_distance_km":0.736,"amap_marker_url":"https://uri.amap.com/marker?position=120.076675,32.001316&name=%E9%9D%96%E6%B1%9F%E5%B8%82%E6%96%B0%E6%A1%A5%E7%95%9C%E7%89%A7%E5%85%BD%E5%8C%BB%E7%AB%99&src=vetmap&coordinate=gaode&callnative=1","route_id":"r1","route_name":"第1段","global_order":3},{"name":"壹家宠物门诊(公新公路店)","address":"公新公路与新亚北路交叉口西240米","phone":"18652695268","category":"医疗保健服务;动物医疗场所;宠物诊所","area":"","lng":120.078734,"lat":32.001337,"amap_id":"B0G04B6ANT","order":4,"prev_distance_km":0.194,"cumulative_distance_km":0.93,"amap_marker_url":"https://uri.amap.com/marker?position=120.078734,32.001337&name=%E5%A3%B9%E5%AE%B6%E5%AE%A0%E7%89%A9%E9%97%A8%E8%AF%8A%28%E5%85%AC%E6%96%B0%E5%85%AC%E8%B7%AF%E5%BA%97%29&src=vetmap&coordinate=gaode&callnative=1","route_id":"r1","route_name":"第1段","global_order":4},{"name":"靖江市东兴畜牧兽医站","address":"东兴南路28号","phone":"","category":"医疗保健服务;动物医疗场所;兽医站","area":"","lng":120.170451,"lat":31.983903,"amap_id":"B0JKHAA3A8","order":5,"prev_distance_km":8.864,"cumulative_distance_km":9.794,"amap_marker_url":"https://uri.amap.com/marker?position=120.170451,31.983903&name=%E9%9D%96%E6%B1%9F%E5%B8%82%E4%B8%9C%E5%85%B4%E7%95%9C%E7%89%A7%E5%85%BD%E5%8C%BB%E7%AB%99&src=vetmap&coordinate=gaode&callnative=1","route_id":"r1","route_name":"第1段","global_order":5},{"name":"靖江市马桥畜牧兽医站","address":"马桥镇江平路","phone":"0523-84580119","category":"医疗保健服务;动物医疗场所;兽医站","area":"","lng":120.210022,"lat":32.036208,"amap_id":"B020B0OG8K","order":6,"prev_distance_km":6.91,"cumulative_distance_km":16.704,"amap_marker_url":"https://uri.amap.com/marker?position=120.210022,32.036208&name=%E9%9D%96%E6%B1%9F%E5%B8%82%E9%A9%AC%E6%A1%A5%E7%95%9C%E7%89%A7%E5%85%BD%E5%8C%BB%E7%AB%99&src=vetmap&coordinate=gaode&callnative=1","route_id":"r1","route_name":"第1段","global_order":6},{"name":"七月小先生宠物诊所","address":"车站路新景园9幢16号","phone":"19975159004","category":"医疗保健服务;动物医疗场所;宠物诊所","area":"工农路","lng":120.259964,"lat":32.004585,"amap_id":"B0I2VC422H","order":7,"prev_distance_km":5.877,"cumulative_distance_km":22.581,"amap_marker_url":"https://uri.amap.com/marker?position=120.259964,32.004585&name=%E4%B8%83%E6%9C%88%E5%B0%8F%E5%85%88%E7%94%9F%E5%AE%A0%E7%89%A9%E8%AF%8A%E6%89%80&src=vetmap&coordinate=gaode&callnative=1","route_id":"r1","route_name":"第1段","global_order":7},{"name":"靖江瑞霖宠物医院","address":"人民中路133号","phone":"13814464424","category":"医疗保健服务;动物医疗场所;宠物诊所","area":"工农路","lng":120.26448,"lat":32.002351,"amap_id":"B0LUN56FNT","order":8,"prev_distance_km":0.493,"cumulative_distance_km":23.074,"amap_marker_url":"https://uri.amap.com/marker?position=120.264480,32.002351&name=%E9%9D%96%E6%B1%9F%E7%91%9E%E9%9C%96%E5%AE%A0%E7%89%A9%E5%8C%BB%E9%99%A2&src=vetmap&coordinate=gaode&callnative=1","route_id":"r1","route_name":"第1段","global_order":8},{"name":"凯利蓝宠物医院","address":"合兴路华侨新村25幢106号","phone":"13852637119","category":"医疗保健服务;动物医疗场所;宠物诊所","area":"","lng":120.260979,"lat":31.999558,"amap_id":"B0JAAHI6UN","order":9,"prev_distance_km":0.453,"cumulative_distance_km":23.527,"amap_marker_url":"https://uri.amap.com/marker?position=120.260979,31.999558&name=%E5%87%AF%E5%88%A9%E8%93%9D%E5%AE%A0%E7%89%A9%E5%8C%BB%E9%99%A2&src=vetmap&coordinate=gaode&callnative=1","route_id":"r1","route_name":"第1段","global_order":9},{"name":"嘉禾宠物医院(中洲路店)","address":"中洲路18号","phone":"0523-84868639;13775717705","category":"医疗保健服务;动物医疗场所;宠物诊所","area":"","lng":120.25839,"lat":31.996177,"amap_id":"B020B023A7","order":10,"prev_distance_km":0.448,"cumulative_distance_km":23.975,"amap_marker_url":"https://uri.amap.com/marker?position=120.258390,31.996177&name=%E5%98%89%E7%A6%BE%E5%AE%A0%E7%89%A9%E5%8C%BB%E9%99%A2%28%E4%B8%AD%E6%B4%B2%E8%B7%AF%E5%BA%97%29&src=vetmap&coordinate=gaode&callnative=1","route_id":"r1","route_name":"第1段","global_order":10},{"name":"普爱宠物诊疗中心","address":"江洲路28号","phone":"15152660607;15371560776","category":"医疗保健服务;动物医疗场所;宠物诊所","area":"","lng":120.258016,"lat":31.991644,"amap_id":"B0H6OZRLB5","order":11,"prev_distance_km":0.505,"cumulative_distance_km":24.48,"amap_marker_url":"https://uri.amap.com/marker?position=120.258016,31.991644&name=%E6%99%AE%E7%88%B1%E5%AE%A0%E7%89%A9%E8%AF%8A%E7%96%97%E4%B8%AD%E5%BF%83&src=vetmap&coordinate=gaode&callnative=1","route_id":"r1","route_name":"第1段","global_order":11},{"name":"小新宠物诊所","address":"滨江新城御水湾花园云顶3号楼102","phone":"13815988332","category":"医疗保健服务;动物医疗场所;宠物诊所","area":"","lng":120.271469,"lat":31.986499,"amap_id":"B0L2AC1TRU","order":12,"prev_distance_km":1.392,"cumulative_distance_km":25.872,"amap_marker_url":"https://uri.amap.com/marker?position=120.271469,31.986499&name=%E5%B0%8F%E6%96%B0%E5%AE%A0%E7%89%A9%E8%AF%8A%E6%89%80&src=vetmap&coordinate=gaode&callnative=1","route_id":"r1","route_name":"第1段","global_order":12},{"name":"派瑞宠物诊所(南环花苑店)","address":"南环花苑晨阳路1-54号","phone":"15152668559","category":"医疗保健服务;动物医疗场所;宠物诊所","area":"","lng":120.279912,"lat":31.995076,"amap_id":"B020B0PKJ1","order":13,"prev_distance_km":1.242,"cumulative_distance_km":27.115,"amap_marker_url":"https://uri.amap.com/marker?position=120.279912,31.995076&name=%E6%B4%BE%E7%91%9E%E5%AE%A0%E7%89%A9%E8%AF%8A%E6%89%80%28%E5%8D%97%E7%8E%AF%E8%8A%B1%E8%8B%91%E5%BA%97%29&src=vetmap&coordinate=gaode&callnative=1","route_id":"r1","route_name":"第1段","global_order":13},{"name":"康诺宠物诊所","address":"桃园路与江平路交叉口北160米","phone":"17552313140","category":"医疗保健服务;动物医疗场所;宠物诊所","area":"","lng":120.28262,"lat":32.014835,"amap_id":"B0HDS57JXV","order":14,"prev_distance_km":2.212,"cumulative_distance_km":29.327,"amap_marker_url":"https://uri.amap.com/marker?position=120.282620,32.014835&name=%E5%BA%B7%E8%AF%BA%E5%AE%A0%E7%89%A9%E8%AF%8A%E6%89%80&src=vetmap&coordinate=gaode&callnative=1","route_id":"r1","route_name":"第1段","global_order":14},{"name":"伴侣宠物诊所","address":"永兴街8号","phone":"15189928606","category":"医疗保健服务;动物医疗场所;宠物诊所","area":"靖城","lng":120.277659,"lat":32.015656,"amap_id":"B0FFGOL2P7","order":15,"prev_distance_km":0.477,"cumulative_distance_km":29.803,"amap_marker_url":"https://uri.amap.com/marker?position=120.277659,32.015656&name=%E4%BC%B4%E4%BE%A3%E5%AE%A0%E7%89%A9%E8%AF%8A%E6%89%80&src=vetmap&coordinate=gaode&callnative=1","route_id":"r1","route_name":"第1段","global_order":15},{"name":"靖江市瑞慈宠物医院","address":"双港路景馨花园北区1-10号","phone":"","category":"医疗保健服务;动物医疗场所;宠物诊所","area":"靖城","lng":120.270375,"lat":32.011013,"amap_id":"B0J1N5IB4O","order":16,"prev_distance_km":0.859,"cumulative_distance_km":30.662,"amap_marker_url":"https://uri.amap.com/marker?position=120.270375,32.011013&name=%E9%9D%96%E6%B1%9F%E5%B8%82%E7%91%9E%E6%85%88%E5%AE%A0%E7%89%A9%E5%8C%BB%E9%99%A2&src=vetmap&coordinate=gaode&callnative=1","route_id":"r1","route_name":"第1段","global_order":16},{"name":"阳光宠物诊所(泰州靖江市)","address":"双港路84附近","phone":"18262598889","category":"医疗保健服务;动物医疗场所;宠物诊所","area":"靖城","lng":120.270332,"lat":32.011067,"amap_id":"B020B0OAK3","order":17,"prev_distance_km":0.007,"cumulative_distance_km":30.67,"amap_marker_url":"https://uri.amap.com/marker?position=120.270332,32.011067&name=%E9%98%B3%E5%85%89%E5%AE%A0%E7%89%A9%E8%AF%8A%E6%89%80%28%E6%B3%B0%E5%B7%9E%E9%9D%96%E6%B1%9F%E5%B8%82%29&src=vetmap&coordinate=gaode&callnative=1","route_id":"r1","route_name":"第1段","global_order":17},{"name":"圣宠宠物(渔婆路店)","address":"靖城渔婆北路85号综合楼底层由北向南第7间南侧","phone":"18115911821","category":"医疗保健服务;动物医疗场所;动物医疗场所","area":"靖城","lng":120.262661,"lat":32.023029,"amap_id":"B0LRA5130C","order":18,"prev_distance_km":1.514,"cumulative_distance_km":32.184,"amap_marker_url":"https://uri.amap.com/marker?position=120.262661,32.023029&name=%E5%9C%A3%E5%AE%A0%E5%AE%A0%E7%89%A9%28%E6%B8%94%E5%A9%86%E8%B7%AF%E5%BA%97%29&src=vetmap&coordinate=gaode&callnative=1","route_id":"r1","route_name":"第1段","global_order":18},{"name":"嘉禾宠物医院(新建街店)","address":"靖城街道新建北路毛家庭5/7-5","phone":"0523-84868639","category":"医疗保健服务;动物医疗场所;宠物诊所","area":"靖城","lng":120.267882,"lat":32.024316,"amap_id":"B0FFGA8A0D","order":19,"prev_distance_km":0.513,"cumulative_distance_km":32.696,"amap_marker_url":"https://uri.amap.com/marker?position=120.267882,32.024316&name=%E5%98%89%E7%A6%BE%E5%AE%A0%E7%89%A9%E5%8C%BB%E9%99%A2%28%E6%96%B0%E5%BB%BA%E8%A1%97%E5%BA%97%29&src=vetmap&coordinate=gaode&callnative=1","route_id":"r1","route_name":"第1段","global_order":19},{"name":"宠物情缘(靖安路店)","address":"紫薇园东北门旁","phone":"13914538229","category":"医疗保健服务;动物医疗场所;宠物诊所","area":"靖城","lng":120.270699,"lat":32.026522,"amap_id":"B0J14PX82V","order":20,"prev_distance_km":0.362,"cumulative_distance_km":33.058,"amap_marker_url":"https://uri.amap.com/marker?position=120.270699,32.026522&name=%E5%AE%A0%E7%89%A9%E6%83%85%E7%BC%98%28%E9%9D%96%E5%AE%89%E8%B7%AF%E5%BA%97%29&src=vetmap&coordinate=gaode&callnative=1","route_id":"r1","route_name":"第1段","global_order":20},{"name":"宠物诊所","address":"靖江市城北园区人民北路165号兽医站门诊","phone":"18136939062","category":"医疗保健服务;动物医疗场所;宠物诊所","area":"","lng":120.277741,"lat":32.032025,"amap_id":"B0JR51Z6Y5","order":21,"prev_distance_km":0.903,"cumulative_distance_km":33.96,"amap_marker_url":"https://uri.amap.com/marker?position=120.277741,32.032025&name=%E5%AE%A0%E7%89%A9%E8%AF%8A%E6%89%80&src=vetmap&coordinate=gaode&callnative=1","route_id":"r1","route_name":"第1段","global_order":21},{"name":"佳贝宠物诊所","address":"北环西路加州洋房5号商铺","phone":"18261052875","category":"医疗保健服务;动物医疗场所;宠物诊所","area":"","lng":120.274762,"lat":32.036013,"amap_id":"B0FFJID8UA","order":22,"prev_distance_km":0.525,"cumulative_distance_km":34.485,"amap_marker_url":"https://uri.amap.com/marker?position=120.274762,32.036013&name=%E4%BD%B3%E8%B4%9D%E5%AE%A0%E7%89%A9%E8%AF%8A%E6%89%80&src=vetmap&coordinate=gaode&callnative=1","route_id":"r1","route_name":"第1段","global_order":22},{"name":"靖江市孤山畜牧兽医站","address":"园山路3号","phone":"","category":"医疗保健服务;动物医疗场所;兽医站","area":"","lng":120.306157,"lat":32.065016,"amap_id":"B0FFG0OWE8","order":23,"prev_distance_km":4.377,"cumulative_distance_km":38.862,"amap_marker_url":"https://uri.amap.com/marker?position=120.306157,32.065016&name=%E9%9D%96%E6%B1%9F%E5%B8%82%E5%AD%A4%E5%B1%B1%E7%95%9C%E7%89%A7%E5%85%BD%E5%8C%BB%E7%AB%99&src=vetmap&coordinate=gaode&callnative=1","route_id":"r1","route_name":"第1段","global_order":23},{"name":"靖江市季市畜牧兽医站","address":"老姜八路三元桥段与姜勤线交叉口南80米","phone":"","category":"医疗保健服务;动物医疗场所;兽医站","area":"","lng":120.311145,"lat":32.10627,"amap_id":"B0FFFL2JGX","order":24,"prev_distance_km":4.611,"cumulative_distance_km":43.473,"amap_marker_url":"https://uri.amap.com/marker?position=120.311145,32.106270&name=%E9%9D%96%E6%B1%9F%E5%B8%82%E5%AD%A3%E5%B8%82%E7%95%9C%E7%89%A7%E5%85%BD%E5%8C%BB%E7%AB%99&src=vetmap&coordinate=gaode&callnative=1","route_id":"r1","route_name":"第1段","global_order":24},{"name":"港宠动物诊所","address":"江平路西8号","phone":"15161025317","category":"医疗保健服务;动物医疗场所;宠物诊所","area":"","lng":120.37561,"lat":32.05183,"amap_id":"B0LKRR7318","order":25,"prev_distance_km":8.575,"cumulative_distance_km":52.049,"amap_marker_url":"https://uri.amap.com/marker?position=120.375610,32.051830&name=%E6%B8%AF%E5%AE%A0%E5%8A%A8%E7%89%A9%E8%AF%8A%E6%89%80&src=vetmap&coordinate=gaode&callnative=1","route_id":"r1","route_name":"第1段","global_order":25},{"name":"靖江市斜桥畜牧兽医站服务大厅","address":"斜桥镇江平路西8号","phone":"","category":"医疗保健服务;动物医疗场所;兽医站","area":"","lng":120.376053,"lat":32.052041,"amap_id":"B0FFG4IMJ5","order":26,"prev_distance_km":0.048,"cumulative_distance_km":52.096,"amap_marker_url":"https://uri.amap.com/marker?position=120.376053,32.052041&name=%E9%9D%96%E6%B1%9F%E5%B8%82%E6%96%9C%E6%A1%A5%E7%95%9C%E7%89%A7%E5%85%BD%E5%8C%BB%E7%AB%99%E6%9C%8D%E5%8A%A1%E5%A4%A7%E5%8E%85&src=vetmap&coordinate=gaode&callnative=1","route_id":"r1","route_name":"第1段","global_order":26},{"name":"靖江市西来畜牧兽医站","address":"西来镇S336西来畜牧兽医站","phone":"","category":"医疗保健服务;动物医疗场所;兽医站","area":"","lng":120.410503,"lat":32.087898,"amap_id":"B020B0OFY2","order":27,"prev_distance_km":5.141,"cumulative_distance_km":57.238,"amap_marker_url":"https://uri.amap.com/marker?position=120.410503,32.087898&name=%E9%9D%96%E6%B1%9F%E5%B8%82%E8%A5%BF%E6%9D%A5%E7%95%9C%E7%89%A7%E5%85%BD%E5%8C%BB%E7%AB%99&src=vetmap&coordinate=gaode&callnative=1","route_id":"r1","route_name":"第1段","global_order":27}]}