{"summary":{"id":"d00877","province":"江西省","city":"上饶市","district":"信州区","count":19,"total_distance_km":11.127,"coordinate_system":"GCJ-02 / Amap","generated_at":"2026-05-07 20:23:04"},"rows":[{"name":"上饶市鑫鼎宠物医院(宠物医疗)","address":"凤凰中大到909号龙华世纪商业B区1-11/2-9号","phone":"13330042002","category":"医疗保健服务;动物医疗场所;宠物诊所","area":"","lng":117.933427,"lat":28.442773,"amap_id":"B0HRTS4PKH","order":1,"prev_distance_km":0.0,"cumulative_distance_km":0.0,"amap_marker_url":"https://uri.amap.com/marker?position=117.933427,28.442773&name=%E4%B8%8A%E9%A5%B6%E5%B8%82%E9%91%AB%E9%BC%8E%E5%AE%A0%E7%89%A9%E5%8C%BB%E9%99%A2%28%E5%AE%A0%E7%89%A9%E5%8C%BB%E7%96%97%29&src=vetmap&coordinate=gaode&callnative=1"},{"name":"上饶市鑫鼎宠物医院(宠趴龙华店)","address":"凤凰中大道909号龙华世纪商业B区1-11/2-9号","phone":"13330042002","category":"医疗保健服务;动物医疗场所;宠物诊所","area":"","lng":117.933434,"lat":28.442901,"amap_id":"B0FFL0SEC4","order":2,"prev_distance_km":0.014,"cumulative_distance_km":0.014,"amap_marker_url":"https://uri.amap.com/marker?position=117.933434,28.442901&name=%E4%B8%8A%E9%A5%B6%E5%B8%82%E9%91%AB%E9%BC%8E%E5%AE%A0%E7%89%A9%E5%8C%BB%E9%99%A2%28%E5%AE%A0%E8%B6%B4%E9%BE%99%E5%8D%8E%E5%BA%97%29&src=vetmap&coordinate=gaode&callnative=1"},{"name":"中豪宠物医院凤凰分院(体外碎石中心)","address":"凤凰中大道670号2幢2-1","phone":"13979361218","category":"医疗保健服务;动物医疗场所;宠物诊所","area":"","lng":117.940842,"lat":28.450405,"amap_id":"B0KKNU60XR","order":3,"prev_distance_km":1.105,"cumulative_distance_km":1.119,"amap_marker_url":"https://uri.amap.com/marker?position=117.940842,28.450405&name=%E4%B8%AD%E8%B1%AA%E5%AE%A0%E7%89%A9%E5%8C%BB%E9%99%A2%E5%87%A4%E5%87%B0%E5%88%86%E9%99%A2%28%E4%BD%93%E5%A4%96%E7%A2%8E%E7%9F%B3%E4%B8%AD%E5%BF%83%29&src=vetmap&coordinate=gaode&callnative=1"},{"name":"博大动物诊所","address":"龙潭路恒大影城商铺120-121","phone":"15179354154","category":"医疗保健服务;动物医疗场所;宠物诊所","area":"","lng":117.956183,"lat":28.446451,"amap_id":"B0G2AD4URG","order":4,"prev_distance_km":1.563,"cumulative_distance_km":2.682,"amap_marker_url":"https://uri.amap.com/marker?position=117.956183,28.446451&name=%E5%8D%9A%E5%A4%A7%E5%8A%A8%E7%89%A9%E8%AF%8A%E6%89%80&src=vetmap&coordinate=gaode&callnative=1"},{"name":"江仁宠物医院","address":"明叔大道御景新苑7号地块3栋1-10,1-11,1-12室","phone":"19189493491","category":"医疗保健服务;动物医疗场所;宠物诊所","area":"","lng":117.957953,"lat":28.447364,"amap_id":"B0L0PU1ARR","order":5,"prev_distance_km":0.201,"cumulative_distance_km":2.883,"amap_marker_url":"https://uri.amap.com/marker?position=117.957953,28.447364&name=%E6%B1%9F%E4%BB%81%E5%AE%A0%E7%89%A9%E5%8C%BB%E9%99%A2&src=vetmap&coordinate=gaode&callnative=1"},{"name":"美美宠物(御景新苑店)","address":"信江明珠27-1-1","phone":"13127795002","category":"医疗保健服务;动物医疗场所;动物医疗场所","area":"庆丰路","lng":117.960962,"lat":28.45029,"amap_id":"B0L057TYNJ","order":6,"prev_distance_km":0.439,"cumulative_distance_km":3.321,"amap_marker_url":"https://uri.amap.com/marker?position=117.960962,28.450290&name=%E7%BE%8E%E7%BE%8E%E5%AE%A0%E7%89%A9%28%E5%BE%A1%E6%99%AF%E6%96%B0%E8%8B%91%E5%BA%97%29&src=vetmap&coordinate=gaode&callnative=1"},{"name":"美众宠物医院·转诊中心·心脏彩超(庆丰店)","address":"庆丰路20号6幢1-13","phone":"18079360355","category":"医疗保健服务;动物医疗场所;宠物诊所","area":"庆丰路","lng":117.966815,"lat":28.448907,"amap_id":"B0LASH0AQI","order":7,"prev_distance_km":0.593,"cumulative_distance_km":3.914,"amap_marker_url":"https://uri.amap.com/marker?position=117.966815,28.448907&name=%E7%BE%8E%E4%BC%97%E5%AE%A0%E7%89%A9%E5%8C%BB%E9%99%A2%C2%B7%E8%BD%AC%E8%AF%8A%E4%B8%AD%E5%BF%83%C2%B7%E5%BF%83%E8%84%8F%E5%BD%A9%E8%B6%85%28%E5%BA%86%E4%B8%B0%E5%BA%97%29&src=vetmap&coordinate=gaode&callnative=1"},{"name":"江宁宠物诊所","address":"庆丰路12-10号向东公寓4楼","phone":"13319306538;18979359989","category":"医疗保健服务;动物医疗场所;宠物诊所","area":"庆丰路","lng":117.967306,"lat":28.447904,"amap_id":"B03190079O","order":8,"prev_distance_km":0.121,"cumulative_distance_km":4.035,"amap_marker_url":"https://uri.amap.com/marker?position=117.967306,28.447904&name=%E6%B1%9F%E5%AE%81%E5%AE%A0%E7%89%A9%E8%AF%8A%E6%89%80&src=vetmap&coordinate=gaode&callnative=1"},{"name":"中豪宠物医院(五三西大道水利水电大厦店)","address":"五三大道206号","phone":"0793-8105810;13979361218","category":"医疗保健服务;动物医疗场所;宠物诊所","area":"中山路","lng":117.967981,"lat":28.444933,"amap_id":"B0FFIR50A9","order":9,"prev_distance_km":0.337,"cumulative_distance_km":4.372,"amap_marker_url":"https://uri.amap.com/marker?position=117.967981,28.444933&name=%E4%B8%AD%E8%B1%AA%E5%AE%A0%E7%89%A9%E5%8C%BB%E9%99%A2%28%E4%BA%94%E4%B8%89%E8%A5%BF%E5%A4%A7%E9%81%93%E6%B0%B4%E5%88%A9%E6%B0%B4%E7%94%B5%E5%A4%A7%E5%8E%A6%E5%BA%97%29&src=vetmap&coordinate=gaode&callnative=1"},{"name":"心悦宠物","address":"沿河东路7号","phone":"18079311223","category":"医疗保健服务;动物医疗场所;动物医疗场所","area":"滨江路","lng":117.974558,"lat":28.440129,"amap_id":"B0M65SHMVQ","order":10,"prev_distance_km":0.836,"cumulative_distance_km":5.208,"amap_marker_url":"https://uri.amap.com/marker?position=117.974558,28.440129&name=%E5%BF%83%E6%82%A6%E5%AE%A0%E7%89%A9&src=vetmap&coordinate=gaode&callnative=1"},{"name":"睿丁宠物诊疗中心","address":"信江东路与南门路交叉口西40米","phone":"13970370277","category":"医疗保健服务;动物医疗场所;宠物诊所","area":"滨江路","lng":117.974966,"lat":28.441246,"amap_id":"B0HUAD33BB","order":11,"prev_distance_km":0.13,"cumulative_distance_km":5.339,"amap_marker_url":"https://uri.amap.com/marker?position=117.974966,28.441246&name=%E7%9D%BF%E4%B8%81%E5%AE%A0%E7%89%A9%E8%AF%8A%E7%96%97%E4%B8%AD%E5%BF%83&src=vetmap&coordinate=gaode&callnative=1"},{"name":"爱宝动物医院","address":"香榭里舍8-9幢1-5、1-6号","phone":"0793-8232880;18707930356","category":"医疗保健服务;动物医疗场所;宠物诊所","area":"五三大道","lng":117.98494,"lat":28.455149,"amap_id":"B0FFKKY30X","order":12,"prev_distance_km":1.828,"cumulative_distance_km":7.166,"amap_marker_url":"https://uri.amap.com/marker?position=117.984940,28.455149&name=%E7%88%B1%E5%AE%9D%E5%8A%A8%E7%89%A9%E5%8C%BB%E9%99%A2&src=vetmap&coordinate=gaode&callnative=1"},{"name":"良獒宠物医院中西医结合医院","address":"江西省信州区五三大道延伸段香榭丽舍11栋12号","phone":"15350250807","category":"医疗保健服务;动物医疗场所;宠物诊所","area":"五三大道","lng":117.986132,"lat":28.456101,"amap_id":"B0FFKOB8R4","order":13,"prev_distance_km":0.157,"cumulative_distance_km":7.324,"amap_marker_url":"https://uri.amap.com/marker?position=117.986132,28.456101&name=%E8%89%AF%E7%8D%92%E5%AE%A0%E7%89%A9%E5%8C%BB%E9%99%A2%E4%B8%AD%E8%A5%BF%E5%8C%BB%E7%BB%93%E5%90%88%E5%8C%BB%E9%99%A2&src=vetmap&coordinate=gaode&callnative=1"},{"name":"派多格宠物诊疗中心","address":"现代城在水一方西北1门旁","phone":"18679337396","category":"医疗保健服务;动物医疗场所;宠物诊所","area":"五三大道","lng":117.990313,"lat":28.458931,"amap_id":"B0L1XHR8XX","order":14,"prev_distance_km":0.516,"cumulative_distance_km":7.84,"amap_marker_url":"https://uri.amap.com/marker?position=117.990313,28.458931&name=%E6%B4%BE%E5%A4%9A%E6%A0%BC%E5%AE%A0%E7%89%A9%E8%AF%8A%E7%96%97%E4%B8%AD%E5%BF%83&src=vetmap&coordinate=gaode&callnative=1"},{"name":"关尔宠物医院","address":"国际公馆36-36(大门旁)","phone":"18679337396","category":"医疗保健服务;动物医疗场所;宠物诊所","area":"五三大道","lng":117.989362,"lat":28.459033,"amap_id":"B0FFJH4XAK","order":15,"prev_distance_km":0.094,"cumulative_distance_km":7.933,"amap_marker_url":"https://uri.amap.com/marker?position=117.989362,28.459033&name=%E5%85%B3%E5%B0%94%E5%AE%A0%E7%89%A9%E5%8C%BB%E9%99%A2&src=vetmap&coordinate=gaode&callnative=1"},{"name":"蜜獾宠物诊疗中心猫骨专科(恒基广场店)","address":"凤凰大道99号六幢103-203-104-204","phone":"13456722316;15907008674","category":"医疗保健服务;动物医疗场所;宠物诊所","area":"紫阳大道","lng":117.98176,"lat":28.462569,"amap_id":"B0GUJ1TMPZ","order":16,"prev_distance_km":0.841,"cumulative_distance_km":8.774,"amap_marker_url":"https://uri.amap.com/marker?position=117.981760,28.462569&name=%E8%9C%9C%E7%8D%BE%E5%AE%A0%E7%89%A9%E8%AF%8A%E7%96%97%E4%B8%AD%E5%BF%83%E7%8C%AB%E9%AA%A8%E4%B8%93%E7%A7%91%28%E6%81%92%E5%9F%BA%E5%B9%BF%E5%9C%BA%E5%BA%97%29&src=vetmap&coordinate=gaode&callnative=1"},{"name":"宠奇妙宠物诊疗中心(十五小店)","address":"江西省信州区凤凰大道26号1栋101","phone":"15779990887","category":"医疗保健服务;动物医疗场所;宠物诊所","area":"","lng":117.970456,"lat":28.458315,"amap_id":"B0JA5AOH4H","order":17,"prev_distance_km":1.202,"cumulative_distance_km":9.976,"amap_marker_url":"https://uri.amap.com/marker?position=117.970456,28.458315&name=%E5%AE%A0%E5%A5%87%E5%A6%99%E5%AE%A0%E7%89%A9%E8%AF%8A%E7%96%97%E4%B8%AD%E5%BF%83%28%E5%8D%81%E4%BA%94%E5%B0%8F%E5%BA%97%29&src=vetmap&coordinate=gaode&callnative=1"},{"name":"琪玛宠物诊疗中心","address":"凤凰大道360号江南人家1-10","phone":"13355773329","category":"医疗保健服务;动物医疗场所;宠物诊所","area":"","lng":117.958981,"lat":28.45805,"amap_id":"B0I19ZWES9","order":18,"prev_distance_km":1.122,"cumulative_distance_km":11.098,"amap_marker_url":"https://uri.amap.com/marker?position=117.958981,28.458050&name=%E7%90%AA%E7%8E%9B%E5%AE%A0%E7%89%A9%E8%AF%8A%E7%96%97%E4%B8%AD%E5%BF%83&src=vetmap&coordinate=gaode&callnative=1"},{"name":"尚宠宠物美容培训机构","address":"凤凰中大道江南人家1撞1-4","phone":"","category":"医疗保健服务;动物医疗场所;动物医疗场所","area":"","lng":117.958709,"lat":28.458155,"amap_id":"B0KRFRLDAW","order":19,"prev_distance_km":0.029,"cumulative_distance_km":11.127,"amap_marker_url":"https://uri.amap.com/marker?position=117.958709,28.458155&name=%E5%B0%9A%E5%AE%A0%E5%AE%A0%E7%89%A9%E7%BE%8E%E5%AE%B9%E5%9F%B9%E8%AE%AD%E6%9C%BA%E6%9E%84&src=vetmap&coordinate=gaode&callnative=1"}]}