{"summary":{"id":"d00845","province":"江苏省","city":"盐城市","district":"东台市","count":47,"route_count":1,"max_route_clinics":47,"total_distance_km":196.105,"coordinate_system":"GCJ-02 / Amap","generated_at":"2026-05-08 19:46:01"},"routes":[{"id":"r1","name":"第1段","count":47,"total_distance_km":196.105,"rows":[{"name":"动物药店","address":"政府中街与滨河路交叉口东80米","phone":"","category":"医疗保健服务;动物医疗场所;宠物诊所","area":"","lng":120.547039,"lat":32.887934,"amap_id":"B0H6FZ1HGY","order":1,"prev_distance_km":0.0,"cumulative_distance_km":0.0,"amap_marker_url":"https://uri.amap.com/marker?position=120.547039,32.887934&name=%E5%8A%A8%E7%89%A9%E8%8D%AF%E5%BA%97&src=vetmap&coordinate=gaode&callnative=1","route_id":"r1","route_name":"第1段"},{"name":"吴秀清祖传兽医","address":"四灶社区四灶振兴路18-9号门牌","phone":"13092160948;19850848438","category":"医疗保健服务;动物医疗场所;兽医站","area":"","lng":120.462295,"lat":32.851099,"amap_id":"B0K3D5UI6O","order":2,"prev_distance_km":8.912,"cumulative_distance_km":8.912,"amap_marker_url":"https://uri.amap.com/marker?position=120.462295,32.851099&name=%E5%90%B4%E7%A7%80%E6%B8%85%E7%A5%96%E4%BC%A0%E5%85%BD%E5%8C%BB&src=vetmap&coordinate=gaode&callnative=1","route_id":"r1","route_name":"第1段"},{"name":"东台市安安动物诊疗所","address":"东台碧桂园南1门东230米","phone":"","category":"医疗保健服务;动物医疗场所;宠物诊所","area":"","lng":120.382174,"lat":32.8462,"amap_id":"B0I0YUVV4J","order":3,"prev_distance_km":7.504,"cumulative_distance_km":16.416,"amap_marker_url":"https://uri.amap.com/marker?position=120.382174,32.846200&name=%E4%B8%9C%E5%8F%B0%E5%B8%82%E5%AE%89%E5%AE%89%E5%8A%A8%E7%89%A9%E8%AF%8A%E7%96%97%E6%89%80&src=vetmap&coordinate=gaode&callnative=1","route_id":"r1","route_name":"第1段"},{"name":"东台经济开发区惠民动物门诊部","address":"东湖路与红星河路交叉口西280米","phone":"","category":"医疗保健服务;动物医疗场所;宠物诊所","area":"","lng":120.373178,"lat":32.860266,"amap_id":"B0GKGC8UL0","order":4,"prev_distance_km":1.776,"cumulative_distance_km":18.191,"amap_marker_url":"https://uri.amap.com/marker?position=120.373178,32.860266&name=%E4%B8%9C%E5%8F%B0%E7%BB%8F%E6%B5%8E%E5%BC%80%E5%8F%91%E5%8C%BA%E6%83%A0%E6%B0%91%E5%8A%A8%E7%89%A9%E9%97%A8%E8%AF%8A%E9%83%A8&src=vetmap&coordinate=gaode&callnative=1","route_id":"r1","route_name":"第1段"},{"name":"东台市台东镇畜牧兽医站","address":"新团街与人民路交叉口东220米","phone":"","category":"医疗保健服务;动物医疗场所;兽医站","area":"","lng":120.359799,"lat":32.871206,"amap_id":"B0G0PHDN9A","order":5,"prev_distance_km":1.744,"cumulative_distance_km":19.935,"amap_marker_url":"https://uri.amap.com/marker?position=120.359799,32.871206&name=%E4%B8%9C%E5%8F%B0%E5%B8%82%E5%8F%B0%E4%B8%9C%E9%95%87%E7%95%9C%E7%89%A7%E5%85%BD%E5%8C%BB%E7%AB%99&src=vetmap&coordinate=gaode&callnative=1","route_id":"r1","route_name":"第1段"},{"name":"东台开发区普新动物门诊部","address":"东渣路与南中心路交叉口西南20米","phone":"","category":"医疗保健服务;动物医疗场所;宠物诊所","area":"","lng":120.366697,"lat":32.906739,"amap_id":"B0L3H7BDD3","order":6,"prev_distance_km":4.003,"cumulative_distance_km":23.939,"amap_marker_url":"https://uri.amap.com/marker?position=120.366697,32.906739&name=%E4%B8%9C%E5%8F%B0%E5%BC%80%E5%8F%91%E5%8C%BA%E6%99%AE%E6%96%B0%E5%8A%A8%E7%89%A9%E9%97%A8%E8%AF%8A%E9%83%A8&src=vetmap&coordinate=gaode&callnative=1","route_id":"r1","route_name":"第1段"},{"name":"汪喵宠物诊所","address":"正方·上林苑东南门西南60米","phone":"19962366909","category":"医疗保健服务;动物医疗场所;宠物诊所","area":"","lng":120.319908,"lat":32.870908,"amap_id":"B0JAK7P31P","order":7,"prev_distance_km":5.913,"cumulative_distance_km":29.851,"amap_marker_url":"https://uri.amap.com/marker?position=120.319908,32.870908&name=%E6%B1%AA%E5%96%B5%E5%AE%A0%E7%89%A9%E8%AF%8A%E6%89%80&src=vetmap&coordinate=gaode&callnative=1","route_id":"r1","route_name":"第1段"},{"name":"甜橙宠物诊所","address":"吉庆路36国宾府一幢10007室","phone":"13390706667","category":"医疗保健服务;动物医疗场所;宠物诊所","area":"","lng":120.327543,"lat":32.862937,"amap_id":"B0H2MC45AY","order":8,"prev_distance_km":1.138,"cumulative_distance_km":30.989,"amap_marker_url":"https://uri.amap.com/marker?position=120.327543,32.862937&name=%E7%94%9C%E6%A9%99%E5%AE%A0%E7%89%A9%E8%AF%8A%E6%89%80&src=vetmap&coordinate=gaode&callnative=1","route_id":"r1","route_name":"第1段"},{"name":"时代豪庭宠物医院","address":"富腾路86号时代豪庭1幢103室","phone":"15371330897","category":"医疗保健服务;动物医疗场所;宠物诊所","area":"","lng":120.33769,"lat":32.851565,"amap_id":"B0FFK8KJI9","order":9,"prev_distance_km":1.58,"cumulative_distance_km":32.569,"amap_marker_url":"https://uri.amap.com/marker?position=120.337690,32.851565&name=%E6%97%B6%E4%BB%A3%E8%B1%AA%E5%BA%AD%E5%AE%A0%E7%89%A9%E5%8C%BB%E9%99%A2&src=vetmap&coordinate=gaode&callnative=1","route_id":"r1","route_name":"第1段"},{"name":"东台市畜牧兽医站","address":"富腾路15号","phone":"","category":"医疗保健服务;动物医疗场所;兽医站","area":"","lng":120.33343,"lat":32.851129,"amap_id":"B02030IDTK","order":10,"prev_distance_km":0.401,"cumulative_distance_km":32.97,"amap_marker_url":"https://uri.amap.com/marker?position=120.333430,32.851129&name=%E4%B8%9C%E5%8F%B0%E5%B8%82%E7%95%9C%E7%89%A7%E5%85%BD%E5%8C%BB%E7%AB%99&src=vetmap&coordinate=gaode&callnative=1","route_id":"r1","route_name":"第1段"},{"name":"哆乐毛球宠物药房东台店","address":"华联路70-10号","phone":"15851022750","category":"医疗保健服务;动物医疗场所;动物医疗场所","area":"","lng":120.325447,"lat":32.852965,"amap_id":"B0L255CKJO","order":11,"prev_distance_km":0.773,"cumulative_distance_km":33.743,"amap_marker_url":"https://uri.amap.com/marker?position=120.325447,32.852965&name=%E5%93%86%E4%B9%90%E6%AF%9B%E7%90%83%E5%AE%A0%E7%89%A9%E8%8D%AF%E6%88%BF%E4%B8%9C%E5%8F%B0%E5%BA%97&src=vetmap&coordinate=gaode&callnative=1","route_id":"r1","route_name":"第1段"},{"name":"东台市佳爱宠物医院","address":"何垛路39-5号商铺都市名苑","phone":"18248768889","category":"医疗保健服务;动物医疗场所;宠物诊所","area":"","lng":120.323994,"lat":32.854183,"amap_id":"B0G1A5ZAIN","order":12,"prev_distance_km":0.192,"cumulative_distance_km":33.935,"amap_marker_url":"https://uri.amap.com/marker?position=120.323994,32.854183&name=%E4%B8%9C%E5%8F%B0%E5%B8%82%E4%BD%B3%E7%88%B1%E5%AE%A0%E7%89%A9%E5%8C%BB%E9%99%A2&src=vetmap&coordinate=gaode&callnative=1","route_id":"r1","route_name":"第1段"},{"name":"酷迪宠物医院(圆融广场店)","address":"望海东路圆融广场29-16","phone":"18962033659","category":"医疗保健服务;动物医疗场所;宠物诊所","area":"","lng":120.324363,"lat":32.850144,"amap_id":"B0FFM2RET1","order":13,"prev_distance_km":0.45,"cumulative_distance_km":34.385,"amap_marker_url":"https://uri.amap.com/marker?position=120.324363,32.850144&name=%E9%85%B7%E8%BF%AA%E5%AE%A0%E7%89%A9%E5%8C%BB%E9%99%A2%28%E5%9C%86%E8%9E%8D%E5%B9%BF%E5%9C%BA%E5%BA%97%29&src=vetmap&coordinate=gaode&callnative=1","route_id":"r1","route_name":"第1段"},{"name":"心诚宠物医院","address":"鼓楼东路287-1号(百岁园新合作超市对面)","phone":"19826320811","category":"医疗保健服务;动物医疗场所;宠物诊所","area":"","lng":120.323479,"lat":32.844239,"amap_id":"B0JU4XDVQ9","order":14,"prev_distance_km":0.662,"cumulative_distance_km":35.047,"amap_marker_url":"https://uri.amap.com/marker?position=120.323479,32.844239&name=%E5%BF%83%E8%AF%9A%E5%AE%A0%E7%89%A9%E5%8C%BB%E9%99%A2&src=vetmap&coordinate=gaode&callnative=1","route_id":"r1","route_name":"第1段"},{"name":"派豆宠物医院24H·腹腔镜微创中心·内窥镜·骨科","address":"吉祥路99-10号金鹰盛世花园67幢110室110-1室","phone":"0515-85223329;13770293329","category":"医疗保健服务;动物医疗场所;宠物诊所","area":"","lng":120.327814,"lat":32.844178,"amap_id":"B0HD0DYY2O","order":15,"prev_distance_km":0.405,"cumulative_distance_km":35.452,"amap_marker_url":"https://uri.amap.com/marker?position=120.327814,32.844178&name=%E6%B4%BE%E8%B1%86%E5%AE%A0%E7%89%A9%E5%8C%BB%E9%99%A224H%C2%B7%E8%85%B9%E8%85%94%E9%95%9C%E5%BE%AE%E5%88%9B%E4%B8%AD%E5%BF%83%C2%B7%E5%86%85%E7%AA%A5%E9%95%9C%C2%B7%E9%AA%A8%E7%A7%91&src=vetmap&coordinate=gaode&callnative=1","route_id":"r1","route_name":"第1段"},{"name":"朵朵宠物SPA","address":"长金路与裕丰巷交叉口东南160米","phone":"","category":"医疗保健服务;动物医疗场所;动物医疗场所","area":"","lng":120.331054,"lat":32.840003,"amap_id":"B0JUMSCOX8","order":16,"prev_distance_km":0.554,"cumulative_distance_km":36.006,"amap_marker_url":"https://uri.amap.com/marker?position=120.331054,32.840003&name=%E6%9C%B5%E6%9C%B5%E5%AE%A0%E7%89%A9SPA&src=vetmap&coordinate=gaode&callnative=1","route_id":"r1","route_name":"第1段"},{"name":"宠乖乖宠物诊疗中心(金水湾店)","address":"东园路98号金水湾东门四区25号楼105室","phone":"13584763115;17851638201","category":"医疗保健服务;动物医疗场所;宠物诊所","area":"","lng":120.333341,"lat":32.836042,"amap_id":"B0LDLMNOWN","order":17,"prev_distance_km":0.49,"cumulative_distance_km":36.496,"amap_marker_url":"https://uri.amap.com/marker?position=120.333341,32.836042&name=%E5%AE%A0%E4%B9%96%E4%B9%96%E5%AE%A0%E7%89%A9%E8%AF%8A%E7%96%97%E4%B8%AD%E5%BF%83%28%E9%87%91%E6%B0%B4%E6%B9%BE%E5%BA%97%29&src=vetmap&coordinate=gaode&callnative=1","route_id":"r1","route_name":"第1段"},{"name":"爱牧家宠物诊所","address":"龙晶河滨花园1号楼18号","phone":"13851304668","category":"医疗保健服务;动物医疗场所;宠物诊所","area":"","lng":120.317251,"lat":32.838929,"amap_id":"B0G394KVXI","order":18,"prev_distance_km":1.537,"cumulative_distance_km":38.033,"amap_marker_url":"https://uri.amap.com/marker?position=120.317251,32.838929&name=%E7%88%B1%E7%89%A7%E5%AE%B6%E5%AE%A0%E7%89%A9%E8%AF%8A%E6%89%80&src=vetmap&coordinate=gaode&callnative=1","route_id":"r1","route_name":"第1段"},{"name":"瑞慈宠物医院","address":"海陵南路36-36号","phone":"13961020333;15295200333","category":"医疗保健服务;动物医疗场所;宠物诊所","area":"","lng":120.318084,"lat":32.839461,"amap_id":"B0JU5S69MC","order":19,"prev_distance_km":0.098,"cumulative_distance_km":38.131,"amap_marker_url":"https://uri.amap.com/marker?position=120.318084,32.839461&name=%E7%91%9E%E6%85%88%E5%AE%A0%E7%89%A9%E5%8C%BB%E9%99%A2&src=vetmap&coordinate=gaode&callnative=1","route_id":"r1","route_name":"第1段"},{"name":"何垛宠物诊所","address":"东台镇东达路1号","phone":"0515-85109168;18914662228","category":"医疗保健服务;动物医疗场所;宠物诊所","area":"","lng":120.319282,"lat":32.855106,"amap_id":"B0FFGXH43L","order":20,"prev_distance_km":1.743,"cumulative_distance_km":39.874,"amap_marker_url":"https://uri.amap.com/marker?position=120.319282,32.855106&name=%E4%BD%95%E5%9E%9B%E5%AE%A0%E7%89%A9%E8%AF%8A%E6%89%80&src=vetmap&coordinate=gaode&callnative=1","route_id":"r1","route_name":"第1段"},{"name":"宠爱之家宠物诊所","address":"红兰中路11-12","phone":"13851036886","category":"医疗保健服务;动物医疗场所;宠物诊所","area":"","lng":120.314843,"lat":32.85367,"amap_id":"B0J09CYB1V","order":21,"prev_distance_km":0.444,"cumulative_distance_km":40.318,"amap_marker_url":"https://uri.amap.com/marker?position=120.314843,32.853670&name=%E5%AE%A0%E7%88%B1%E4%B9%8B%E5%AE%B6%E5%AE%A0%E7%89%A9%E8%AF%8A%E6%89%80&src=vetmap&coordinate=gaode&callnative=1","route_id":"r1","route_name":"第1段"},{"name":"左右宠艺动物医院","address":"东台镇东亭南路26-2号","phone":"13605110279","category":"医疗保健服务;动物医疗场所;宠物诊所","area":"","lng":120.308987,"lat":32.84795,"amap_id":"B0FFKE05PE","order":22,"prev_distance_km":0.839,"cumulative_distance_km":41.157,"amap_marker_url":"https://uri.amap.com/marker?position=120.308987,32.847950&name=%E5%B7%A6%E5%8F%B3%E5%AE%A0%E8%89%BA%E5%8A%A8%E7%89%A9%E5%8C%BB%E9%99%A2&src=vetmap&coordinate=gaode&callnative=1","route_id":"r1","route_name":"第1段"},{"name":"爱贝康宠物医院","address":"宁树路276号","phone":"","category":"医疗保健服务;动物医疗场所;宠物诊所","area":"","lng":120.300163,"lat":32.847132,"amap_id":"B0J0C7CSMJ","order":23,"prev_distance_km":0.829,"cumulative_distance_km":41.987,"amap_marker_url":"https://uri.amap.com/marker?position=120.300163,32.847132&name=%E7%88%B1%E8%B4%9D%E5%BA%B7%E5%AE%A0%E7%89%A9%E5%8C%BB%E9%99%A2&src=vetmap&coordinate=gaode&callnative=1","route_id":"r1","route_name":"第1段"},{"name":"东台市云龙动物诊所","address":"廉广线与东五线交叉口北40米","phone":"0515-85421391;0515-85424185;13914664858","category":"医疗保健服务;动物医疗场所;宠物诊所","area":"","lng":120.244254,"lat":32.854055,"amap_id":"B0203174IR","order":24,"prev_distance_km":5.279,"cumulative_distance_km":47.266,"amap_marker_url":"https://uri.amap.com/marker?position=120.244254,32.854055&name=%E4%B8%9C%E5%8F%B0%E5%B8%82%E4%BA%91%E9%BE%99%E5%8A%A8%E7%89%A9%E8%AF%8A%E6%89%80&src=vetmap&coordinate=gaode&callnative=1","route_id":"r1","route_name":"第1段"},{"name":"时堰镇兽医站","address":"弶溱线与兴时路交叉口北80米","phone":"","category":"医疗保健服务;动物医疗场所;兽医站","area":"","lng":120.18869,"lat":32.71694,"amap_id":"B0K3X532WB","order":25,"prev_distance_km":16.107,"cumulative_distance_km":63.373,"amap_marker_url":"https://uri.amap.com/marker?position=120.188690,32.716940&name=%E6%97%B6%E5%A0%B0%E9%95%87%E5%85%BD%E5%8C%BB%E7%AB%99&src=vetmap&coordinate=gaode&callnative=1","route_id":"r1","route_name":"第1段"},{"name":"茂华动物诊疗所","address":"后港社区文港路8号","phone":"0515-85541587","category":"医疗保健服务;动物医疗场所;宠物诊所","area":"","lng":120.261367,"lat":32.684929,"amap_id":"B0FFGBIA2U","order":26,"prev_distance_km":7.676,"cumulative_distance_km":71.049,"amap_marker_url":"https://uri.amap.com/marker?position=120.261367,32.684929&name=%E8%8C%82%E5%8D%8E%E5%8A%A8%E7%89%A9%E8%AF%8A%E7%96%97%E6%89%80&src=vetmap&coordinate=gaode&callnative=1","route_id":"r1","route_name":"第1段"},{"name":"粱垛镇梁牧动物诊疗门诊部","address":"梁垛镇磊达路","phone":"","category":"医疗保健服务;动物医疗场所;动物医疗场所","area":"","lng":120.372274,"lat":32.775201,"amap_id":"B0K1N1RWFW","order":27,"prev_distance_km":14.435,"cumulative_distance_km":85.484,"amap_marker_url":"https://uri.amap.com/marker?position=120.372274,32.775201&name=%E7%B2%B1%E5%9E%9B%E9%95%87%E6%A2%81%E7%89%A7%E5%8A%A8%E7%89%A9%E8%AF%8A%E7%96%97%E9%97%A8%E8%AF%8A%E9%83%A8&src=vetmap&coordinate=gaode&callnative=1","route_id":"r1","route_name":"第1段"},{"name":"东台市安丰镇大港动物门诊部","address":"安丰镇大港村一组","phone":"13305110189;15905110189","category":"医疗保健服务;动物医疗场所;宠物诊所","area":"","lng":120.39841,"lat":32.724402,"amap_id":"B0FFLE3DJ2","order":28,"prev_distance_km":6.155,"cumulative_distance_km":91.639,"amap_marker_url":"https://uri.amap.com/marker?position=120.398410,32.724402&name=%E4%B8%9C%E5%8F%B0%E5%B8%82%E5%AE%89%E4%B8%B0%E9%95%87%E5%A4%A7%E6%B8%AF%E5%8A%A8%E7%89%A9%E9%97%A8%E8%AF%8A%E9%83%A8&src=vetmap&coordinate=gaode&callnative=1","route_id":"r1","route_name":"第1段"},{"name":"东台市安丰镇畜牧兽医站","address":"烟沪线与安时路交叉口东南80米","phone":"","category":"医疗保健服务;动物医疗场所;兽医站","area":"","lng":120.408627,"lat":32.729941,"amap_id":"B0FFJSVQWC","order":29,"prev_distance_km":1.137,"cumulative_distance_km":92.776,"amap_marker_url":"https://uri.amap.com/marker?position=120.408627,32.729941&name=%E4%B8%9C%E5%8F%B0%E5%B8%82%E5%AE%89%E4%B8%B0%E9%95%87%E7%95%9C%E7%89%A7%E5%85%BD%E5%8C%BB%E7%AB%99&src=vetmap&coordinate=gaode&callnative=1","route_id":"r1","route_name":"第1段"},{"name":"东台安丰镇科牧动物诊所","address":"安丰镇科牧动物诊所","phone":"","category":"医疗保健服务;动物医疗场所;兽医站","area":"","lng":120.410045,"lat":32.731885,"amap_id":"B0KGG57YR5","order":30,"prev_distance_km":0.254,"cumulative_distance_km":93.029,"amap_marker_url":"https://uri.amap.com/marker?position=120.410045,32.731885&name=%E4%B8%9C%E5%8F%B0%E5%AE%89%E4%B8%B0%E9%95%87%E7%A7%91%E7%89%A7%E5%8A%A8%E7%89%A9%E8%AF%8A%E6%89%80&src=vetmap&coordinate=gaode&callnative=1","route_id":"r1","route_name":"第1段"},{"name":"东台市富安镇畜牧兽医站","address":"G204(烟沪线)","phone":"","category":"医疗保健服务;动物医疗场所;兽医站","area":"","lng":120.474423,"lat":32.678155,"amap_id":"B0FFKKTW2X","order":31,"prev_distance_km":8.484,"cumulative_distance_km":101.513,"amap_marker_url":"https://uri.amap.com/marker?position=120.474423,32.678155&name=%E4%B8%9C%E5%8F%B0%E5%B8%82%E5%AF%8C%E5%AE%89%E9%95%87%E7%95%9C%E7%89%A7%E5%85%BD%E5%8C%BB%E7%AB%99&src=vetmap&coordinate=gaode&callnative=1","route_id":"r1","route_name":"第1段"},{"name":"东台市富安镇王勇动物诊疗所","address":"头富线与永东路交叉口西南40米","phone":"","category":"医疗保健服务;动物医疗场所;宠物诊所","area":"","lng":120.553979,"lat":32.677457,"amap_id":"B0G1ZO6JQF","order":32,"prev_distance_km":7.446,"cumulative_distance_km":108.96,"amap_marker_url":"https://uri.amap.com/marker?position=120.553979,32.677457&name=%E4%B8%9C%E5%8F%B0%E5%B8%82%E5%AF%8C%E5%AE%89%E9%95%87%E7%8E%8B%E5%8B%87%E5%8A%A8%E7%89%A9%E8%AF%8A%E7%96%97%E6%89%80&src=vetmap&coordinate=gaode&callnative=1","route_id":"r1","route_name":"第1段"},{"name":"东台市南沈灶镇万佳动物诊所","address":"府前西路69号","phone":"13851029609","category":"医疗保健服务;动物医疗场所;宠物诊所","area":"","lng":120.531941,"lat":32.779597,"amap_id":"B0FFFZ28SK","order":33,"prev_distance_km":11.543,"cumulative_distance_km":120.503,"amap_marker_url":"https://uri.amap.com/marker?position=120.531941,32.779597&name=%E4%B8%9C%E5%8F%B0%E5%B8%82%E5%8D%97%E6%B2%88%E7%81%B6%E9%95%87%E4%B8%87%E4%BD%B3%E5%8A%A8%E7%89%A9%E8%AF%8A%E6%89%80&src=vetmap&coordinate=gaode&callnative=1","route_id":"r1","route_name":"第1段"},{"name":"丰平动物诊所","address":"红旗路与何家路交叉口北340米","phone":"","category":"医疗保健服务;动物医疗场所;宠物诊所","area":"","lng":120.630804,"lat":32.73867,"amap_id":"B0J2A71PFC","order":34,"prev_distance_km":10.304,"cumulative_distance_km":130.807,"amap_marker_url":"https://uri.amap.com/marker?position=120.630804,32.738670&name=%E4%B8%B0%E5%B9%B3%E5%8A%A8%E7%89%A9%E8%AF%8A%E6%89%80&src=vetmap&coordinate=gaode&callnative=1","route_id":"r1","route_name":"第1段"},{"name":"东台市三仓镇诚德动物诊所","address":"新街镇新桥居委会向东150米路北","phone":"","category":"医疗保健服务;动物医疗场所;宠物诊所","area":"","lng":120.664097,"lat":32.76024,"amap_id":"B0FFG7I9J3","order":35,"prev_distance_km":3.93,"cumulative_distance_km":134.737,"amap_marker_url":"https://uri.amap.com/marker?position=120.664097,32.760240&name=%E4%B8%9C%E5%8F%B0%E5%B8%82%E4%B8%89%E4%BB%93%E9%95%87%E8%AF%9A%E5%BE%B7%E5%8A%A8%E7%89%A9%E8%AF%8A%E6%89%80&src=vetmap&coordinate=gaode&callnative=1","route_id":"r1","route_name":"第1段"},{"name":"金牧动物门诊部","address":"黄海南路68号","phone":"0515-85622993","category":"医疗保健服务;动物医疗场所;宠物诊所","area":"","lng":120.683325,"lat":32.759625,"amap_id":"B0FFG9WEY5","order":36,"prev_distance_km":1.799,"cumulative_distance_km":136.537,"amap_marker_url":"https://uri.amap.com/marker?position=120.683325,32.759625&name=%E9%87%91%E7%89%A7%E5%8A%A8%E7%89%A9%E9%97%A8%E8%AF%8A%E9%83%A8&src=vetmap&coordinate=gaode&callnative=1","route_id":"r1","route_name":"第1段"},{"name":"许河镇方塘桥动物诊疗所","address":"226省道与方塘河北路交叉口东北20米","phone":"15962036086","category":"医疗保健服务;动物医疗场所;宠物诊所","area":"","lng":120.688667,"lat":32.673532,"amap_id":"B0FFJSVNXC","order":37,"prev_distance_km":9.586,"cumulative_distance_km":146.123,"amap_marker_url":"https://uri.amap.com/marker?position=120.688667,32.673532&name=%E8%AE%B8%E6%B2%B3%E9%95%87%E6%96%B9%E5%A1%98%E6%A1%A5%E5%8A%A8%E7%89%A9%E8%AF%8A%E7%96%97%E6%89%80&src=vetmap&coordinate=gaode&callnative=1","route_id":"r1","route_name":"第1段"},{"name":"红花动物诊疗所","address":"黄海街","phone":"15962050832","category":"医疗保健服务;动物医疗场所;兽医站","area":"","lng":120.694134,"lat":32.640869,"amap_id":"B0FFGAJZOJ","order":38,"prev_distance_km":3.668,"cumulative_distance_km":149.791,"amap_marker_url":"https://uri.amap.com/marker?position=120.694134,32.640869&name=%E7%BA%A2%E8%8A%B1%E5%8A%A8%E7%89%A9%E8%AF%8A%E7%96%97%E6%89%80&src=vetmap&coordinate=gaode&callnative=1","route_id":"r1","route_name":"第1段"},{"name":"东台市唐洋鹏程动物诊疗服务中心","address":"黄海街","phone":"0515-85652555","category":"医疗保健服务;动物医疗场所;动物医疗场所","area":"","lng":120.694264,"lat":32.629903,"amap_id":"B020318Y91","order":39,"prev_distance_km":1.219,"cumulative_distance_km":151.01,"amap_marker_url":"https://uri.amap.com/marker?position=120.694264,32.629903&name=%E4%B8%9C%E5%8F%B0%E5%B8%82%E5%94%90%E6%B4%8B%E9%B9%8F%E7%A8%8B%E5%8A%A8%E7%89%A9%E8%AF%8A%E7%96%97%E6%9C%8D%E5%8A%A1%E4%B8%AD%E5%BF%83&src=vetmap&coordinate=gaode&callnative=1","route_id":"r1","route_name":"第1段"},{"name":"爱国动物诊疗所","address":"东台·唐洋砖瓦厂西南侧","phone":"","category":"医疗保健服务;动物医疗场所;宠物诊所","area":"","lng":120.660058,"lat":32.605241,"amap_id":"B0L3H7A3DV","order":40,"prev_distance_km":4.217,"cumulative_distance_km":155.227,"amap_marker_url":"https://uri.amap.com/marker?position=120.660058,32.605241&name=%E7%88%B1%E5%9B%BD%E5%8A%A8%E7%89%A9%E8%AF%8A%E7%96%97%E6%89%80&src=vetmap&coordinate=gaode&callnative=1","route_id":"r1","route_name":"第1段"},{"name":"唐洋兽医站","address":"幸福路与红旗河南路交叉口南200米","phone":"","category":"医疗保健服务;动物医疗场所;兽医站","area":"","lng":120.701252,"lat":32.625468,"amap_id":"B0FFJRNL2X","order":41,"prev_distance_km":4.466,"cumulative_distance_km":159.693,"amap_marker_url":"https://uri.amap.com/marker?position=120.701252,32.625468&name=%E5%94%90%E6%B4%8B%E5%85%BD%E5%8C%BB%E7%AB%99&src=vetmap&coordinate=gaode&callnative=1","route_id":"r1","route_name":"第1段"},{"name":"二总动物门诊部","address":"唐洋镇","phone":"","category":"医疗保健服务;动物医疗场所;宠物诊所","area":"","lng":120.730325,"lat":32.634175,"amap_id":"B0FFI94U7Z","order":42,"prev_distance_km":2.89,"cumulative_distance_km":162.583,"amap_marker_url":"https://uri.amap.com/marker?position=120.730325,32.634175&name=%E4%BA%8C%E6%80%BB%E5%8A%A8%E7%89%A9%E9%97%A8%E8%AF%8A%E9%83%A8&src=vetmap&coordinate=gaode&callnative=1","route_id":"r1","route_name":"第1段"},{"name":"新街镇街南动物诊疗所","address":"新街镇小刀专卖店东北侧","phone":"","category":"医疗保健服务;动物医疗场所;宠物诊所","area":"","lng":120.769526,"lat":32.661782,"amap_id":"B0I3F90ZU9","order":43,"prev_distance_km":4.785,"cumulative_distance_km":167.367,"amap_marker_url":"https://uri.amap.com/marker?position=120.769526,32.661782&name=%E6%96%B0%E8%A1%97%E9%95%87%E8%A1%97%E5%8D%97%E5%8A%A8%E7%89%A9%E8%AF%8A%E7%96%97%E6%89%80&src=vetmap&coordinate=gaode&callnative=1","route_id":"r1","route_name":"第1段"},{"name":"东台市新街益民动物医院","address":"人民西路与向阳路交叉口西南60米","phone":"","category":"医疗保健服务;动物医疗场所;兽医站","area":"","lng":120.7745,"lat":32.674494,"amap_id":"B020318Y8O","order":44,"prev_distance_km":1.488,"cumulative_distance_km":168.856,"amap_marker_url":"https://uri.amap.com/marker?position=120.774500,32.674494&name=%E4%B8%9C%E5%8F%B0%E5%B8%82%E6%96%B0%E8%A1%97%E7%9B%8A%E6%B0%91%E5%8A%A8%E7%89%A9%E5%8C%BB%E9%99%A2&src=vetmap&coordinate=gaode&callnative=1","route_id":"r1","route_name":"第1段"},{"name":"新街兽医站牧健动物宠物诊所","address":"人民西路与向阳路交叉口西60米","phone":"18912519099","category":"医疗保健服务;动物医疗场所;宠物诊所","area":"","lng":120.774476,"lat":32.674639,"amap_id":"B0FFL80DF7","order":45,"prev_distance_km":0.016,"cumulative_distance_km":168.872,"amap_marker_url":"https://uri.amap.com/marker?position=120.774476,32.674639&name=%E6%96%B0%E8%A1%97%E5%85%BD%E5%8C%BB%E7%AB%99%E7%89%A7%E5%81%A5%E5%8A%A8%E7%89%A9%E5%AE%A0%E7%89%A9%E8%AF%8A%E6%89%80&src=vetmap&coordinate=gaode&callnative=1","route_id":"r1","route_name":"第1段"},{"name":"东台市三仓镇新进动物门诊部(新农门诊部)","address":"先进路与新东线交叉口西100米","phone":"","category":"医疗保健服务;动物医疗场所;宠物诊所","area":"","lng":120.762686,"lat":32.74685,"amap_id":"B020318Y97","order":46,"prev_distance_km":8.105,"cumulative_distance_km":176.977,"amap_marker_url":"https://uri.amap.com/marker?position=120.762686,32.746850&name=%E4%B8%9C%E5%8F%B0%E5%B8%82%E4%B8%89%E4%BB%93%E9%95%87%E6%96%B0%E8%BF%9B%E5%8A%A8%E7%89%A9%E9%97%A8%E8%AF%8A%E9%83%A8%28%E6%96%B0%E5%86%9C%E9%97%A8%E8%AF%8A%E9%83%A8%29&src=vetmap&coordinate=gaode&callnative=1","route_id":"r1","route_name":"第1段"},{"name":"动保超市","address":"","phone":"","category":"医疗保健服务;动物医疗场所;动物医疗场所","area":"","lng":120.933553,"lat":32.841522,"amap_id":"B0K32S8GD9","order":47,"prev_distance_km":19.129,"cumulative_distance_km":196.105,"amap_marker_url":"https://uri.amap.com/marker?position=120.933553,32.841522&name=%E5%8A%A8%E4%BF%9D%E8%B6%85%E5%B8%82&src=vetmap&coordinate=gaode&callnative=1","route_id":"r1","route_name":"第1段"}]}],"rows":[{"name":"动物药店","address":"政府中街与滨河路交叉口东80米","phone":"","category":"医疗保健服务;动物医疗场所;宠物诊所","area":"","lng":120.547039,"lat":32.887934,"amap_id":"B0H6FZ1HGY","order":1,"prev_distance_km":0.0,"cumulative_distance_km":0.0,"amap_marker_url":"https://uri.amap.com/marker?position=120.547039,32.887934&name=%E5%8A%A8%E7%89%A9%E8%8D%AF%E5%BA%97&src=vetmap&coordinate=gaode&callnative=1","route_id":"r1","route_name":"第1段","global_order":1},{"name":"吴秀清祖传兽医","address":"四灶社区四灶振兴路18-9号门牌","phone":"13092160948;19850848438","category":"医疗保健服务;动物医疗场所;兽医站","area":"","lng":120.462295,"lat":32.851099,"amap_id":"B0K3D5UI6O","order":2,"prev_distance_km":8.912,"cumulative_distance_km":8.912,"amap_marker_url":"https://uri.amap.com/marker?position=120.462295,32.851099&name=%E5%90%B4%E7%A7%80%E6%B8%85%E7%A5%96%E4%BC%A0%E5%85%BD%E5%8C%BB&src=vetmap&coordinate=gaode&callnative=1","route_id":"r1","route_name":"第1段","global_order":2},{"name":"东台市安安动物诊疗所","address":"东台碧桂园南1门东230米","phone":"","category":"医疗保健服务;动物医疗场所;宠物诊所","area":"","lng":120.382174,"lat":32.8462,"amap_id":"B0I0YUVV4J","order":3,"prev_distance_km":7.504,"cumulative_distance_km":16.416,"amap_marker_url":"https://uri.amap.com/marker?position=120.382174,32.846200&name=%E4%B8%9C%E5%8F%B0%E5%B8%82%E5%AE%89%E5%AE%89%E5%8A%A8%E7%89%A9%E8%AF%8A%E7%96%97%E6%89%80&src=vetmap&coordinate=gaode&callnative=1","route_id":"r1","route_name":"第1段","global_order":3},{"name":"东台经济开发区惠民动物门诊部","address":"东湖路与红星河路交叉口西280米","phone":"","category":"医疗保健服务;动物医疗场所;宠物诊所","area":"","lng":120.373178,"lat":32.860266,"amap_id":"B0GKGC8UL0","order":4,"prev_distance_km":1.776,"cumulative_distance_km":18.191,"amap_marker_url":"https://uri.amap.com/marker?position=120.373178,32.860266&name=%E4%B8%9C%E5%8F%B0%E7%BB%8F%E6%B5%8E%E5%BC%80%E5%8F%91%E5%8C%BA%E6%83%A0%E6%B0%91%E5%8A%A8%E7%89%A9%E9%97%A8%E8%AF%8A%E9%83%A8&src=vetmap&coordinate=gaode&callnative=1","route_id":"r1","route_name":"第1段","global_order":4},{"name":"东台市台东镇畜牧兽医站","address":"新团街与人民路交叉口东220米","phone":"","category":"医疗保健服务;动物医疗场所;兽医站","area":"","lng":120.359799,"lat":32.871206,"amap_id":"B0G0PHDN9A","order":5,"prev_distance_km":1.744,"cumulative_distance_km":19.935,"amap_marker_url":"https://uri.amap.com/marker?position=120.359799,32.871206&name=%E4%B8%9C%E5%8F%B0%E5%B8%82%E5%8F%B0%E4%B8%9C%E9%95%87%E7%95%9C%E7%89%A7%E5%85%BD%E5%8C%BB%E7%AB%99&src=vetmap&coordinate=gaode&callnative=1","route_id":"r1","route_name":"第1段","global_order":5},{"name":"东台开发区普新动物门诊部","address":"东渣路与南中心路交叉口西南20米","phone":"","category":"医疗保健服务;动物医疗场所;宠物诊所","area":"","lng":120.366697,"lat":32.906739,"amap_id":"B0L3H7BDD3","order":6,"prev_distance_km":4.003,"cumulative_distance_km":23.939,"amap_marker_url":"https://uri.amap.com/marker?position=120.366697,32.906739&name=%E4%B8%9C%E5%8F%B0%E5%BC%80%E5%8F%91%E5%8C%BA%E6%99%AE%E6%96%B0%E5%8A%A8%E7%89%A9%E9%97%A8%E8%AF%8A%E9%83%A8&src=vetmap&coordinate=gaode&callnative=1","route_id":"r1","route_name":"第1段","global_order":6},{"name":"汪喵宠物诊所","address":"正方·上林苑东南门西南60米","phone":"19962366909","category":"医疗保健服务;动物医疗场所;宠物诊所","area":"","lng":120.319908,"lat":32.870908,"amap_id":"B0JAK7P31P","order":7,"prev_distance_km":5.913,"cumulative_distance_km":29.851,"amap_marker_url":"https://uri.amap.com/marker?position=120.319908,32.870908&name=%E6%B1%AA%E5%96%B5%E5%AE%A0%E7%89%A9%E8%AF%8A%E6%89%80&src=vetmap&coordinate=gaode&callnative=1","route_id":"r1","route_name":"第1段","global_order":7},{"name":"甜橙宠物诊所","address":"吉庆路36国宾府一幢10007室","phone":"13390706667","category":"医疗保健服务;动物医疗场所;宠物诊所","area":"","lng":120.327543,"lat":32.862937,"amap_id":"B0H2MC45AY","order":8,"prev_distance_km":1.138,"cumulative_distance_km":30.989,"amap_marker_url":"https://uri.amap.com/marker?position=120.327543,32.862937&name=%E7%94%9C%E6%A9%99%E5%AE%A0%E7%89%A9%E8%AF%8A%E6%89%80&src=vetmap&coordinate=gaode&callnative=1","route_id":"r1","route_name":"第1段","global_order":8},{"name":"时代豪庭宠物医院","address":"富腾路86号时代豪庭1幢103室","phone":"15371330897","category":"医疗保健服务;动物医疗场所;宠物诊所","area":"","lng":120.33769,"lat":32.851565,"amap_id":"B0FFK8KJI9","order":9,"prev_distance_km":1.58,"cumulative_distance_km":32.569,"amap_marker_url":"https://uri.amap.com/marker?position=120.337690,32.851565&name=%E6%97%B6%E4%BB%A3%E8%B1%AA%E5%BA%AD%E5%AE%A0%E7%89%A9%E5%8C%BB%E9%99%A2&src=vetmap&coordinate=gaode&callnative=1","route_id":"r1","route_name":"第1段","global_order":9},{"name":"东台市畜牧兽医站","address":"富腾路15号","phone":"","category":"医疗保健服务;动物医疗场所;兽医站","area":"","lng":120.33343,"lat":32.851129,"amap_id":"B02030IDTK","order":10,"prev_distance_km":0.401,"cumulative_distance_km":32.97,"amap_marker_url":"https://uri.amap.com/marker?position=120.333430,32.851129&name=%E4%B8%9C%E5%8F%B0%E5%B8%82%E7%95%9C%E7%89%A7%E5%85%BD%E5%8C%BB%E7%AB%99&src=vetmap&coordinate=gaode&callnative=1","route_id":"r1","route_name":"第1段","global_order":10},{"name":"哆乐毛球宠物药房东台店","address":"华联路70-10号","phone":"15851022750","category":"医疗保健服务;动物医疗场所;动物医疗场所","area":"","lng":120.325447,"lat":32.852965,"amap_id":"B0L255CKJO","order":11,"prev_distance_km":0.773,"cumulative_distance_km":33.743,"amap_marker_url":"https://uri.amap.com/marker?position=120.325447,32.852965&name=%E5%93%86%E4%B9%90%E6%AF%9B%E7%90%83%E5%AE%A0%E7%89%A9%E8%8D%AF%E6%88%BF%E4%B8%9C%E5%8F%B0%E5%BA%97&src=vetmap&coordinate=gaode&callnative=1","route_id":"r1","route_name":"第1段","global_order":11},{"name":"东台市佳爱宠物医院","address":"何垛路39-5号商铺都市名苑","phone":"18248768889","category":"医疗保健服务;动物医疗场所;宠物诊所","area":"","lng":120.323994,"lat":32.854183,"amap_id":"B0G1A5ZAIN","order":12,"prev_distance_km":0.192,"cumulative_distance_km":33.935,"amap_marker_url":"https://uri.amap.com/marker?position=120.323994,32.854183&name=%E4%B8%9C%E5%8F%B0%E5%B8%82%E4%BD%B3%E7%88%B1%E5%AE%A0%E7%89%A9%E5%8C%BB%E9%99%A2&src=vetmap&coordinate=gaode&callnative=1","route_id":"r1","route_name":"第1段","global_order":12},{"name":"酷迪宠物医院(圆融广场店)","address":"望海东路圆融广场29-16","phone":"18962033659","category":"医疗保健服务;动物医疗场所;宠物诊所","area":"","lng":120.324363,"lat":32.850144,"amap_id":"B0FFM2RET1","order":13,"prev_distance_km":0.45,"cumulative_distance_km":34.385,"amap_marker_url":"https://uri.amap.com/marker?position=120.324363,32.850144&name=%E9%85%B7%E8%BF%AA%E5%AE%A0%E7%89%A9%E5%8C%BB%E9%99%A2%28%E5%9C%86%E8%9E%8D%E5%B9%BF%E5%9C%BA%E5%BA%97%29&src=vetmap&coordinate=gaode&callnative=1","route_id":"r1","route_name":"第1段","global_order":13},{"name":"心诚宠物医院","address":"鼓楼东路287-1号(百岁园新合作超市对面)","phone":"19826320811","category":"医疗保健服务;动物医疗场所;宠物诊所","area":"","lng":120.323479,"lat":32.844239,"amap_id":"B0JU4XDVQ9","order":14,"prev_distance_km":0.662,"cumulative_distance_km":35.047,"amap_marker_url":"https://uri.amap.com/marker?position=120.323479,32.844239&name=%E5%BF%83%E8%AF%9A%E5%AE%A0%E7%89%A9%E5%8C%BB%E9%99%A2&src=vetmap&coordinate=gaode&callnative=1","route_id":"r1","route_name":"第1段","global_order":14},{"name":"派豆宠物医院24H·腹腔镜微创中心·内窥镜·骨科","address":"吉祥路99-10号金鹰盛世花园67幢110室110-1室","phone":"0515-85223329;13770293329","category":"医疗保健服务;动物医疗场所;宠物诊所","area":"","lng":120.327814,"lat":32.844178,"amap_id":"B0HD0DYY2O","order":15,"prev_distance_km":0.405,"cumulative_distance_km":35.452,"amap_marker_url":"https://uri.amap.com/marker?position=120.327814,32.844178&name=%E6%B4%BE%E8%B1%86%E5%AE%A0%E7%89%A9%E5%8C%BB%E9%99%A224H%C2%B7%E8%85%B9%E8%85%94%E9%95%9C%E5%BE%AE%E5%88%9B%E4%B8%AD%E5%BF%83%C2%B7%E5%86%85%E7%AA%A5%E9%95%9C%C2%B7%E9%AA%A8%E7%A7%91&src=vetmap&coordinate=gaode&callnative=1","route_id":"r1","route_name":"第1段","global_order":15},{"name":"朵朵宠物SPA","address":"长金路与裕丰巷交叉口东南160米","phone":"","category":"医疗保健服务;动物医疗场所;动物医疗场所","area":"","lng":120.331054,"lat":32.840003,"amap_id":"B0JUMSCOX8","order":16,"prev_distance_km":0.554,"cumulative_distance_km":36.006,"amap_marker_url":"https://uri.amap.com/marker?position=120.331054,32.840003&name=%E6%9C%B5%E6%9C%B5%E5%AE%A0%E7%89%A9SPA&src=vetmap&coordinate=gaode&callnative=1","route_id":"r1","route_name":"第1段","global_order":16},{"name":"宠乖乖宠物诊疗中心(金水湾店)","address":"东园路98号金水湾东门四区25号楼105室","phone":"13584763115;17851638201","category":"医疗保健服务;动物医疗场所;宠物诊所","area":"","lng":120.333341,"lat":32.836042,"amap_id":"B0LDLMNOWN","order":17,"prev_distance_km":0.49,"cumulative_distance_km":36.496,"amap_marker_url":"https://uri.amap.com/marker?position=120.333341,32.836042&name=%E5%AE%A0%E4%B9%96%E4%B9%96%E5%AE%A0%E7%89%A9%E8%AF%8A%E7%96%97%E4%B8%AD%E5%BF%83%28%E9%87%91%E6%B0%B4%E6%B9%BE%E5%BA%97%29&src=vetmap&coordinate=gaode&callnative=1","route_id":"r1","route_name":"第1段","global_order":17},{"name":"爱牧家宠物诊所","address":"龙晶河滨花园1号楼18号","phone":"13851304668","category":"医疗保健服务;动物医疗场所;宠物诊所","area":"","lng":120.317251,"lat":32.838929,"amap_id":"B0G394KVXI","order":18,"prev_distance_km":1.537,"cumulative_distance_km":38.033,"amap_marker_url":"https://uri.amap.com/marker?position=120.317251,32.838929&name=%E7%88%B1%E7%89%A7%E5%AE%B6%E5%AE%A0%E7%89%A9%E8%AF%8A%E6%89%80&src=vetmap&coordinate=gaode&callnative=1","route_id":"r1","route_name":"第1段","global_order":18},{"name":"瑞慈宠物医院","address":"海陵南路36-36号","phone":"13961020333;15295200333","category":"医疗保健服务;动物医疗场所;宠物诊所","area":"","lng":120.318084,"lat":32.839461,"amap_id":"B0JU5S69MC","order":19,"prev_distance_km":0.098,"cumulative_distance_km":38.131,"amap_marker_url":"https://uri.amap.com/marker?position=120.318084,32.839461&name=%E7%91%9E%E6%85%88%E5%AE%A0%E7%89%A9%E5%8C%BB%E9%99%A2&src=vetmap&coordinate=gaode&callnative=1","route_id":"r1","route_name":"第1段","global_order":19},{"name":"何垛宠物诊所","address":"东台镇东达路1号","phone":"0515-85109168;18914662228","category":"医疗保健服务;动物医疗场所;宠物诊所","area":"","lng":120.319282,"lat":32.855106,"amap_id":"B0FFGXH43L","order":20,"prev_distance_km":1.743,"cumulative_distance_km":39.874,"amap_marker_url":"https://uri.amap.com/marker?position=120.319282,32.855106&name=%E4%BD%95%E5%9E%9B%E5%AE%A0%E7%89%A9%E8%AF%8A%E6%89%80&src=vetmap&coordinate=gaode&callnative=1","route_id":"r1","route_name":"第1段","global_order":20},{"name":"宠爱之家宠物诊所","address":"红兰中路11-12","phone":"13851036886","category":"医疗保健服务;动物医疗场所;宠物诊所","area":"","lng":120.314843,"lat":32.85367,"amap_id":"B0J09CYB1V","order":21,"prev_distance_km":0.444,"cumulative_distance_km":40.318,"amap_marker_url":"https://uri.amap.com/marker?position=120.314843,32.853670&name=%E5%AE%A0%E7%88%B1%E4%B9%8B%E5%AE%B6%E5%AE%A0%E7%89%A9%E8%AF%8A%E6%89%80&src=vetmap&coordinate=gaode&callnative=1","route_id":"r1","route_name":"第1段","global_order":21},{"name":"左右宠艺动物医院","address":"东台镇东亭南路26-2号","phone":"13605110279","category":"医疗保健服务;动物医疗场所;宠物诊所","area":"","lng":120.308987,"lat":32.84795,"amap_id":"B0FFKE05PE","order":22,"prev_distance_km":0.839,"cumulative_distance_km":41.157,"amap_marker_url":"https://uri.amap.com/marker?position=120.308987,32.847950&name=%E5%B7%A6%E5%8F%B3%E5%AE%A0%E8%89%BA%E5%8A%A8%E7%89%A9%E5%8C%BB%E9%99%A2&src=vetmap&coordinate=gaode&callnative=1","route_id":"r1","route_name":"第1段","global_order":22},{"name":"爱贝康宠物医院","address":"宁树路276号","phone":"","category":"医疗保健服务;动物医疗场所;宠物诊所","area":"","lng":120.300163,"lat":32.847132,"amap_id":"B0J0C7CSMJ","order":23,"prev_distance_km":0.829,"cumulative_distance_km":41.987,"amap_marker_url":"https://uri.amap.com/marker?position=120.300163,32.847132&name=%E7%88%B1%E8%B4%9D%E5%BA%B7%E5%AE%A0%E7%89%A9%E5%8C%BB%E9%99%A2&src=vetmap&coordinate=gaode&callnative=1","route_id":"r1","route_name":"第1段","global_order":23},{"name":"东台市云龙动物诊所","address":"廉广线与东五线交叉口北40米","phone":"0515-85421391;0515-85424185;13914664858","category":"医疗保健服务;动物医疗场所;宠物诊所","area":"","lng":120.244254,"lat":32.854055,"amap_id":"B0203174IR","order":24,"prev_distance_km":5.279,"cumulative_distance_km":47.266,"amap_marker_url":"https://uri.amap.com/marker?position=120.244254,32.854055&name=%E4%B8%9C%E5%8F%B0%E5%B8%82%E4%BA%91%E9%BE%99%E5%8A%A8%E7%89%A9%E8%AF%8A%E6%89%80&src=vetmap&coordinate=gaode&callnative=1","route_id":"r1","route_name":"第1段","global_order":24},{"name":"时堰镇兽医站","address":"弶溱线与兴时路交叉口北80米","phone":"","category":"医疗保健服务;动物医疗场所;兽医站","area":"","lng":120.18869,"lat":32.71694,"amap_id":"B0K3X532WB","order":25,"prev_distance_km":16.107,"cumulative_distance_km":63.373,"amap_marker_url":"https://uri.amap.com/marker?position=120.188690,32.716940&name=%E6%97%B6%E5%A0%B0%E9%95%87%E5%85%BD%E5%8C%BB%E7%AB%99&src=vetmap&coordinate=gaode&callnative=1","route_id":"r1","route_name":"第1段","global_order":25},{"name":"茂华动物诊疗所","address":"后港社区文港路8号","phone":"0515-85541587","category":"医疗保健服务;动物医疗场所;宠物诊所","area":"","lng":120.261367,"lat":32.684929,"amap_id":"B0FFGBIA2U","order":26,"prev_distance_km":7.676,"cumulative_distance_km":71.049,"amap_marker_url":"https://uri.amap.com/marker?position=120.261367,32.684929&name=%E8%8C%82%E5%8D%8E%E5%8A%A8%E7%89%A9%E8%AF%8A%E7%96%97%E6%89%80&src=vetmap&coordinate=gaode&callnative=1","route_id":"r1","route_name":"第1段","global_order":26},{"name":"粱垛镇梁牧动物诊疗门诊部","address":"梁垛镇磊达路","phone":"","category":"医疗保健服务;动物医疗场所;动物医疗场所","area":"","lng":120.372274,"lat":32.775201,"amap_id":"B0K1N1RWFW","order":27,"prev_distance_km":14.435,"cumulative_distance_km":85.484,"amap_marker_url":"https://uri.amap.com/marker?position=120.372274,32.775201&name=%E7%B2%B1%E5%9E%9B%E9%95%87%E6%A2%81%E7%89%A7%E5%8A%A8%E7%89%A9%E8%AF%8A%E7%96%97%E9%97%A8%E8%AF%8A%E9%83%A8&src=vetmap&coordinate=gaode&callnative=1","route_id":"r1","route_name":"第1段","global_order":27},{"name":"东台市安丰镇大港动物门诊部","address":"安丰镇大港村一组","phone":"13305110189;15905110189","category":"医疗保健服务;动物医疗场所;宠物诊所","area":"","lng":120.39841,"lat":32.724402,"amap_id":"B0FFLE3DJ2","order":28,"prev_distance_km":6.155,"cumulative_distance_km":91.639,"amap_marker_url":"https://uri.amap.com/marker?position=120.398410,32.724402&name=%E4%B8%9C%E5%8F%B0%E5%B8%82%E5%AE%89%E4%B8%B0%E9%95%87%E5%A4%A7%E6%B8%AF%E5%8A%A8%E7%89%A9%E9%97%A8%E8%AF%8A%E9%83%A8&src=vetmap&coordinate=gaode&callnative=1","route_id":"r1","route_name":"第1段","global_order":28},{"name":"东台市安丰镇畜牧兽医站","address":"烟沪线与安时路交叉口东南80米","phone":"","category":"医疗保健服务;动物医疗场所;兽医站","area":"","lng":120.408627,"lat":32.729941,"amap_id":"B0FFJSVQWC","order":29,"prev_distance_km":1.137,"cumulative_distance_km":92.776,"amap_marker_url":"https://uri.amap.com/marker?position=120.408627,32.729941&name=%E4%B8%9C%E5%8F%B0%E5%B8%82%E5%AE%89%E4%B8%B0%E9%95%87%E7%95%9C%E7%89%A7%E5%85%BD%E5%8C%BB%E7%AB%99&src=vetmap&coordinate=gaode&callnative=1","route_id":"r1","route_name":"第1段","global_order":29},{"name":"东台安丰镇科牧动物诊所","address":"安丰镇科牧动物诊所","phone":"","category":"医疗保健服务;动物医疗场所;兽医站","area":"","lng":120.410045,"lat":32.731885,"amap_id":"B0KGG57YR5","order":30,"prev_distance_km":0.254,"cumulative_distance_km":93.029,"amap_marker_url":"https://uri.amap.com/marker?position=120.410045,32.731885&name=%E4%B8%9C%E5%8F%B0%E5%AE%89%E4%B8%B0%E9%95%87%E7%A7%91%E7%89%A7%E5%8A%A8%E7%89%A9%E8%AF%8A%E6%89%80&src=vetmap&coordinate=gaode&callnative=1","route_id":"r1","route_name":"第1段","global_order":30},{"name":"东台市富安镇畜牧兽医站","address":"G204(烟沪线)","phone":"","category":"医疗保健服务;动物医疗场所;兽医站","area":"","lng":120.474423,"lat":32.678155,"amap_id":"B0FFKKTW2X","order":31,"prev_distance_km":8.484,"cumulative_distance_km":101.513,"amap_marker_url":"https://uri.amap.com/marker?position=120.474423,32.678155&name=%E4%B8%9C%E5%8F%B0%E5%B8%82%E5%AF%8C%E5%AE%89%E9%95%87%E7%95%9C%E7%89%A7%E5%85%BD%E5%8C%BB%E7%AB%99&src=vetmap&coordinate=gaode&callnative=1","route_id":"r1","route_name":"第1段","global_order":31},{"name":"东台市富安镇王勇动物诊疗所","address":"头富线与永东路交叉口西南40米","phone":"","category":"医疗保健服务;动物医疗场所;宠物诊所","area":"","lng":120.553979,"lat":32.677457,"amap_id":"B0G1ZO6JQF","order":32,"prev_distance_km":7.446,"cumulative_distance_km":108.96,"amap_marker_url":"https://uri.amap.com/marker?position=120.553979,32.677457&name=%E4%B8%9C%E5%8F%B0%E5%B8%82%E5%AF%8C%E5%AE%89%E9%95%87%E7%8E%8B%E5%8B%87%E5%8A%A8%E7%89%A9%E8%AF%8A%E7%96%97%E6%89%80&src=vetmap&coordinate=gaode&callnative=1","route_id":"r1","route_name":"第1段","global_order":32},{"name":"东台市南沈灶镇万佳动物诊所","address":"府前西路69号","phone":"13851029609","category":"医疗保健服务;动物医疗场所;宠物诊所","area":"","lng":120.531941,"lat":32.779597,"amap_id":"B0FFFZ28SK","order":33,"prev_distance_km":11.543,"cumulative_distance_km":120.503,"amap_marker_url":"https://uri.amap.com/marker?position=120.531941,32.779597&name=%E4%B8%9C%E5%8F%B0%E5%B8%82%E5%8D%97%E6%B2%88%E7%81%B6%E9%95%87%E4%B8%87%E4%BD%B3%E5%8A%A8%E7%89%A9%E8%AF%8A%E6%89%80&src=vetmap&coordinate=gaode&callnative=1","route_id":"r1","route_name":"第1段","global_order":33},{"name":"丰平动物诊所","address":"红旗路与何家路交叉口北340米","phone":"","category":"医疗保健服务;动物医疗场所;宠物诊所","area":"","lng":120.630804,"lat":32.73867,"amap_id":"B0J2A71PFC","order":34,"prev_distance_km":10.304,"cumulative_distance_km":130.807,"amap_marker_url":"https://uri.amap.com/marker?position=120.630804,32.738670&name=%E4%B8%B0%E5%B9%B3%E5%8A%A8%E7%89%A9%E8%AF%8A%E6%89%80&src=vetmap&coordinate=gaode&callnative=1","route_id":"r1","route_name":"第1段","global_order":34},{"name":"东台市三仓镇诚德动物诊所","address":"新街镇新桥居委会向东150米路北","phone":"","category":"医疗保健服务;动物医疗场所;宠物诊所","area":"","lng":120.664097,"lat":32.76024,"amap_id":"B0FFG7I9J3","order":35,"prev_distance_km":3.93,"cumulative_distance_km":134.737,"amap_marker_url":"https://uri.amap.com/marker?position=120.664097,32.760240&name=%E4%B8%9C%E5%8F%B0%E5%B8%82%E4%B8%89%E4%BB%93%E9%95%87%E8%AF%9A%E5%BE%B7%E5%8A%A8%E7%89%A9%E8%AF%8A%E6%89%80&src=vetmap&coordinate=gaode&callnative=1","route_id":"r1","route_name":"第1段","global_order":35},{"name":"金牧动物门诊部","address":"黄海南路68号","phone":"0515-85622993","category":"医疗保健服务;动物医疗场所;宠物诊所","area":"","lng":120.683325,"lat":32.759625,"amap_id":"B0FFG9WEY5","order":36,"prev_distance_km":1.799,"cumulative_distance_km":136.537,"amap_marker_url":"https://uri.amap.com/marker?position=120.683325,32.759625&name=%E9%87%91%E7%89%A7%E5%8A%A8%E7%89%A9%E9%97%A8%E8%AF%8A%E9%83%A8&src=vetmap&coordinate=gaode&callnative=1","route_id":"r1","route_name":"第1段","global_order":36},{"name":"许河镇方塘桥动物诊疗所","address":"226省道与方塘河北路交叉口东北20米","phone":"15962036086","category":"医疗保健服务;动物医疗场所;宠物诊所","area":"","lng":120.688667,"lat":32.673532,"amap_id":"B0FFJSVNXC","order":37,"prev_distance_km":9.586,"cumulative_distance_km":146.123,"amap_marker_url":"https://uri.amap.com/marker?position=120.688667,32.673532&name=%E8%AE%B8%E6%B2%B3%E9%95%87%E6%96%B9%E5%A1%98%E6%A1%A5%E5%8A%A8%E7%89%A9%E8%AF%8A%E7%96%97%E6%89%80&src=vetmap&coordinate=gaode&callnative=1","route_id":"r1","route_name":"第1段","global_order":37},{"name":"红花动物诊疗所","address":"黄海街","phone":"15962050832","category":"医疗保健服务;动物医疗场所;兽医站","area":"","lng":120.694134,"lat":32.640869,"amap_id":"B0FFGAJZOJ","order":38,"prev_distance_km":3.668,"cumulative_distance_km":149.791,"amap_marker_url":"https://uri.amap.com/marker?position=120.694134,32.640869&name=%E7%BA%A2%E8%8A%B1%E5%8A%A8%E7%89%A9%E8%AF%8A%E7%96%97%E6%89%80&src=vetmap&coordinate=gaode&callnative=1","route_id":"r1","route_name":"第1段","global_order":38},{"name":"东台市唐洋鹏程动物诊疗服务中心","address":"黄海街","phone":"0515-85652555","category":"医疗保健服务;动物医疗场所;动物医疗场所","area":"","lng":120.694264,"lat":32.629903,"amap_id":"B020318Y91","order":39,"prev_distance_km":1.219,"cumulative_distance_km":151.01,"amap_marker_url":"https://uri.amap.com/marker?position=120.694264,32.629903&name=%E4%B8%9C%E5%8F%B0%E5%B8%82%E5%94%90%E6%B4%8B%E9%B9%8F%E7%A8%8B%E5%8A%A8%E7%89%A9%E8%AF%8A%E7%96%97%E6%9C%8D%E5%8A%A1%E4%B8%AD%E5%BF%83&src=vetmap&coordinate=gaode&callnative=1","route_id":"r1","route_name":"第1段","global_order":39},{"name":"爱国动物诊疗所","address":"东台·唐洋砖瓦厂西南侧","phone":"","category":"医疗保健服务;动物医疗场所;宠物诊所","area":"","lng":120.660058,"lat":32.605241,"amap_id":"B0L3H7A3DV","order":40,"prev_distance_km":4.217,"cumulative_distance_km":155.227,"amap_marker_url":"https://uri.amap.com/marker?position=120.660058,32.605241&name=%E7%88%B1%E5%9B%BD%E5%8A%A8%E7%89%A9%E8%AF%8A%E7%96%97%E6%89%80&src=vetmap&coordinate=gaode&callnative=1","route_id":"r1","route_name":"第1段","global_order":40},{"name":"唐洋兽医站","address":"幸福路与红旗河南路交叉口南200米","phone":"","category":"医疗保健服务;动物医疗场所;兽医站","area":"","lng":120.701252,"lat":32.625468,"amap_id":"B0FFJRNL2X","order":41,"prev_distance_km":4.466,"cumulative_distance_km":159.693,"amap_marker_url":"https://uri.amap.com/marker?position=120.701252,32.625468&name=%E5%94%90%E6%B4%8B%E5%85%BD%E5%8C%BB%E7%AB%99&src=vetmap&coordinate=gaode&callnative=1","route_id":"r1","route_name":"第1段","global_order":41},{"name":"二总动物门诊部","address":"唐洋镇","phone":"","category":"医疗保健服务;动物医疗场所;宠物诊所","area":"","lng":120.730325,"lat":32.634175,"amap_id":"B0FFI94U7Z","order":42,"prev_distance_km":2.89,"cumulative_distance_km":162.583,"amap_marker_url":"https://uri.amap.com/marker?position=120.730325,32.634175&name=%E4%BA%8C%E6%80%BB%E5%8A%A8%E7%89%A9%E9%97%A8%E8%AF%8A%E9%83%A8&src=vetmap&coordinate=gaode&callnative=1","route_id":"r1","route_name":"第1段","global_order":42},{"name":"新街镇街南动物诊疗所","address":"新街镇小刀专卖店东北侧","phone":"","category":"医疗保健服务;动物医疗场所;宠物诊所","area":"","lng":120.769526,"lat":32.661782,"amap_id":"B0I3F90ZU9","order":43,"prev_distance_km":4.785,"cumulative_distance_km":167.367,"amap_marker_url":"https://uri.amap.com/marker?position=120.769526,32.661782&name=%E6%96%B0%E8%A1%97%E9%95%87%E8%A1%97%E5%8D%97%E5%8A%A8%E7%89%A9%E8%AF%8A%E7%96%97%E6%89%80&src=vetmap&coordinate=gaode&callnative=1","route_id":"r1","route_name":"第1段","global_order":43},{"name":"东台市新街益民动物医院","address":"人民西路与向阳路交叉口西南60米","phone":"","category":"医疗保健服务;动物医疗场所;兽医站","area":"","lng":120.7745,"lat":32.674494,"amap_id":"B020318Y8O","order":44,"prev_distance_km":1.488,"cumulative_distance_km":168.856,"amap_marker_url":"https://uri.amap.com/marker?position=120.774500,32.674494&name=%E4%B8%9C%E5%8F%B0%E5%B8%82%E6%96%B0%E8%A1%97%E7%9B%8A%E6%B0%91%E5%8A%A8%E7%89%A9%E5%8C%BB%E9%99%A2&src=vetmap&coordinate=gaode&callnative=1","route_id":"r1","route_name":"第1段","global_order":44},{"name":"新街兽医站牧健动物宠物诊所","address":"人民西路与向阳路交叉口西60米","phone":"18912519099","category":"医疗保健服务;动物医疗场所;宠物诊所","area":"","lng":120.774476,"lat":32.674639,"amap_id":"B0FFL80DF7","order":45,"prev_distance_km":0.016,"cumulative_distance_km":168.872,"amap_marker_url":"https://uri.amap.com/marker?position=120.774476,32.674639&name=%E6%96%B0%E8%A1%97%E5%85%BD%E5%8C%BB%E7%AB%99%E7%89%A7%E5%81%A5%E5%8A%A8%E7%89%A9%E5%AE%A0%E7%89%A9%E8%AF%8A%E6%89%80&src=vetmap&coordinate=gaode&callnative=1","route_id":"r1","route_name":"第1段","global_order":45},{"name":"东台市三仓镇新进动物门诊部(新农门诊部)","address":"先进路与新东线交叉口西100米","phone":"","category":"医疗保健服务;动物医疗场所;宠物诊所","area":"","lng":120.762686,"lat":32.74685,"amap_id":"B020318Y97","order":46,"prev_distance_km":8.105,"cumulative_distance_km":176.977,"amap_marker_url":"https://uri.amap.com/marker?position=120.762686,32.746850&name=%E4%B8%9C%E5%8F%B0%E5%B8%82%E4%B8%89%E4%BB%93%E9%95%87%E6%96%B0%E8%BF%9B%E5%8A%A8%E7%89%A9%E9%97%A8%E8%AF%8A%E9%83%A8%28%E6%96%B0%E5%86%9C%E9%97%A8%E8%AF%8A%E9%83%A8%29&src=vetmap&coordinate=gaode&callnative=1","route_id":"r1","route_name":"第1段","global_order":46},{"name":"动保超市","address":"","phone":"","category":"医疗保健服务;动物医疗场所;动物医疗场所","area":"","lng":120.933553,"lat":32.841522,"amap_id":"B0K32S8GD9","order":47,"prev_distance_km":19.129,"cumulative_distance_km":196.105,"amap_marker_url":"https://uri.amap.com/marker?position=120.933553,32.841522&name=%E5%8A%A8%E4%BF%9D%E8%B6%85%E5%B8%82&src=vetmap&coordinate=gaode&callnative=1","route_id":"r1","route_name":"第1段","global_order":47}]}