{"summary":{"id":"d00867","province":"江苏省","city":"连云港市","district":"赣榆区","count":25,"total_distance_km":104.379,"coordinate_system":"GCJ-02 / Amap","generated_at":"2026-05-07 20:23:03"},"rows":[{"name":"优格宠物诊所","address":"东风路119号","phone":"","category":"医疗保健服务;动物医疗场所;宠物诊所","area":"","lng":118.950699,"lat":34.732722,"amap_id":"B0K305WN3W","order":1,"prev_distance_km":0.0,"cumulative_distance_km":0.0,"amap_marker_url":"https://uri.amap.com/marker?position=118.950699,34.732722&name=%E4%BC%98%E6%A0%BC%E5%AE%A0%E7%89%A9%E8%AF%8A%E6%89%80&src=vetmap&coordinate=gaode&callnative=1"},{"name":"大岭兽医站","address":"兴中路16号","phone":"13961319656","category":"医疗保健服务;动物医疗场所;兽医站","area":"","lng":118.920192,"lat":34.75698,"amap_id":"B020602J4Z","order":2,"prev_distance_km":3.879,"cumulative_distance_km":3.879,"amap_marker_url":"https://uri.amap.com/marker?position=118.920192,34.756980&name=%E5%A4%A7%E5%B2%AD%E5%85%BD%E5%8C%BB%E7%AB%99&src=vetmap&coordinate=gaode&callnative=1"},{"name":"连云港市赣榆区城头动物防疫服务有限公司","address":"胖丫洗车东侧170米","phone":"","category":"医疗保健服务;动物医疗场所;动物医疗场所","area":"","lng":118.962377,"lat":34.830965,"amap_id":"B0K6HUET8Q","order":3,"prev_distance_km":9.084,"cumulative_distance_km":12.963,"amap_marker_url":"https://uri.amap.com/marker?position=118.962377,34.830965&name=%E8%BF%9E%E4%BA%91%E6%B8%AF%E5%B8%82%E8%B5%A3%E6%A6%86%E5%8C%BA%E5%9F%8E%E5%A4%B4%E5%8A%A8%E7%89%A9%E9%98%B2%E7%96%AB%E6%9C%8D%E5%8A%A1%E6%9C%89%E9%99%90%E5%85%AC%E5%8F%B8&src=vetmap&coordinate=gaode&callnative=1"},{"name":"赣榆区城西动物防疫服务有限公司","address":"青欢线与翠柏路交叉口南80米","phone":"","category":"医疗保健服务;动物医疗场所;动物医疗场所","area":"","lng":119.022899,"lat":34.828026,"amap_id":"B0HDHAESM3","order":4,"prev_distance_km":5.534,"cumulative_distance_km":18.497,"amap_marker_url":"https://uri.amap.com/marker?position=119.022899,34.828026&name=%E8%B5%A3%E6%A6%86%E5%8C%BA%E5%9F%8E%E8%A5%BF%E5%8A%A8%E7%89%A9%E9%98%B2%E7%96%AB%E6%9C%8D%E5%8A%A1%E6%9C%89%E9%99%90%E5%85%AC%E5%8F%B8&src=vetmap&coordinate=gaode&callnative=1"},{"name":"连云港市赣榆区畜牧兽医站(华中南路店)","address":"华中南路69号","phone":"0518-86235510","category":"医疗保健服务;动物医疗场所;兽医站","area":"","lng":119.113214,"lat":34.816164,"amap_id":"B0H2J5U6KH","order":5,"prev_distance_km":8.349,"cumulative_distance_km":26.846,"amap_marker_url":"https://uri.amap.com/marker?position=119.113214,34.816164&name=%E8%BF%9E%E4%BA%91%E6%B8%AF%E5%B8%82%E8%B5%A3%E6%A6%86%E5%8C%BA%E7%95%9C%E7%89%A7%E5%85%BD%E5%8C%BB%E7%AB%99%28%E5%8D%8E%E4%B8%AD%E5%8D%97%E8%B7%AF%E5%BA%97%29&src=vetmap&coordinate=gaode&callnative=1"},{"name":"宋庄动物防疫服务公司","address":"盐殷线与青罗线交叉口西南40米","phone":"","category":"医疗保健服务;动物医疗场所;动物医疗场所","area":"","lng":119.14341,"lat":34.783646,"amap_id":"B0J0C7D05C","order":6,"prev_distance_km":4.547,"cumulative_distance_km":31.393,"amap_marker_url":"https://uri.amap.com/marker?position=119.143410,34.783646&name=%E5%AE%8B%E5%BA%84%E5%8A%A8%E7%89%A9%E9%98%B2%E7%96%AB%E6%9C%8D%E5%8A%A1%E5%85%AC%E5%8F%B8&src=vetmap&coordinate=gaode&callnative=1"},{"name":"福宝宠物","address":"华中南路18-8","phone":"15961316520","category":"医疗保健服务;动物医疗场所;动物医疗场所","area":"","lng":119.123266,"lat":34.830866,"amap_id":"B0JU673FZM","order":7,"prev_distance_km":5.563,"cumulative_distance_km":36.956,"amap_marker_url":"https://uri.amap.com/marker?position=119.123266,34.830866&name=%E7%A6%8F%E5%AE%9D%E5%AE%A0%E7%89%A9&src=vetmap&coordinate=gaode&callnative=1"},{"name":"佳禾宠物医院","address":"青口镇河滨公园繁荣路27号","phone":"18852659005","category":"医疗保健服务;动物医疗场所;宠物诊所","area":"","lng":119.12897,"lat":34.831788,"amap_id":"B0H3T7MZB1","order":8,"prev_distance_km":0.531,"cumulative_distance_km":37.487,"amap_marker_url":"https://uri.amap.com/marker?position=119.128970,34.831788&name=%E4%BD%B3%E7%A6%BE%E5%AE%A0%E7%89%A9%E5%8C%BB%E9%99%A2&src=vetmap&coordinate=gaode&callnative=1"},{"name":"艾尔斯宠物医疗连锁(赣榆店)","address":"东关路东方明珠2号楼110号","phone":"13912154605","category":"医疗保健服务;动物医疗场所;宠物诊所","area":"","lng":119.132132,"lat":34.835244,"amap_id":"B0IA3XK96Y","order":9,"prev_distance_km":0.481,"cumulative_distance_km":37.967,"amap_marker_url":"https://uri.amap.com/marker?position=119.132132,34.835244&name=%E8%89%BE%E5%B0%94%E6%96%AF%E5%AE%A0%E7%89%A9%E5%8C%BB%E7%96%97%E8%BF%9E%E9%94%81%28%E8%B5%A3%E6%A6%86%E5%BA%97%29&src=vetmap&coordinate=gaode&callnative=1"},{"name":"众合宠物医院","address":"青口镇西关路7号地供电小区1号楼3.4门面","phone":"13815633585","category":"医疗保健服务;动物医疗场所;宠物诊所","area":"","lng":119.121529,"lat":34.838504,"amap_id":"B0H0C5X2RR","order":10,"prev_distance_km":1.033,"cumulative_distance_km":39.001,"amap_marker_url":"https://uri.amap.com/marker?position=119.121529,34.838504&name=%E4%BC%97%E5%90%88%E5%AE%A0%E7%89%A9%E5%8C%BB%E9%99%A2&src=vetmap&coordinate=gaode&callnative=1"},{"name":"康乐宠物医院(西关路店)","address":"青口镇黄海西路2-2号","phone":"13382944082","category":"医疗保健服务;动物医疗场所;宠物诊所","area":"","lng":119.118869,"lat":34.840953,"amap_id":"B02060P96Y","order":11,"prev_distance_km":0.365,"cumulative_distance_km":39.366,"amap_marker_url":"https://uri.amap.com/marker?position=119.118869,34.840953&name=%E5%BA%B7%E4%B9%90%E5%AE%A0%E7%89%A9%E5%8C%BB%E9%99%A2%28%E8%A5%BF%E5%85%B3%E8%B7%AF%E5%BA%97%29&src=vetmap&coordinate=gaode&callnative=1"},{"name":"旺旺宠物洗护工作室","address":"黄海西路与义塘路交叉口东北20米","phone":"","category":"医疗保健服务;动物医疗场所;动物医疗场所","area":"","lng":119.115509,"lat":34.840961,"amap_id":"B0KG5Z57M0","order":12,"prev_distance_km":0.307,"cumulative_distance_km":39.672,"amap_marker_url":"https://uri.amap.com/marker?position=119.115509,34.840961&name=%E6%97%BA%E6%97%BA%E5%AE%A0%E7%89%A9%E6%B4%97%E6%8A%A4%E5%B7%A5%E4%BD%9C%E5%AE%A4&src=vetmap&coordinate=gaode&callnative=1"},{"name":"宠波宠物","address":"翰林公寓西南门旁","phone":"","category":"医疗保健服务;动物医疗场所;宠物诊所","area":"","lng":119.118825,"lat":34.841575,"amap_id":"B0LR15S12P","order":13,"prev_distance_km":0.31,"cumulative_distance_km":39.982,"amap_marker_url":"https://uri.amap.com/marker?position=119.118825,34.841575&name=%E5%AE%A0%E6%B3%A2%E5%AE%A0%E7%89%A9&src=vetmap&coordinate=gaode&callnative=1"},{"name":"乐园宠物诊所","address":"青口镇东关路县镇东制衣厂宿舍底层北三户27-5","phone":"15151219995;19850683838","category":"医疗保健服务;动物医疗场所;宠物诊所","area":"","lng":119.133227,"lat":34.842992,"amap_id":"B0FFH01UKU","order":14,"prev_distance_km":1.324,"cumulative_distance_km":41.306,"amap_marker_url":"https://uri.amap.com/marker?position=119.133227,34.842992&name=%E4%B9%90%E5%9B%AD%E5%AE%A0%E7%89%A9%E8%AF%8A%E6%89%80&src=vetmap&coordinate=gaode&callnative=1"},{"name":"贝佳艾宠物诊所","address":"青口镇金海路东成山庄1号商铺","phone":"","category":"医疗保健服务;动物医疗场所;宠物诊所","area":"","lng":119.138202,"lat":34.849393,"amap_id":"B0LR0ZMPZI","order":15,"prev_distance_km":0.844,"cumulative_distance_km":42.15,"amap_marker_url":"https://uri.amap.com/marker?position=119.138202,34.849393&name=%E8%B4%9D%E4%BD%B3%E8%89%BE%E5%AE%A0%E7%89%A9%E8%AF%8A%E6%89%80&src=vetmap&coordinate=gaode&callnative=1"},{"name":"友爱动物医院","address":"黄海大道75-7号","phone":"18012165065","category":"医疗保健服务;动物医疗场所;宠物诊所","area":"","lng":119.137957,"lat":34.840274,"amap_id":"B0KRJ50EUF","order":16,"prev_distance_km":1.014,"cumulative_distance_km":43.165,"amap_marker_url":"https://uri.amap.com/marker?position=119.137957,34.840274&name=%E5%8F%8B%E7%88%B1%E5%8A%A8%E7%89%A9%E5%8C%BB%E9%99%A2&src=vetmap&coordinate=gaode&callnative=1"},{"name":"相依相偎动物医院","address":"赣榆区黄海大道79-7号(汽车检测中心综合楼一楼第3.4号门面)","phone":"15151211797","category":"医疗保健服务;动物医疗场所;宠物诊所","area":"","lng":119.139712,"lat":34.840099,"amap_id":"B0I3KH96JZ","order":17,"prev_distance_km":0.161,"cumulative_distance_km":43.326,"amap_marker_url":"https://uri.amap.com/marker?position=119.139712,34.840099&name=%E7%9B%B8%E4%BE%9D%E7%9B%B8%E5%81%8E%E5%8A%A8%E7%89%A9%E5%8C%BB%E9%99%A2&src=vetmap&coordinate=gaode&callnative=1"},{"name":"飞尔动物医院","address":"黄海东路289-15","phone":"19517856663","category":"医疗保健服务;动物医疗场所;动物医疗场所","area":"","lng":119.155167,"lat":34.839582,"amap_id":"B0KUA70KJ1","order":18,"prev_distance_km":1.412,"cumulative_distance_km":44.738,"amap_marker_url":"https://uri.amap.com/marker?position=119.155167,34.839582&name=%E9%A3%9E%E5%B0%94%E5%8A%A8%E7%89%A9%E5%8C%BB%E9%99%A2&src=vetmap&coordinate=gaode&callnative=1"},{"name":"乐宠宠物","address":"飞尔·世纪花园南门旁","phone":"15951213275","category":"医疗保健服务;动物医疗场所;动物医疗场所","area":"","lng":119.155914,"lat":34.839611,"amap_id":"B0L39DRXU4","order":19,"prev_distance_km":0.068,"cumulative_distance_km":44.806,"amap_marker_url":"https://uri.amap.com/marker?position=119.155914,34.839611&name=%E4%B9%90%E5%AE%A0%E5%AE%A0%E7%89%A9&src=vetmap&coordinate=gaode&callnative=1"},{"name":"佳禾宠物医疗","address":"海头镇海前村万达超市南52米","phone":"18852659005;19852283527","category":"医疗保健服务;动物医疗场所;宠物诊所","area":"","lng":119.174245,"lat":34.930167,"amap_id":"B0L1O5OBBY","order":20,"prev_distance_km":10.207,"cumulative_distance_km":55.013,"amap_marker_url":"https://uri.amap.com/marker?position=119.174245,34.930167&name=%E4%BD%B3%E7%A6%BE%E5%AE%A0%E7%89%A9%E5%8C%BB%E7%96%97&src=vetmap&coordinate=gaode&callnative=1"},{"name":"怡家宠物","address":"九里村一袋零食隔壁","phone":"","category":"医疗保健服务;动物医疗场所;动物医疗场所","area":"","lng":119.206031,"lat":35.015385,"amap_id":"B0LAT53JB2","order":21,"prev_distance_km":9.909,"cumulative_distance_km":64.922,"amap_marker_url":"https://uri.amap.com/marker?position=119.206031,35.015385&name=%E6%80%A1%E5%AE%B6%E5%AE%A0%E7%89%A9&src=vetmap&coordinate=gaode&callnative=1"},{"name":"赣榆正旺兽药店","address":"中华路","phone":"","category":"医疗保健服务;动物医疗场所;动物医疗场所","area":"","lng":119.235022,"lat":35.078165,"amap_id":"B0GUUG1559","order":22,"prev_distance_km":7.463,"cumulative_distance_km":72.385,"amap_marker_url":"https://uri.amap.com/marker?position=119.235022,35.078165&name=%E8%B5%A3%E6%A6%86%E6%AD%A3%E6%97%BA%E5%85%BD%E8%8D%AF%E5%BA%97&src=vetmap&coordinate=gaode&callnative=1"},{"name":"连云港市赣榆区石桥动物防疫服务公司","address":"海天路与兴桥路交叉口西160米","phone":"13655142690","category":"医疗保健服务;动物医疗场所;兽医站","area":"","lng":119.169962,"lat":35.047036,"amap_id":"B0I0PR11S7","order":23,"prev_distance_km":6.859,"cumulative_distance_km":79.244,"amap_marker_url":"https://uri.amap.com/marker?position=119.169962,35.047036&name=%E8%BF%9E%E4%BA%91%E6%B8%AF%E5%B8%82%E8%B5%A3%E6%A6%86%E5%8C%BA%E7%9F%B3%E6%A1%A5%E5%8A%A8%E7%89%A9%E9%98%B2%E7%96%AB%E6%9C%8D%E5%8A%A1%E5%85%AC%E5%8F%B8&src=vetmap&coordinate=gaode&callnative=1"},{"name":"召朋兽药店","address":"石黑线与金五路交叉口东140米","phone":"13805128596;15161339819","category":"医疗保健服务;动物医疗场所;动物医疗场所","area":"","lng":119.080136,"lat":35.017638,"amap_id":"B0FFFX3RIX","order":24,"prev_distance_km":8.808,"cumulative_distance_km":88.051,"amap_marker_url":"https://uri.amap.com/marker?position=119.080136,35.017638&name=%E5%8F%AC%E6%9C%8B%E5%85%BD%E8%8D%AF%E5%BA%97&src=vetmap&coordinate=gaode&callnative=1"},{"name":"赣榆区黑林动物防疫服务有限公司","address":"242省道与中心街交叉口东南40米","phone":"","category":"医疗保健服务;动物医疗场所;动物医疗场所","area":"","lng":118.901475,"lat":35.005475,"amap_id":"B0M6MRV9JN","order":25,"prev_distance_km":16.327,"cumulative_distance_km":104.379,"amap_marker_url":"https://uri.amap.com/marker?position=118.901475,35.005475&name=%E8%B5%A3%E6%A6%86%E5%8C%BA%E9%BB%91%E6%9E%97%E5%8A%A8%E7%89%A9%E9%98%B2%E7%96%AB%E6%9C%8D%E5%8A%A1%E6%9C%89%E9%99%90%E5%85%AC%E5%8F%B8&src=vetmap&coordinate=gaode&callnative=1"}]}