{"summary":{"id":"d00802","province":"江苏省","city":"宿迁市","district":"泗阳县","count":23,"total_distance_km":77.162,"coordinate_system":"GCJ-02 / Amap","generated_at":"2026-05-07 20:22:32"},"rows":[{"name":"威峰兽药","address":"156乡道与310县道交叉口西150米","phone":"15189095929","category":"医疗保健服务;动物医疗场所;兽医站","area":"","lng":118.757025,"lat":33.484473,"amap_id":"B0FFG3B4PO","order":1,"prev_distance_km":0.0,"cumulative_distance_km":0.0,"amap_marker_url":"https://uri.amap.com/marker?position=118.757025,33.484473&name=%E5%A8%81%E5%B3%B0%E5%85%BD%E8%8D%AF&src=vetmap&coordinate=gaode&callnative=1"},{"name":"新裴畜牧兽医服务有限公司","address":"152乡道与众裴线交叉口西南140米","phone":"","category":"医疗保健服务;动物医疗场所;兽医站","area":"","lng":118.71399,"lat":33.49645,"amap_id":"B0KGHH1JHI","order":2,"prev_distance_km":4.207,"cumulative_distance_km":4.207,"amap_marker_url":"https://uri.amap.com/marker?position=118.713990,33.496450&name=%E6%96%B0%E8%A3%B4%E7%95%9C%E7%89%A7%E5%85%BD%E5%8C%BB%E6%9C%8D%E5%8A%A1%E6%9C%89%E9%99%90%E5%85%AC%E5%8F%B8&src=vetmap&coordinate=gaode&callnative=1"},{"name":"动物门诊","address":"众裴线与152乡道交叉口西140米","phone":"13815752993;15189097516","category":"医疗保健服务;动物医疗场所;兽医站","area":"","lng":118.713565,"lat":33.497777,"amap_id":"B0FFJZ5FTR","order":3,"prev_distance_km":0.153,"cumulative_distance_km":4.36,"amap_marker_url":"https://uri.amap.com/marker?position=118.713565,33.497777&name=%E5%8A%A8%E7%89%A9%E9%97%A8%E8%AF%8A&src=vetmap&coordinate=gaode&callnative=1"},{"name":"新袁兽医站","address":"北京路与众裴线交叉口东100米","phone":"","category":"医疗保健服务;动物医疗场所;兽医站","area":"","lng":118.752877,"lat":33.54597,"amap_id":"B0FFJ54NH1","order":4,"prev_distance_km":6.481,"cumulative_distance_km":10.84,"amap_marker_url":"https://uri.amap.com/marker?position=118.752877,33.545970&name=%E6%96%B0%E8%A2%81%E5%85%BD%E5%8C%BB%E7%AB%99&src=vetmap&coordinate=gaode&callnative=1"},{"name":"新德生畜禽服务部","address":"仁和路58号","phone":"13773977928","category":"医疗保健服务;动物医疗场所;兽医站","area":"","lng":118.759435,"lat":33.549698,"amap_id":"B0FFFZ8Q1W","order":5,"prev_distance_km":0.736,"cumulative_distance_km":11.576,"amap_marker_url":"https://uri.amap.com/marker?position=118.759435,33.549698&name=%E6%96%B0%E5%BE%B7%E7%94%9F%E7%95%9C%E7%A6%BD%E6%9C%8D%E5%8A%A1%E9%83%A8&src=vetmap&coordinate=gaode&callnative=1"},{"name":"泗阳县江林畜牧兽医服务有限公司","address":"李口镇南京路66号","phone":"15250791266","category":"医疗保健服务;动物医疗场所;兽医站","area":"","lng":118.720005,"lat":33.618416,"amap_id":"B0J15R27PY","order":6,"prev_distance_km":8.469,"cumulative_distance_km":20.045,"amap_marker_url":"https://uri.amap.com/marker?position=118.720005,33.618416&name=%E6%B3%97%E9%98%B3%E5%8E%BF%E6%B1%9F%E6%9E%97%E7%95%9C%E7%89%A7%E5%85%BD%E5%8C%BB%E6%9C%8D%E5%8A%A1%E6%9C%89%E9%99%90%E5%85%AC%E5%8F%B8&src=vetmap&coordinate=gaode&callnative=1"},{"name":"盛杰畜牧兽医服务有限公司","address":"卢集镇人民路167号","phone":"","category":"医疗保健服务;动物医疗场所;兽医站","area":"","lng":118.64311,"lat":33.599331,"amap_id":"B0KB5SHF1V","order":7,"prev_distance_km":7.431,"cumulative_distance_km":27.476,"amap_marker_url":"https://uri.amap.com/marker?position=118.643110,33.599331&name=%E7%9B%9B%E6%9D%B0%E7%95%9C%E7%89%A7%E5%85%BD%E5%8C%BB%E6%9C%8D%E5%8A%A1%E6%9C%89%E9%99%90%E5%85%AC%E5%8F%B8&src=vetmap&coordinate=gaode&callnative=1"},{"name":"汪德福宠物","address":"罗马都市1号楼","phone":"13815722434;18851373163","category":"医疗保健服务;动物医疗场所;宠物诊所","area":"","lng":118.660959,"lat":33.719024,"amap_id":"B0L3ZU0SN1","order":8,"prev_distance_km":13.411,"cumulative_distance_km":40.887,"amap_marker_url":"https://uri.amap.com/marker?position=118.660959,33.719024&name=%E6%B1%AA%E5%BE%B7%E7%A6%8F%E5%AE%A0%E7%89%A9&src=vetmap&coordinate=gaode&callnative=1"},{"name":"馨宠动物医院","address":"北京西路泗水人家2号楼西8号","phone":"18071694776","category":"医疗保健服务;动物医疗场所;宠物诊所","area":"","lng":118.675276,"lat":33.722927,"amap_id":"B0L31ZU6ZN","order":9,"prev_distance_km":1.393,"cumulative_distance_km":42.281,"amap_marker_url":"https://uri.amap.com/marker?position=118.675276,33.722927&name=%E9%A6%A8%E5%AE%A0%E5%8A%A8%E7%89%A9%E5%8C%BB%E9%99%A2&src=vetmap&coordinate=gaode&callnative=1"},{"name":"泗水古城宠物门诊部","address":"泗水古城商业街1-5号","phone":"0527-88555668;18118092966","category":"医疗保健服务;动物医疗场所;宠物诊所","area":"","lng":118.674623,"lat":33.715647,"amap_id":"B0FFF3XNZW","order":10,"prev_distance_km":0.812,"cumulative_distance_km":43.092,"amap_marker_url":"https://uri.amap.com/marker?position=118.674623,33.715647&name=%E6%B3%97%E6%B0%B4%E5%8F%A4%E5%9F%8E%E5%AE%A0%E7%89%A9%E9%97%A8%E8%AF%8A%E9%83%A8&src=vetmap&coordinate=gaode&callnative=1"},{"name":"它爱宠物门诊","address":"瑞禾阳光城20幢105室205室","phone":"19025171722","category":"医疗保健服务;动物医疗场所;宠物诊所","area":"","lng":118.679497,"lat":33.717509,"amap_id":"B0JRDAT9E1","order":11,"prev_distance_km":0.496,"cumulative_distance_km":43.589,"amap_marker_url":"https://uri.amap.com/marker?position=118.679497,33.717509&name=%E5%AE%83%E7%88%B1%E5%AE%A0%E7%89%A9%E9%97%A8%E8%AF%8A&src=vetmap&coordinate=gaode&callnative=1"},{"name":"星悦宠物医院","address":"长春路雨润广场600号","phone":"","category":"医疗保健服务;动物医疗场所;宠物诊所","area":"","lng":118.686942,"lat":33.719398,"amap_id":"B0M6TZ2X8U","order":12,"prev_distance_km":0.72,"cumulative_distance_km":44.308,"amap_marker_url":"https://uri.amap.com/marker?position=118.686942,33.719398&name=%E6%98%9F%E6%82%A6%E5%AE%A0%E7%89%A9%E5%8C%BB%E9%99%A2&src=vetmap&coordinate=gaode&callnative=1"},{"name":"大嘴狗宠物医院(泗阳店)","address":"众兴镇北京中路阳光名邸南门向西","phone":"18936937175","category":"医疗保健服务;动物医疗场所;宠物诊所","area":"","lng":118.68876,"lat":33.718941,"amap_id":"B0FFKG33QJ","order":13,"prev_distance_km":0.176,"cumulative_distance_km":44.484,"amap_marker_url":"https://uri.amap.com/marker?position=118.688760,33.718941&name=%E5%A4%A7%E5%98%B4%E7%8B%97%E5%AE%A0%E7%89%A9%E5%8C%BB%E9%99%A2%28%E6%B3%97%E9%98%B3%E5%BA%97%29&src=vetmap&coordinate=gaode&callnative=1"},{"name":"艾康宠物诊所","address":"长春中路3-38","phone":"18251066665","category":"医疗保健服务;动物医疗场所;宠物诊所","area":"","lng":118.689199,"lat":33.718779,"amap_id":"B0GRGUQ9EZ","order":14,"prev_distance_km":0.044,"cumulative_distance_km":44.528,"amap_marker_url":"https://uri.amap.com/marker?position=118.689199,33.718779&name=%E8%89%BE%E5%BA%B7%E5%AE%A0%E7%89%A9%E8%AF%8A%E6%89%80&src=vetmap&coordinate=gaode&callnative=1"},{"name":"24h加贝动物医院诊疗中心","address":"桃源路世纪华庭55幢04号","phone":"15651298310","category":"医疗保健服务;动物医疗场所;宠物诊所","area":"","lng":118.692768,"lat":33.715932,"amap_id":"B0LD7U10R2","order":15,"prev_distance_km":0.457,"cumulative_distance_km":44.986,"amap_marker_url":"https://uri.amap.com/marker?position=118.692768,33.715932&name=24h%E5%8A%A0%E8%B4%9D%E5%8A%A8%E7%89%A9%E5%8C%BB%E9%99%A2%E8%AF%8A%E7%96%97%E4%B8%AD%E5%BF%83&src=vetmap&coordinate=gaode&callnative=1"},{"name":"芭呗特宠物医院","address":"世纪广场淮海中路256号(泗阳大酒店西50米)","phone":"15370561853","category":"医疗保健服务;动物医疗场所;宠物诊所","area":"","lng":118.693368,"lat":33.712001,"amap_id":"B0L3YSIDQG","order":16,"prev_distance_km":0.441,"cumulative_distance_km":45.426,"amap_marker_url":"https://uri.amap.com/marker?position=118.693368,33.712001&name=%E8%8A%AD%E5%91%97%E7%89%B9%E5%AE%A0%E7%89%A9%E5%8C%BB%E9%99%A2&src=vetmap&coordinate=gaode&callnative=1"},{"name":"宠遇宠物门诊中心","address":"佳源巴黎都市B2-S114","phone":"15051005961;18752354256","category":"医疗保健服务;动物医疗场所;宠物诊所","area":"","lng":118.69007,"lat":33.705698,"amap_id":"B0IAPHPONF","order":17,"prev_distance_km":0.764,"cumulative_distance_km":46.191,"amap_marker_url":"https://uri.amap.com/marker?position=118.690070,33.705698&name=%E5%AE%A0%E9%81%87%E5%AE%A0%E7%89%A9%E9%97%A8%E8%AF%8A%E4%B8%AD%E5%BF%83&src=vetmap&coordinate=gaode&callnative=1"},{"name":"泗阳启程宠物医院(巴黎都市购物中心店)","address":"巴黎都市南1门东150米","phone":"18800650517","category":"医疗保健服务;动物医疗场所;宠物诊所","area":"","lng":118.693877,"lat":33.705082,"amap_id":"B0HKVA4SUP","order":18,"prev_distance_km":0.359,"cumulative_distance_km":46.55,"amap_marker_url":"https://uri.amap.com/marker?position=118.693877,33.705082&name=%E6%B3%97%E9%98%B3%E5%90%AF%E7%A8%8B%E5%AE%A0%E7%89%A9%E5%8C%BB%E9%99%A2%28%E5%B7%B4%E9%BB%8E%E9%83%BD%E5%B8%82%E8%B4%AD%E7%89%A9%E4%B8%AD%E5%BF%83%E5%BA%97%29&src=vetmap&coordinate=gaode&callnative=1"},{"name":"慈爱宠物门诊","address":"众兴镇名流新天地东门上海中路95号","phone":"19045121161","category":"医疗保健服务;动物医疗场所;宠物诊所","area":"","lng":118.709239,"lat":33.712853,"amap_id":"B0KR9A7WAM","order":19,"prev_distance_km":1.663,"cumulative_distance_km":48.213,"amap_marker_url":"https://uri.amap.com/marker?position=118.709239,33.712853&name=%E6%85%88%E7%88%B1%E5%AE%A0%E7%89%A9%E9%97%A8%E8%AF%8A&src=vetmap&coordinate=gaode&callnative=1"},{"name":"爱佳宠物门诊(长春路店)","address":"长春东路11-6号","phone":"18168507120","category":"医疗保健服务;动物医疗场所;宠物诊所","area":"","lng":118.698648,"lat":33.716808,"amap_id":"B0FFJV0DQZ","order":20,"prev_distance_km":1.074,"cumulative_distance_km":49.286,"amap_marker_url":"https://uri.amap.com/marker?position=118.698648,33.716808&name=%E7%88%B1%E4%BD%B3%E5%AE%A0%E7%89%A9%E9%97%A8%E8%AF%8A%28%E9%95%BF%E6%98%A5%E8%B7%AF%E5%BA%97%29&src=vetmap&coordinate=gaode&callnative=1"},{"name":"刘淼宠物医院","address":"金康华府北区北2门东170米","phone":"","category":"医疗保健服务;动物医疗场所;宠物诊所","area":"","lng":118.695075,"lat":33.726509,"amap_id":"B0J2BCP8LJ","order":21,"prev_distance_km":1.128,"cumulative_distance_km":50.415,"amap_marker_url":"https://uri.amap.com/marker?position=118.695075,33.726509&name=%E5%88%98%E6%B7%BC%E5%AE%A0%E7%89%A9%E5%8C%BB%E9%99%A2&src=vetmap&coordinate=gaode&callnative=1"},{"name":"泗阳县宇康畜牧兽医服务有限公司","address":"王集镇南宁路39号","phone":"","category":"医疗保健服务;动物医疗场所;兽医站","area":"","lng":118.73889,"lat":33.853852,"amap_id":"B0ID2SHUJS","order":22,"prev_distance_km":14.727,"cumulative_distance_km":65.142,"amap_marker_url":"https://uri.amap.com/marker?position=118.738890,33.853852&name=%E6%B3%97%E9%98%B3%E5%8E%BF%E5%AE%87%E5%BA%B7%E7%95%9C%E7%89%A7%E5%85%BD%E5%8C%BB%E6%9C%8D%E5%8A%A1%E6%9C%89%E9%99%90%E5%85%AC%E5%8F%B8&src=vetmap&coordinate=gaode&callnative=1"},{"name":"泗阳县牧丰畜牧兽医服务有限公司","address":"穿城镇穿左路穿城居委会25号","phone":"","category":"医疗保健服务;动物医疗场所;兽医站","area":"","lng":118.627564,"lat":33.909921,"amap_id":"B0J2P58MOX","order":23,"prev_distance_km":12.02,"cumulative_distance_km":77.162,"amap_marker_url":"https://uri.amap.com/marker?position=118.627564,33.909921&name=%E6%B3%97%E9%98%B3%E5%8E%BF%E7%89%A7%E4%B8%B0%E7%95%9C%E7%89%A7%E5%85%BD%E5%8C%BB%E6%9C%8D%E5%8A%A1%E6%9C%89%E9%99%90%E5%85%AC%E5%8F%B8&src=vetmap&coordinate=gaode&callnative=1"}]}