{"summary":{"id":"d00899","province":"江西省","city":"南昌市","district":"东湖区","count":15,"total_distance_km":9.539,"coordinate_system":"GCJ-02 / Amap","generated_at":"2026-05-07 19:57:21"},"rows":[{"name":"德诺异宠动物医院","address":"二七北路283号","phone":"18907093327","category":"医疗保健服务;动物医疗场所;宠物诊所","area":"","lng":115.918773,"lat":28.679691,"amap_id":"B0IA55DQQJ","order":1,"prev_distance_km":0.0,"cumulative_distance_km":0.0,"amap_marker_url":"https://uri.amap.com/marker?position=115.918773,28.679691&name=%E5%BE%B7%E8%AF%BA%E5%BC%82%E5%AE%A0%E5%8A%A8%E7%89%A9%E5%8C%BB%E9%99%A2&src=vetmap&coordinate=gaode&callnative=1"},{"name":"贝贝宠物医院东湖院","address":"二七北路268号","phone":"0791-88111835;13387082686;17770892621","category":"医疗保健服务;动物医疗场所;宠物诊所","area":"福州路","lng":115.918346,"lat":28.679845,"amap_id":"B0FFKIZQGN","order":2,"prev_distance_km":0.045,"cumulative_distance_km":0.045,"amap_marker_url":"https://uri.amap.com/marker?position=115.918346,28.679845&name=%E8%B4%9D%E8%B4%9D%E5%AE%A0%E7%89%A9%E5%8C%BB%E9%99%A2%E4%B8%9C%E6%B9%96%E9%99%A2&src=vetmap&coordinate=gaode&callnative=1"},{"name":"意德宠物医院","address":"二七北路98号B103-1,104-1","phone":"15970611018","category":"医疗保健服务;动物医疗场所;宠物诊所","area":"福州路","lng":115.918398,"lat":28.681037,"amap_id":"B0FFFGX0D9","order":3,"prev_distance_km":0.133,"cumulative_distance_km":0.178,"amap_marker_url":"https://uri.amap.com/marker?position=115.918398,28.681037&name=%E6%84%8F%E5%BE%B7%E5%AE%A0%E7%89%A9%E5%8C%BB%E9%99%A2&src=vetmap&coordinate=gaode&callnative=1"},{"name":"康乐宠物门诊(二七北路店)","address":"千花伴C区107号","phone":"","category":"医疗保健服务;动物医疗场所;宠物诊所","area":"福州路","lng":115.918289,"lat":28.681784,"amap_id":"B0317057IK","order":4,"prev_distance_km":0.084,"cumulative_distance_km":0.261,"amap_marker_url":"https://uri.amap.com/marker?position=115.918289,28.681784&name=%E5%BA%B7%E4%B9%90%E5%AE%A0%E7%89%A9%E9%97%A8%E8%AF%8A%28%E4%BA%8C%E4%B8%83%E5%8C%97%E8%B7%AF%E5%BA%97%29&src=vetmap&coordinate=gaode&callnative=1"},{"name":"恩琪宠物医院","address":"南京西路500号","phone":"13767106599;18107090110","category":"医疗保健服务;动物医疗场所;宠物诊所","area":"彭家桥","lng":115.919648,"lat":28.685193,"amap_id":"B0FFIPINPW","order":5,"prev_distance_km":0.402,"cumulative_distance_km":0.663,"amap_marker_url":"https://uri.amap.com/marker?position=115.919648,28.685193&name=%E6%81%A9%E7%90%AA%E5%AE%A0%E7%89%A9%E5%8C%BB%E9%99%A2&src=vetmap&coordinate=gaode&callnative=1"},{"name":"挚爱宠物医院(相思林店)","address":"湖滨南路60号(青山湖西地铁站2-1号口步行440米)","phone":"13970924992;18779145992","category":"医疗保健服务;动物医疗场所;宠物诊所","area":"","lng":115.92674,"lat":28.691654,"amap_id":"B0FFF9VOUY","order":6,"prev_distance_km":0.997,"cumulative_distance_km":1.66,"amap_marker_url":"https://uri.amap.com/marker?position=115.926740,28.691654&name=%E6%8C%9A%E7%88%B1%E5%AE%A0%E7%89%A9%E5%8C%BB%E9%99%A2%28%E7%9B%B8%E6%80%9D%E6%9E%97%E5%BA%97%29&src=vetmap&coordinate=gaode&callnative=1"},{"name":"芭比堂动物医院","address":"紫金城证券街11栋103号商铺","phone":"0791-88686120","category":"医疗保健服务;动物医疗场所;宠物诊所","area":"","lng":115.910271,"lat":28.704216,"amap_id":"B0HK01GTUU","order":7,"prev_distance_km":2.129,"cumulative_distance_km":3.789,"amap_marker_url":"https://uri.amap.com/marker?position=115.910271,28.704216&name=%E8%8A%AD%E6%AF%94%E5%A0%82%E5%8A%A8%E7%89%A9%E5%8C%BB%E9%99%A2&src=vetmap&coordinate=gaode&callnative=1"},{"name":"缘来宠物诊所·犬只狂犬免疫注射点","address":"起凤路416号","phone":"15179197113","category":"医疗保健服务;动物医疗场所;宠物诊所","area":"","lng":115.909471,"lat":28.705564,"amap_id":"B0HUMUT57Y","order":8,"prev_distance_km":0.169,"cumulative_distance_km":3.958,"amap_marker_url":"https://uri.amap.com/marker?position=115.909471,28.705564&name=%E7%BC%98%E6%9D%A5%E5%AE%A0%E7%89%A9%E8%AF%8A%E6%89%80%C2%B7%E7%8A%AC%E5%8F%AA%E7%8B%82%E7%8A%AC%E5%85%8D%E7%96%AB%E6%B3%A8%E5%B0%84%E7%82%B9&src=vetmap&coordinate=gaode&callnative=1"},{"name":"贝诺动物医院","address":"三经路新城公馆199号龙沙锦园2栋住宅101室","phone":"15179176250","category":"医疗保健服务;动物医疗场所;宠物诊所","area":"","lng":115.898056,"lat":28.696789,"amap_id":"B0LGFKM2WI","order":9,"prev_distance_km":1.48,"cumulative_distance_km":5.438,"amap_marker_url":"https://uri.amap.com/marker?position=115.898056,28.696789&name=%E8%B4%9D%E8%AF%BA%E5%8A%A8%E7%89%A9%E5%8C%BB%E9%99%A2&src=vetmap&coordinate=gaode&callnative=1"},{"name":"洋洋宠物医院(蓝天碧水店)","address":"青山南路60号","phone":"17679069617","category":"医疗保健服务;动物医疗场所;宠物诊所","area":"阳明路","lng":115.902502,"lat":28.690415,"amap_id":"B0FFLA6C7D","order":10,"prev_distance_km":0.831,"cumulative_distance_km":6.269,"amap_marker_url":"https://uri.amap.com/marker?position=115.902502,28.690415&name=%E6%B4%8B%E6%B4%8B%E5%AE%A0%E7%89%A9%E5%8C%BB%E9%99%A2%28%E8%93%9D%E5%A4%A9%E7%A2%A7%E6%B0%B4%E5%BA%97%29&src=vetmap&coordinate=gaode&callnative=1"},{"name":"南昌市动物疫病预防控制中心","address":"苏圃路210号(墩子塘地铁站2号口步行290米)","phone":"","category":"医疗保健服务;动物医疗场所;兽医站","area":"环湖路","lng":115.897151,"lat":28.684457,"amap_id":"B031703TE7","order":11,"prev_distance_km":0.843,"cumulative_distance_km":7.113,"amap_marker_url":"https://uri.amap.com/marker?position=115.897151,28.684457&name=%E5%8D%97%E6%98%8C%E5%B8%82%E5%8A%A8%E7%89%A9%E7%96%AB%E7%97%85%E9%A2%84%E9%98%B2%E6%8E%A7%E5%88%B6%E4%B8%AD%E5%BF%83&src=vetmap&coordinate=gaode&callnative=1"},{"name":"首佳博爱宠物诊所","address":"百花洲路24号","phone":"0791-86260075","category":"医疗保健服务;动物医疗场所;宠物诊所","area":"","lng":115.895102,"lat":28.677862,"amap_id":"B0FFID3XYT","order":12,"prev_distance_km":0.76,"cumulative_distance_km":7.873,"amap_marker_url":"https://uri.amap.com/marker?position=115.895102,28.677862&name=%E9%A6%96%E4%BD%B3%E5%8D%9A%E7%88%B1%E5%AE%A0%E7%89%A9%E8%AF%8A%E6%89%80&src=vetmap&coordinate=gaode&callnative=1"},{"name":"动物致伤门诊","address":"江西省胸科医院西北门旁","phone":"","category":"医疗保健服务;动物医疗场所;宠物诊所","area":"阳明路","lng":115.891967,"lat":28.684383,"amap_id":"B0LUY7V18C","order":13,"prev_distance_km":0.787,"cumulative_distance_km":8.66,"amap_marker_url":"https://uri.amap.com/marker?position=115.891967,28.684383&name=%E5%8A%A8%E7%89%A9%E8%87%B4%E4%BC%A4%E9%97%A8%E8%AF%8A&src=vetmap&coordinate=gaode&callnative=1"},{"name":"康城宠物医院(叠山路总店)","address":"叠山路368号(墩子塘地铁站4号口步行250米)","phone":"0791-86599192;17707085602","category":"医疗保健服务;动物医疗场所;宠物诊所","area":"叠山路","lng":115.891485,"lat":28.684388,"amap_id":"B0FFIIUYUX","order":14,"prev_distance_km":0.047,"cumulative_distance_km":8.707,"amap_marker_url":"https://uri.amap.com/marker?position=115.891485,28.684388&name=%E5%BA%B7%E5%9F%8E%E5%AE%A0%E7%89%A9%E5%8C%BB%E9%99%A2%28%E5%8F%A0%E5%B1%B1%E8%B7%AF%E6%80%BB%E5%BA%97%29&src=vetmap&coordinate=gaode&callnative=1"},{"name":"芭比堂动物医院·眼科·猫科(榕门路店)","address":"榕门路555号(近塘子河凯莱大酒店旁)鹏爱动物医院","phone":"0791-86310117","category":"医疗保健服务;动物医疗场所;宠物诊所","area":"八一桥","lng":115.883061,"lat":28.685544,"amap_id":"B0HGVSNYQ0","order":15,"prev_distance_km":0.832,"cumulative_distance_km":9.539,"amap_marker_url":"https://uri.amap.com/marker?position=115.883061,28.685544&name=%E8%8A%AD%E6%AF%94%E5%A0%82%E5%8A%A8%E7%89%A9%E5%8C%BB%E9%99%A2%C2%B7%E7%9C%BC%E7%A7%91%C2%B7%E7%8C%AB%E7%A7%91%28%E6%A6%95%E9%97%A8%E8%B7%AF%E5%BA%97%29&src=vetmap&coordinate=gaode&callnative=1"}]}