{"summary":{"id":"d00807","province":"江苏省","city":"常州市","district":"金坛区","count":19,"total_distance_km":30.107,"coordinate_system":"GCJ-02 / Amap","generated_at":"2026-05-07 20:22:37"},"rows":[{"name":"万佳宠物","address":"人民街23-2","phone":"13921010102","category":"医疗保健服务;动物医疗场所;宠物诊所","area":"","lng":119.459285,"lat":31.737826,"amap_id":"B0K0K5CAB5","order":1,"prev_distance_km":0.0,"cumulative_distance_km":0.0,"amap_marker_url":"https://uri.amap.com/marker?position=119.459285,31.737826&name=%E4%B8%87%E4%BD%B3%E5%AE%A0%E7%89%A9&src=vetmap&coordinate=gaode&callnative=1"},{"name":"王晗宠物医院","address":"江苏身常州市金坛区 1-13号(15050029856急诊手机号)","phone":"15050029856","category":"医疗保健服务;动物医疗场所;宠物诊所","area":"","lng":119.568519,"lat":31.73863,"amap_id":"B0KAGRRCRJ","order":2,"prev_distance_km":10.33,"cumulative_distance_km":10.33,"amap_marker_url":"https://uri.amap.com/marker?position=119.568519,31.738630&name=%E7%8E%8B%E6%99%97%E5%AE%A0%E7%89%A9%E5%8C%BB%E9%99%A2&src=vetmap&coordinate=gaode&callnative=1"},{"name":"宠颐生宠物医院(金坛安欣分院)","address":"区丹阳门南路52号","phone":"13775168520","category":"医疗保健服务;动物医疗场所;宠物诊所","area":"","lng":119.569417,"lat":31.742272,"amap_id":"B0I3FUPL42","order":3,"prev_distance_km":0.414,"cumulative_distance_km":10.744,"amap_marker_url":"https://uri.amap.com/marker?position=119.569417,31.742272&name=%E5%AE%A0%E9%A2%90%E7%94%9F%E5%AE%A0%E7%89%A9%E5%8C%BB%E9%99%A2%28%E9%87%91%E5%9D%9B%E5%AE%89%E6%AC%A3%E5%88%86%E9%99%A2%29&src=vetmap&coordinate=gaode&callnative=1"},{"name":"瑞鹏宠物医院(金坛名宠分院)","address":"城市花园市场路14号","phone":"18018237267","category":"医疗保健服务;动物医疗场所;宠物诊所","area":"","lng":119.582339,"lat":31.740259,"amap_id":"B0I32AIURO","order":4,"prev_distance_km":1.242,"cumulative_distance_km":11.986,"amap_marker_url":"https://uri.amap.com/marker?position=119.582339,31.740259&name=%E7%91%9E%E9%B9%8F%E5%AE%A0%E7%89%A9%E5%8C%BB%E9%99%A2%28%E9%87%91%E5%9D%9B%E5%90%8D%E5%AE%A0%E5%88%86%E9%99%A2%29&src=vetmap&coordinate=gaode&callnative=1"},{"name":"爱心宠物(环园路店)","address":"朱寺巷44-2号","phone":"13205203252","category":"医疗保健服务;动物医疗场所;动物医疗场所","area":"","lng":119.582352,"lat":31.741299,"amap_id":"B0FFGYZUSX","order":5,"prev_distance_km":0.116,"cumulative_distance_km":12.102,"amap_marker_url":"https://uri.amap.com/marker?position=119.582352,31.741299&name=%E7%88%B1%E5%BF%83%E5%AE%A0%E7%89%A9%28%E7%8E%AF%E5%9B%AD%E8%B7%AF%E5%BA%97%29&src=vetmap&coordinate=gaode&callnative=1"},{"name":"宝贝宠物(环园路店)","address":"金城镇寺巷中间","phone":"13813514679","category":"医疗保健服务;动物医疗场所;宠物诊所","area":"","lng":119.581807,"lat":31.742187,"amap_id":"B0FFGYZUPV","order":6,"prev_distance_km":0.111,"cumulative_distance_km":12.213,"amap_marker_url":"https://uri.amap.com/marker?position=119.581807,31.742187&name=%E5%AE%9D%E8%B4%9D%E5%AE%A0%E7%89%A9%28%E7%8E%AF%E5%9B%AD%E8%B7%AF%E5%BA%97%29&src=vetmap&coordinate=gaode&callnative=1"},{"name":"犬心犬意宠物医院(金源福地店)","address":"北环东路116-1-6号","phone":"13813517074;18961262566","category":"医疗保健服务;动物医疗场所;宠物诊所","area":"","lng":119.584162,"lat":31.748474,"amap_id":"B0GK5AAAUC","order":7,"prev_distance_km":0.734,"cumulative_distance_km":12.947,"amap_marker_url":"https://uri.amap.com/marker?position=119.584162,31.748474&name=%E7%8A%AC%E5%BF%83%E7%8A%AC%E6%84%8F%E5%AE%A0%E7%89%A9%E5%8C%BB%E9%99%A2%28%E9%87%91%E6%BA%90%E7%A6%8F%E5%9C%B0%E5%BA%97%29&src=vetmap&coordinate=gaode&callnative=1"},{"name":"金坛区华城爱侣宠物医院","address":"华城嘉园8-065号店面","phone":"0519-80190894","category":"医疗保健服务;动物医疗场所;宠物诊所","area":"开发区","lng":119.591447,"lat":31.741293,"amap_id":"B0FFFFWR6E","order":8,"prev_distance_km":1.055,"cumulative_distance_km":14.002,"amap_marker_url":"https://uri.amap.com/marker?position=119.591447,31.741293&name=%E9%87%91%E5%9D%9B%E5%8C%BA%E5%8D%8E%E5%9F%8E%E7%88%B1%E4%BE%A3%E5%AE%A0%E7%89%A9%E5%8C%BB%E9%99%A2&src=vetmap&coordinate=gaode&callnative=1"},{"name":"顽皮宠物诊所(南环一路店)","address":"南环一路548号","phone":"13806145009;13861079696","category":"医疗保健服务;动物医疗场所;宠物诊所","area":"","lng":119.588541,"lat":31.735591,"amap_id":"B0FFG1ZXGY","order":9,"prev_distance_km":0.691,"cumulative_distance_km":14.693,"amap_marker_url":"https://uri.amap.com/marker?position=119.588541,31.735591&name=%E9%A1%BD%E7%9A%AE%E5%AE%A0%E7%89%A9%E8%AF%8A%E6%89%80%28%E5%8D%97%E7%8E%AF%E4%B8%80%E8%B7%AF%E5%BA%97%29&src=vetmap&coordinate=gaode&callnative=1"},{"name":"领航宠物医院","address":"北贤路1066号","phone":"13862688817","category":"医疗保健服务;动物医疗场所;宠物诊所","area":"","lng":119.590757,"lat":31.727692,"amap_id":"B0LRNSL3NJ","order":10,"prev_distance_km":0.903,"cumulative_distance_km":15.596,"amap_marker_url":"https://uri.amap.com/marker?position=119.590757,31.727692&name=%E9%A2%86%E8%88%AA%E5%AE%A0%E7%89%A9%E5%8C%BB%E9%99%A2&src=vetmap&coordinate=gaode&callnative=1"},{"name":"星承动物医院(艾尔文金坛分院)","address":"南环一路766-768号","phone":"18796901355","category":"医疗保健服务;动物医疗场所;宠物诊所","area":"开发区","lng":119.594937,"lat":31.735738,"amap_id":"B0HRK5AQVA","order":11,"prev_distance_km":0.978,"cumulative_distance_km":16.574,"amap_marker_url":"https://uri.amap.com/marker?position=119.594937,31.735738&name=%E6%98%9F%E6%89%BF%E5%8A%A8%E7%89%A9%E5%8C%BB%E9%99%A2%28%E8%89%BE%E5%B0%94%E6%96%87%E9%87%91%E5%9D%9B%E5%88%86%E9%99%A2%29&src=vetmap&coordinate=gaode&callnative=1"},{"name":"宠亘动物医院(左邻右里店)","address":"南环一路810-812号","phone":"18915045934","category":"医疗保健服务;动物医疗场所;宠物诊所","area":"开发区","lng":119.598094,"lat":31.735548,"amap_id":"B0I035YF9V","order":12,"prev_distance_km":0.299,"cumulative_distance_km":16.873,"amap_marker_url":"https://uri.amap.com/marker?position=119.598094,31.735548&name=%E5%AE%A0%E4%BA%98%E5%8A%A8%E7%89%A9%E5%8C%BB%E9%99%A2%28%E5%B7%A6%E9%82%BB%E5%8F%B3%E9%87%8C%E5%BA%97%29&src=vetmap&coordinate=gaode&callnative=1"},{"name":"尊宠会所","address":"金河花园21号S-01","phone":"13915806288","category":"医疗保健服务;动物医疗场所;动物医疗场所","area":"开发区","lng":119.600758,"lat":31.735787,"amap_id":"B0FFHWXL96","order":13,"prev_distance_km":0.253,"cumulative_distance_km":17.126,"amap_marker_url":"https://uri.amap.com/marker?position=119.600758,31.735787&name=%E5%B0%8A%E5%AE%A0%E4%BC%9A%E6%89%80&src=vetmap&coordinate=gaode&callnative=1"},{"name":"初心宠物医院(碧水华庭店)","address":"一中路187号","phone":"13915822599","category":"医疗保健服务;动物医疗场所;宠物诊所","area":"开发区","lng":119.601651,"lat":31.738263,"amap_id":"B0K1BHWEC2","order":14,"prev_distance_km":0.288,"cumulative_distance_km":17.414,"amap_marker_url":"https://uri.amap.com/marker?position=119.601651,31.738263&name=%E5%88%9D%E5%BF%83%E5%AE%A0%E7%89%A9%E5%8C%BB%E9%99%A2%28%E7%A2%A7%E6%B0%B4%E5%8D%8E%E5%BA%AD%E5%BA%97%29&src=vetmap&coordinate=gaode&callnative=1"},{"name":"星星宠物医院","address":"华城百鑫家园南门东50米","phone":"","category":"医疗保健服务;动物医疗场所;宠物诊所","area":"开发区","lng":119.603076,"lat":31.742625,"amap_id":"B0KABRAB8T","order":15,"prev_distance_km":0.503,"cumulative_distance_km":17.918,"amap_marker_url":"https://uri.amap.com/marker?position=119.603076,31.742625&name=%E6%98%9F%E6%98%9F%E5%AE%A0%E7%89%A9%E5%8C%BB%E9%99%A2&src=vetmap&coordinate=gaode&callnative=1"},{"name":"李李动物医院","address":"南二环东路816号(玉山花园南门)","phone":"13585417899","category":"医疗保健服务;动物医疗场所;兽医站","area":"开发区","lng":119.615766,"lat":31.732465,"amap_id":"B0KUFD7IIL","order":16,"prev_distance_km":1.648,"cumulative_distance_km":19.566,"amap_marker_url":"https://uri.amap.com/marker?position=119.615766,31.732465&name=%E6%9D%8E%E6%9D%8E%E5%8A%A8%E7%89%A9%E5%8C%BB%E9%99%A2&src=vetmap&coordinate=gaode&callnative=1"},{"name":"温心萌宠宠物店","address":"丰田路409号","phone":"13862681911","category":"医疗保健服务;动物医疗场所;宠物诊所","area":"开发区","lng":119.631713,"lat":31.739643,"amap_id":"B0FFI4E0SH","order":17,"prev_distance_km":1.706,"cumulative_distance_km":21.272,"amap_marker_url":"https://uri.amap.com/marker?position=119.631713,31.739643&name=%E6%B8%A9%E5%BF%83%E8%90%8C%E5%AE%A0%E5%AE%A0%E7%89%A9%E5%BA%97&src=vetmap&coordinate=gaode&callnative=1"},{"name":"佳优宠物医院","address":"科教路27号","phone":"18661136828","category":"医疗保健服务;动物医疗场所;宠物诊所","area":"","lng":119.626813,"lat":31.718614,"amap_id":"B0LANHNW6I","order":18,"prev_distance_km":2.384,"cumulative_distance_km":23.656,"amap_marker_url":"https://uri.amap.com/marker?position=119.626813,31.718614&name=%E4%BD%B3%E4%BC%98%E5%AE%A0%E7%89%A9%E5%8C%BB%E9%99%A2&src=vetmap&coordinate=gaode&callnative=1"},{"name":"洮湖动物诊疗","address":"水东路与201县道交叉口东南20米","phone":"","category":"医疗保健服务;动物医疗场所;宠物诊所","area":"","lng":119.652401,"lat":31.664844,"amap_id":"B0KDGMFRWY","order":19,"prev_distance_km":6.451,"cumulative_distance_km":30.107,"amap_marker_url":"https://uri.amap.com/marker?position=119.652401,31.664844&name=%E6%B4%AE%E6%B9%96%E5%8A%A8%E7%89%A9%E8%AF%8A%E7%96%97&src=vetmap&coordinate=gaode&callnative=1"}]}