{"summary":{"id":"d00920","province":"江西省","city":"宜春市","district":"上高县","count":7,"total_distance_km":18.71,"coordinate_system":"GCJ-02 / Amap","generated_at":"2026-05-07 20:23:05"},"rows":[{"name":"上高县德康宠物医院","address":"友谊路13号","phone":"","category":"医疗保健服务;动物医疗场所;宠物诊所","area":"","lng":114.934559,"lat":28.245789,"amap_id":"B0KRRDZ5GP","order":1,"prev_distance_km":0.0,"cumulative_distance_km":0.0,"amap_marker_url":"https://uri.amap.com/marker?position=114.934559,28.245789&name=%E4%B8%8A%E9%AB%98%E5%8E%BF%E5%BE%B7%E5%BA%B7%E5%AE%A0%E7%89%A9%E5%8C%BB%E9%99%A2&src=vetmap&coordinate=gaode&callnative=1"},{"name":"宠物康复中心","address":"学园路3号","phone":"13576168882;15079516866","category":"医疗保健服务;动物医疗场所;宠物诊所","area":"敖阳","lng":114.940348,"lat":28.240374,"amap_id":"B0FFH6AH5Z","order":2,"prev_distance_km":0.827,"cumulative_distance_km":0.827,"amap_marker_url":"https://uri.amap.com/marker?position=114.940348,28.240374&name=%E5%AE%A0%E7%89%A9%E5%BA%B7%E5%A4%8D%E4%B8%AD%E5%BF%83&src=vetmap&coordinate=gaode&callnative=1"},{"name":"派多宠物医疗","address":"学园路5号","phone":"13979538616;18296948891","category":"医疗保健服务;动物医疗场所;宠物诊所","area":"敖阳","lng":114.9394,"lat":28.240358,"amap_id":"B0G2UZ2II0","order":3,"prev_distance_km":0.093,"cumulative_distance_km":0.92,"amap_marker_url":"https://uri.amap.com/marker?position=114.939400,28.240358&name=%E6%B4%BE%E5%A4%9A%E5%AE%A0%E7%89%A9%E5%8C%BB%E7%96%97&src=vetmap&coordinate=gaode&callnative=1"},{"name":"很便宜的宠物店","address":"上高县敖阳街道商院巷6号","phone":"","category":"医疗保健服务;动物医疗场所;动物医疗场所","area":"敖山大道","lng":114.933075,"lat":28.235025,"amap_id":"B0LBAK680O","order":4,"prev_distance_km":0.858,"cumulative_distance_km":1.778,"amap_marker_url":"https://uri.amap.com/marker?position=114.933075,28.235025&name=%E5%BE%88%E4%BE%BF%E5%AE%9C%E7%9A%84%E5%AE%A0%E7%89%A9%E5%BA%97&src=vetmap&coordinate=gaode&callnative=1"},{"name":"优博尔宠物医院","address":"建设南路","phone":"18179592325","category":"医疗保健服务;动物医疗场所;宠物诊所","area":"敖阳","lng":114.935386,"lat":28.228731,"amap_id":"B0G367MZX4","order":5,"prev_distance_km":0.736,"cumulative_distance_km":2.513,"amap_marker_url":"https://uri.amap.com/marker?position=114.935386,28.228731&name=%E4%BC%98%E5%8D%9A%E5%B0%94%E5%AE%A0%E7%89%A9%E5%8C%BB%E9%99%A2&src=vetmap&coordinate=gaode&callnative=1"},{"name":"开心农畜牧水产服务部","address":"锦惠路与335乡道交叉口西100米","phone":"13607050960;15970523698","category":"医疗保健服务;动物医疗场所;兽医站","area":"","lng":114.922271,"lat":28.225581,"amap_id":"B0FFJRWGUT","order":6,"prev_distance_km":1.332,"cumulative_distance_km":3.845,"amap_marker_url":"https://uri.amap.com/marker?position=114.922271,28.225581&name=%E5%BC%80%E5%BF%83%E5%86%9C%E7%95%9C%E7%89%A7%E6%B0%B4%E4%BA%A7%E6%9C%8D%E5%8A%A1%E9%83%A8&src=vetmap&coordinate=gaode&callnative=1"},{"name":"润皮兽药店","address":"558县道与社汗段交叉口西140米","phone":"","category":"医疗保健服务;动物医疗场所;动物医疗场所","area":"","lng":114.79529,"lat":28.152463,"amap_id":"B0KADOX2CS","order":7,"prev_distance_km":14.865,"cumulative_distance_km":18.71,"amap_marker_url":"https://uri.amap.com/marker?position=114.795290,28.152463&name=%E6%B6%A6%E7%9A%AE%E5%85%BD%E8%8D%AF%E5%BA%97&src=vetmap&coordinate=gaode&callnative=1"}]}