{"summary":{"id":"d00950","province":"江西省","city":"赣州市","district":"会昌县","count":5,"total_distance_km":35.378,"coordinate_system":"GCJ-02 / Amap","generated_at":"2026-05-07 19:57:21"},"rows":[{"name":"会昌县林忠兽药店","address":"交通路东100米","phone":"0797-5603292;15970754325","category":"医疗保健服务;动物医疗场所;动物医疗场所","area":"","lng":115.731804,"lat":25.324693,"amap_id":"B0FFJ3QCH0","order":1,"prev_distance_km":0.0,"cumulative_distance_km":0.0,"amap_marker_url":"https://uri.amap.com/marker?position=115.731804,25.324693&name=%E4%BC%9A%E6%98%8C%E5%8E%BF%E6%9E%97%E5%BF%A0%E5%85%BD%E8%8D%AF%E5%BA%97&src=vetmap&coordinate=gaode&callnative=1"},{"name":"蓬发兽药店","address":"新兴路与右水圩街交叉口东南100米","phone":"13766303659","category":"医疗保健服务;动物医疗场所;动物医疗场所","area":"","lng":115.678029,"lat":25.44131,"amap_id":"B0FFK63BVH","order":2,"prev_distance_km":14.048,"cumulative_distance_km":14.048,"amap_marker_url":"https://uri.amap.com/marker?position=115.678029,25.441310&name=%E8%93%AC%E5%8F%91%E5%85%BD%E8%8D%AF%E5%BA%97&src=vetmap&coordinate=gaode&callnative=1"},{"name":"会昌宠物诊疗中心","address":"财富港二期17栋115号","phone":"13766360934","category":"医疗保健服务;动物医疗场所;宠物诊所","area":"","lng":115.798962,"lat":25.590711,"amap_id":"B0HUSCLGXD","order":3,"prev_distance_km":20.573,"cumulative_distance_km":34.621,"amap_marker_url":"https://uri.amap.com/marker?position=115.798962,25.590711&name=%E4%BC%9A%E6%98%8C%E5%AE%A0%E7%89%A9%E8%AF%8A%E7%96%97%E4%B8%AD%E5%BF%83&src=vetmap&coordinate=gaode&callnative=1"},{"name":"动物疾病预防","address":"九州大道与湘南三路交叉口南80米","phone":"","category":"医疗保健服务;动物医疗场所;动物医疗场所","area":"","lng":115.798825,"lat":25.590825,"amap_id":"B0JKT5APXQ","order":4,"prev_distance_km":0.019,"cumulative_distance_km":34.639,"amap_marker_url":"https://uri.amap.com/marker?position=115.798825,25.590825&name=%E5%8A%A8%E7%89%A9%E7%96%BE%E7%97%85%E9%A2%84%E9%98%B2&src=vetmap&coordinate=gaode&callnative=1"},{"name":"宠博动物医院","address":"兴会路中段","phone":"15180101395","category":"医疗保健服务;动物医疗场所;宠物诊所","area":"","lng":115.795569,"lat":25.596779,"amap_id":"B0K27Y4MSE","order":5,"prev_distance_km":0.738,"cumulative_distance_km":35.378,"amap_marker_url":"https://uri.amap.com/marker?position=115.795569,25.596779&name=%E5%AE%A0%E5%8D%9A%E5%8A%A8%E7%89%A9%E5%8C%BB%E9%99%A2&src=vetmap&coordinate=gaode&callnative=1"}]}