{"summary":{"id":"d00999","province":"河北省","city":"唐山市","district":"滦南县","count":23,"route_count":1,"max_route_clinics":23,"total_distance_km":76.765,"coordinate_system":"GCJ-02 / Amap","generated_at":"2026-05-08 19:46:28"},"routes":[{"id":"r1","name":"第1段","count":23,"total_distance_km":76.765,"rows":[{"name":"金免康动物诊疗所(政府大街店)","address":"柏各庄派出所东南侧","phone":"","category":"医疗保健服务;动物医疗场所;动物医疗场所","area":"","lng":118.522364,"lat":39.30668,"amap_id":"B0FFKMEOOO","order":1,"prev_distance_km":0.0,"cumulative_distance_km":0.0,"amap_marker_url":"https://uri.amap.com/marker?position=118.522364,39.306680&name=%E9%87%91%E5%85%8D%E5%BA%B7%E5%8A%A8%E7%89%A9%E8%AF%8A%E7%96%97%E6%89%80%28%E6%94%BF%E5%BA%9C%E5%A4%A7%E8%A1%97%E5%BA%97%29&src=vetmap&coordinate=gaode&callnative=1","route_id":"r1","route_name":"第1段"},{"name":"江琛兽药","address":"滦海公路与古柳线交叉口西北80米","phone":"","category":"购物服务;购物相关场所;购物相关场所|医疗保健服务;动物医疗场所;动物医疗场所","area":"","lng":118.657175,"lat":39.343575,"amap_id":"B0LBL1I7MV","order":2,"prev_distance_km":12.3,"cumulative_distance_km":12.3,"amap_marker_url":"https://uri.amap.com/marker?position=118.657175,39.343575&name=%E6%B1%9F%E7%90%9B%E5%85%BD%E8%8D%AF&src=vetmap&coordinate=gaode&callnative=1","route_id":"r1","route_name":"第1段"},{"name":"滦南县日光动物诊所","address":"郑各庄古柳线胡各庄工业区","phone":"13513259489","category":"医疗保健服务;动物医疗场所;宠物诊所","area":"","lng":118.649967,"lat":39.397756,"amap_id":"B0FFHDPF4E","order":3,"prev_distance_km":6.056,"cumulative_distance_km":18.357,"amap_marker_url":"https://uri.amap.com/marker?position=118.649967,39.397756&name=%E6%BB%A6%E5%8D%97%E5%8E%BF%E6%97%A5%E5%85%89%E5%8A%A8%E7%89%A9%E8%AF%8A%E6%89%80&src=vetmap&coordinate=gaode&callnative=1","route_id":"r1","route_name":"第1段"},{"name":"滦南县龙康动物诊所","address":"司各庄中学东北侧170米","phone":"","category":"医疗保健服务;动物医疗场所;宠物诊所","area":"","lng":118.512446,"lat":39.443682,"amap_id":"B0L2RKLBMV","order":4,"prev_distance_km":12.869,"cumulative_distance_km":31.226,"amap_marker_url":"https://uri.amap.com/marker?position=118.512446,39.443682&name=%E6%BB%A6%E5%8D%97%E5%8E%BF%E9%BE%99%E5%BA%B7%E5%8A%A8%E7%89%A9%E8%AF%8A%E6%89%80&src=vetmap&coordinate=gaode&callnative=1","route_id":"r1","route_name":"第1段"},{"name":"滦南县永恒动物诊所","address":"杨柏线附近","phone":"0315-4422855;13663378362;13832538782","category":"医疗保健服务;动物医疗场所;宠物诊所","area":"","lng":118.568526,"lat":39.546338,"amap_id":"B0FFGA3YCO","order":5,"prev_distance_km":12.388,"cumulative_distance_km":43.614,"amap_marker_url":"https://uri.amap.com/marker?position=118.568526,39.546338&name=%E6%BB%A6%E5%8D%97%E5%8E%BF%E6%B0%B8%E6%81%92%E5%8A%A8%E7%89%A9%E8%AF%8A%E6%89%80&src=vetmap&coordinate=gaode&callnative=1","route_id":"r1","route_name":"第1段"},{"name":"滦南县牧欣源动物诊所","address":"商贸街与杨柏线交叉口西40米","phone":"","category":"医疗保健服务;动物医疗场所;宠物诊所","area":"","lng":118.571704,"lat":39.547061,"amap_id":"B0J04D2DQE","order":6,"prev_distance_km":0.284,"cumulative_distance_km":43.898,"amap_marker_url":"https://uri.amap.com/marker?position=118.571704,39.547061&name=%E6%BB%A6%E5%8D%97%E5%8E%BF%E7%89%A7%E6%AC%A3%E6%BA%90%E5%8A%A8%E7%89%A9%E8%AF%8A%E6%89%80&src=vetmap&coordinate=gaode&callnative=1","route_id":"r1","route_name":"第1段"},{"name":"晓松动物诊疗室","address":"倴城镇上坡子完全小学东北门西北60米","phone":"","category":"医疗保健服务;动物医疗场所;宠物诊所","area":"","lng":118.632719,"lat":39.467978,"amap_id":"B0FFKLHM6P","order":7,"prev_distance_km":10.234,"cumulative_distance_km":54.132,"amap_marker_url":"https://uri.amap.com/marker?position=118.632719,39.467978&name=%E6%99%93%E6%9D%BE%E5%8A%A8%E7%89%A9%E8%AF%8A%E7%96%97%E5%AE%A4&src=vetmap&coordinate=gaode&callnative=1","route_id":"r1","route_name":"第1段"},{"name":"滦南县媛乐动物医院","address":"中红建材城21栋101","phone":"13111465669","category":"医疗保健服务;动物医疗场所;宠物诊所","area":"","lng":118.658787,"lat":39.494849,"amap_id":"B0HR6A8L2H","order":8,"prev_distance_km":3.733,"cumulative_distance_km":57.864,"amap_marker_url":"https://uri.amap.com/marker?position=118.658787,39.494849&name=%E6%BB%A6%E5%8D%97%E5%8E%BF%E5%AA%9B%E4%B9%90%E5%8A%A8%E7%89%A9%E5%8C%BB%E9%99%A2&src=vetmap&coordinate=gaode&callnative=1","route_id":"r1","route_name":"第1段"},{"name":"七宠专业宠物美容","address":"和谐路178号","phone":"19948521777","category":"医疗保健服务;动物医疗场所;宠物诊所","area":"","lng":118.658899,"lat":39.500236,"amap_id":"B0LKJA1FL2","order":9,"prev_distance_km":0.599,"cumulative_distance_km":58.463,"amap_marker_url":"https://uri.amap.com/marker?position=118.658899,39.500236&name=%E4%B8%83%E5%AE%A0%E4%B8%93%E4%B8%9A%E5%AE%A0%E7%89%A9%E7%BE%8E%E5%AE%B9&src=vetmap&coordinate=gaode&callnative=1","route_id":"r1","route_name":"第1段"},{"name":"滦南县坤牧动物诊所","address":"和谐路与中大街交叉口东南100米","phone":"","category":"医疗保健服务;动物医疗场所;宠物诊所","area":"","lng":118.658125,"lat":39.504575,"amap_id":"B0L2RSLX2K","order":10,"prev_distance_km":0.487,"cumulative_distance_km":58.95,"amap_marker_url":"https://uri.amap.com/marker?position=118.658125,39.504575&name=%E6%BB%A6%E5%8D%97%E5%8E%BF%E5%9D%A4%E7%89%A7%E5%8A%A8%E7%89%A9%E8%AF%8A%E6%89%80&src=vetmap&coordinate=gaode&callnative=1","route_id":"r1","route_name":"第1段"},{"name":"邱连学宠物诊所","address":"和谐路东方宾馆北行30米","phone":"15032526999","category":"医疗保健服务;动物医疗场所;宠物诊所","area":"","lng":118.657625,"lat":39.507378,"amap_id":"B0HDSH7QMH","order":11,"prev_distance_km":0.315,"cumulative_distance_km":59.265,"amap_marker_url":"https://uri.amap.com/marker?position=118.657625,39.507378&name=%E9%82%B1%E8%BF%9E%E5%AD%A6%E5%AE%A0%E7%89%A9%E8%AF%8A%E6%89%80&src=vetmap&coordinate=gaode&callnative=1","route_id":"r1","route_name":"第1段"},{"name":"滦南县李兵动物医院","address":"和谐路与中大街交叉口向北300米路东","phone":"15350667288","category":"医疗保健服务;动物医疗场所;宠物诊所","area":"","lng":118.657424,"lat":39.508719,"amap_id":"B0FFGNLDGD","order":12,"prev_distance_km":0.15,"cumulative_distance_km":59.415,"amap_marker_url":"https://uri.amap.com/marker?position=118.657424,39.508719&name=%E6%BB%A6%E5%8D%97%E5%8E%BF%E6%9D%8E%E5%85%B5%E5%8A%A8%E7%89%A9%E5%8C%BB%E9%99%A2&src=vetmap&coordinate=gaode&callnative=1","route_id":"r1","route_name":"第1段"},{"name":"中宠宠物美容","address":"和谐路与文明街交叉口北80米","phone":"13303346575","category":"医疗保健服务;动物医疗场所;宠物诊所","area":"","lng":118.657129,"lat":39.51042,"amap_id":"B0FFKZ9HQJ","order":13,"prev_distance_km":0.191,"cumulative_distance_km":59.606,"amap_marker_url":"https://uri.amap.com/marker?position=118.657129,39.510420&name=%E4%B8%AD%E5%AE%A0%E5%AE%A0%E7%89%A9%E7%BE%8E%E5%AE%B9&src=vetmap&coordinate=gaode&callnative=1","route_id":"r1","route_name":"第1段"},{"name":"滦南县硕成动物诊所","address":"和谐路与文明街交叉口北100米","phone":"13933456691","category":"医疗保健服务;动物医疗场所;宠物诊所","area":"","lng":118.657073,"lat":39.51057,"amap_id":"B0FFJYB3CL","order":14,"prev_distance_km":0.017,"cumulative_distance_km":59.623,"amap_marker_url":"https://uri.amap.com/marker?position=118.657073,39.510570&name=%E6%BB%A6%E5%8D%97%E5%8E%BF%E7%A1%95%E6%88%90%E5%8A%A8%E7%89%A9%E8%AF%8A%E6%89%80&src=vetmap&coordinate=gaode&callnative=1","route_id":"r1","route_name":"第1段"},{"name":"滦南县瑞盛动物医院","address":"和谐路东侧","phone":"15100556658","category":"医疗保健服务;动物医疗场所;宠物诊所","area":"","lng":118.657056,"lat":39.510822,"amap_id":"B0FFLGH51R","order":15,"prev_distance_km":0.028,"cumulative_distance_km":59.651,"amap_marker_url":"https://uri.amap.com/marker?position=118.657056,39.510822&name=%E6%BB%A6%E5%8D%97%E5%8E%BF%E7%91%9E%E7%9B%9B%E5%8A%A8%E7%89%A9%E5%8C%BB%E9%99%A2&src=vetmap&coordinate=gaode&callnative=1","route_id":"r1","route_name":"第1段"},{"name":"滦南飞然动物诊所","address":"友谊路与安平街交叉口北200米","phone":"13933340131;15630551003","category":"医疗保健服务;动物医疗场所;宠物诊所","area":"","lng":118.662834,"lat":39.514549,"amap_id":"B0KUK1DS64","order":16,"prev_distance_km":0.646,"cumulative_distance_km":60.298,"amap_marker_url":"https://uri.amap.com/marker?position=118.662834,39.514549&name=%E6%BB%A6%E5%8D%97%E9%A3%9E%E7%84%B6%E5%8A%A8%E7%89%A9%E8%AF%8A%E6%89%80&src=vetmap&coordinate=gaode&callnative=1","route_id":"r1","route_name":"第1段"},{"name":"滦南县红康源动物诊所","address":"兆才大街与育才路交叉口东北40米","phone":"","category":"医疗保健服务;动物医疗场所;宠物诊所","area":"","lng":118.668092,"lat":39.516398,"amap_id":"B0JGPZK8E9","order":17,"prev_distance_km":0.496,"cumulative_distance_km":60.793,"amap_marker_url":"https://uri.amap.com/marker?position=118.668092,39.516398&name=%E6%BB%A6%E5%8D%97%E5%8E%BF%E7%BA%A2%E5%BA%B7%E6%BA%90%E5%8A%A8%E7%89%A9%E8%AF%8A%E6%89%80&src=vetmap&coordinate=gaode&callnative=1","route_id":"r1","route_name":"第1段"},{"name":"琪琪宠物诊所","address":"兆才大街教育局东行100米路南51号","phone":"13730503907;18712845591","category":"医疗保健服务;动物医疗场所;宠物诊所","area":"","lng":118.668398,"lat":39.515965,"amap_id":"B0FFJYBF00","order":18,"prev_distance_km":0.055,"cumulative_distance_km":60.848,"amap_marker_url":"https://uri.amap.com/marker?position=118.668398,39.515965&name=%E7%90%AA%E7%90%AA%E5%AE%A0%E7%89%A9%E8%AF%8A%E6%89%80&src=vetmap&coordinate=gaode&callnative=1","route_id":"r1","route_name":"第1段"},{"name":"悠宠动物诊所","address":"翰林雅苑2期东北1门旁","phone":"15233395685","category":"医疗保健服务;动物医疗场所;宠物诊所","area":"","lng":118.685794,"lat":39.509107,"amap_id":"B0FFJ7W0UP","order":19,"prev_distance_km":1.676,"cumulative_distance_km":62.524,"amap_marker_url":"https://uri.amap.com/marker?position=118.685794,39.509107&name=%E6%82%A0%E5%AE%A0%E5%8A%A8%E7%89%A9%E8%AF%8A%E6%89%80&src=vetmap&coordinate=gaode&callnative=1","route_id":"r1","route_name":"第1段"},{"name":"滦南县爱多家动物门诊","address":"倴城镇南大街231号鼎盛花园南门对面爱多家动物门诊","phone":"15230303131;17713192881","category":"医疗保健服务;动物医疗场所;宠物诊所","area":"","lng":118.695141,"lat":39.505401,"amap_id":"B0JKG9CO7D","order":20,"prev_distance_km":0.902,"cumulative_distance_km":63.425,"amap_marker_url":"https://uri.amap.com/marker?position=118.695141,39.505401&name=%E6%BB%A6%E5%8D%97%E5%8E%BF%E7%88%B1%E5%A4%9A%E5%AE%B6%E5%8A%A8%E7%89%A9%E9%97%A8%E8%AF%8A&src=vetmap&coordinate=gaode&callnative=1","route_id":"r1","route_name":"第1段"},{"name":"滦南县畜丰动物诊疗室","address":"长泰街","phone":"18632503622","category":"医疗保健服务;动物医疗场所;宠物诊所","area":"","lng":118.784665,"lat":39.581333,"amap_id":"B0GRDOM78J","order":21,"prev_distance_km":11.411,"cumulative_distance_km":74.837,"amap_marker_url":"https://uri.amap.com/marker?position=118.784665,39.581333&name=%E6%BB%A6%E5%8D%97%E5%8E%BF%E7%95%9C%E4%B8%B0%E5%8A%A8%E7%89%A9%E8%AF%8A%E7%96%97%E5%AE%A4&src=vetmap&coordinate=gaode&callnative=1","route_id":"r1","route_name":"第1段"},{"name":"牧缘动物诊所","address":"长泰街与098乡道交叉口西北20米","phone":"0315-4479518;15612555627","category":"医疗保健服务;动物医疗场所;宠物诊所","area":"","lng":118.789754,"lat":39.581829,"amap_id":"B0FFKMEO5K","order":22,"prev_distance_km":0.44,"cumulative_distance_km":75.276,"amap_marker_url":"https://uri.amap.com/marker?position=118.789754,39.581829&name=%E7%89%A7%E7%BC%98%E5%8A%A8%E7%89%A9%E8%AF%8A%E6%89%80&src=vetmap&coordinate=gaode&callnative=1","route_id":"r1","route_name":"第1段"},{"name":"滦南县宇桐动物诊所","address":"兴富路与长泰街交叉口东行400米路南","phone":"17703156521","category":"医疗保健服务;动物医疗场所;宠物诊所|医疗保健服务;动物医疗场所;兽医站","area":"","lng":118.807121,"lat":39.581866,"amap_id":"B0FFHD6OBJ","order":23,"prev_distance_km":1.488,"cumulative_distance_km":76.765,"amap_marker_url":"https://uri.amap.com/marker?position=118.807121,39.581866&name=%E6%BB%A6%E5%8D%97%E5%8E%BF%E5%AE%87%E6%A1%90%E5%8A%A8%E7%89%A9%E8%AF%8A%E6%89%80&src=vetmap&coordinate=gaode&callnative=1","route_id":"r1","route_name":"第1段"}]}],"rows":[{"name":"金免康动物诊疗所(政府大街店)","address":"柏各庄派出所东南侧","phone":"","category":"医疗保健服务;动物医疗场所;动物医疗场所","area":"","lng":118.522364,"lat":39.30668,"amap_id":"B0FFKMEOOO","order":1,"prev_distance_km":0.0,"cumulative_distance_km":0.0,"amap_marker_url":"https://uri.amap.com/marker?position=118.522364,39.306680&name=%E9%87%91%E5%85%8D%E5%BA%B7%E5%8A%A8%E7%89%A9%E8%AF%8A%E7%96%97%E6%89%80%28%E6%94%BF%E5%BA%9C%E5%A4%A7%E8%A1%97%E5%BA%97%29&src=vetmap&coordinate=gaode&callnative=1","route_id":"r1","route_name":"第1段","global_order":1},{"name":"江琛兽药","address":"滦海公路与古柳线交叉口西北80米","phone":"","category":"购物服务;购物相关场所;购物相关场所|医疗保健服务;动物医疗场所;动物医疗场所","area":"","lng":118.657175,"lat":39.343575,"amap_id":"B0LBL1I7MV","order":2,"prev_distance_km":12.3,"cumulative_distance_km":12.3,"amap_marker_url":"https://uri.amap.com/marker?position=118.657175,39.343575&name=%E6%B1%9F%E7%90%9B%E5%85%BD%E8%8D%AF&src=vetmap&coordinate=gaode&callnative=1","route_id":"r1","route_name":"第1段","global_order":2},{"name":"滦南县日光动物诊所","address":"郑各庄古柳线胡各庄工业区","phone":"13513259489","category":"医疗保健服务;动物医疗场所;宠物诊所","area":"","lng":118.649967,"lat":39.397756,"amap_id":"B0FFHDPF4E","order":3,"prev_distance_km":6.056,"cumulative_distance_km":18.357,"amap_marker_url":"https://uri.amap.com/marker?position=118.649967,39.397756&name=%E6%BB%A6%E5%8D%97%E5%8E%BF%E6%97%A5%E5%85%89%E5%8A%A8%E7%89%A9%E8%AF%8A%E6%89%80&src=vetmap&coordinate=gaode&callnative=1","route_id":"r1","route_name":"第1段","global_order":3},{"name":"滦南县龙康动物诊所","address":"司各庄中学东北侧170米","phone":"","category":"医疗保健服务;动物医疗场所;宠物诊所","area":"","lng":118.512446,"lat":39.443682,"amap_id":"B0L2RKLBMV","order":4,"prev_distance_km":12.869,"cumulative_distance_km":31.226,"amap_marker_url":"https://uri.amap.com/marker?position=118.512446,39.443682&name=%E6%BB%A6%E5%8D%97%E5%8E%BF%E9%BE%99%E5%BA%B7%E5%8A%A8%E7%89%A9%E8%AF%8A%E6%89%80&src=vetmap&coordinate=gaode&callnative=1","route_id":"r1","route_name":"第1段","global_order":4},{"name":"滦南县永恒动物诊所","address":"杨柏线附近","phone":"0315-4422855;13663378362;13832538782","category":"医疗保健服务;动物医疗场所;宠物诊所","area":"","lng":118.568526,"lat":39.546338,"amap_id":"B0FFGA3YCO","order":5,"prev_distance_km":12.388,"cumulative_distance_km":43.614,"amap_marker_url":"https://uri.amap.com/marker?position=118.568526,39.546338&name=%E6%BB%A6%E5%8D%97%E5%8E%BF%E6%B0%B8%E6%81%92%E5%8A%A8%E7%89%A9%E8%AF%8A%E6%89%80&src=vetmap&coordinate=gaode&callnative=1","route_id":"r1","route_name":"第1段","global_order":5},{"name":"滦南县牧欣源动物诊所","address":"商贸街与杨柏线交叉口西40米","phone":"","category":"医疗保健服务;动物医疗场所;宠物诊所","area":"","lng":118.571704,"lat":39.547061,"amap_id":"B0J04D2DQE","order":6,"prev_distance_km":0.284,"cumulative_distance_km":43.898,"amap_marker_url":"https://uri.amap.com/marker?position=118.571704,39.547061&name=%E6%BB%A6%E5%8D%97%E5%8E%BF%E7%89%A7%E6%AC%A3%E6%BA%90%E5%8A%A8%E7%89%A9%E8%AF%8A%E6%89%80&src=vetmap&coordinate=gaode&callnative=1","route_id":"r1","route_name":"第1段","global_order":6},{"name":"晓松动物诊疗室","address":"倴城镇上坡子完全小学东北门西北60米","phone":"","category":"医疗保健服务;动物医疗场所;宠物诊所","area":"","lng":118.632719,"lat":39.467978,"amap_id":"B0FFKLHM6P","order":7,"prev_distance_km":10.234,"cumulative_distance_km":54.132,"amap_marker_url":"https://uri.amap.com/marker?position=118.632719,39.467978&name=%E6%99%93%E6%9D%BE%E5%8A%A8%E7%89%A9%E8%AF%8A%E7%96%97%E5%AE%A4&src=vetmap&coordinate=gaode&callnative=1","route_id":"r1","route_name":"第1段","global_order":7},{"name":"滦南县媛乐动物医院","address":"中红建材城21栋101","phone":"13111465669","category":"医疗保健服务;动物医疗场所;宠物诊所","area":"","lng":118.658787,"lat":39.494849,"amap_id":"B0HR6A8L2H","order":8,"prev_distance_km":3.733,"cumulative_distance_km":57.864,"amap_marker_url":"https://uri.amap.com/marker?position=118.658787,39.494849&name=%E6%BB%A6%E5%8D%97%E5%8E%BF%E5%AA%9B%E4%B9%90%E5%8A%A8%E7%89%A9%E5%8C%BB%E9%99%A2&src=vetmap&coordinate=gaode&callnative=1","route_id":"r1","route_name":"第1段","global_order":8},{"name":"七宠专业宠物美容","address":"和谐路178号","phone":"19948521777","category":"医疗保健服务;动物医疗场所;宠物诊所","area":"","lng":118.658899,"lat":39.500236,"amap_id":"B0LKJA1FL2","order":9,"prev_distance_km":0.599,"cumulative_distance_km":58.463,"amap_marker_url":"https://uri.amap.com/marker?position=118.658899,39.500236&name=%E4%B8%83%E5%AE%A0%E4%B8%93%E4%B8%9A%E5%AE%A0%E7%89%A9%E7%BE%8E%E5%AE%B9&src=vetmap&coordinate=gaode&callnative=1","route_id":"r1","route_name":"第1段","global_order":9},{"name":"滦南县坤牧动物诊所","address":"和谐路与中大街交叉口东南100米","phone":"","category":"医疗保健服务;动物医疗场所;宠物诊所","area":"","lng":118.658125,"lat":39.504575,"amap_id":"B0L2RSLX2K","order":10,"prev_distance_km":0.487,"cumulative_distance_km":58.95,"amap_marker_url":"https://uri.amap.com/marker?position=118.658125,39.504575&name=%E6%BB%A6%E5%8D%97%E5%8E%BF%E5%9D%A4%E7%89%A7%E5%8A%A8%E7%89%A9%E8%AF%8A%E6%89%80&src=vetmap&coordinate=gaode&callnative=1","route_id":"r1","route_name":"第1段","global_order":10},{"name":"邱连学宠物诊所","address":"和谐路东方宾馆北行30米","phone":"15032526999","category":"医疗保健服务;动物医疗场所;宠物诊所","area":"","lng":118.657625,"lat":39.507378,"amap_id":"B0HDSH7QMH","order":11,"prev_distance_km":0.315,"cumulative_distance_km":59.265,"amap_marker_url":"https://uri.amap.com/marker?position=118.657625,39.507378&name=%E9%82%B1%E8%BF%9E%E5%AD%A6%E5%AE%A0%E7%89%A9%E8%AF%8A%E6%89%80&src=vetmap&coordinate=gaode&callnative=1","route_id":"r1","route_name":"第1段","global_order":11},{"name":"滦南县李兵动物医院","address":"和谐路与中大街交叉口向北300米路东","phone":"15350667288","category":"医疗保健服务;动物医疗场所;宠物诊所","area":"","lng":118.657424,"lat":39.508719,"amap_id":"B0FFGNLDGD","order":12,"prev_distance_km":0.15,"cumulative_distance_km":59.415,"amap_marker_url":"https://uri.amap.com/marker?position=118.657424,39.508719&name=%E6%BB%A6%E5%8D%97%E5%8E%BF%E6%9D%8E%E5%85%B5%E5%8A%A8%E7%89%A9%E5%8C%BB%E9%99%A2&src=vetmap&coordinate=gaode&callnative=1","route_id":"r1","route_name":"第1段","global_order":12},{"name":"中宠宠物美容","address":"和谐路与文明街交叉口北80米","phone":"13303346575","category":"医疗保健服务;动物医疗场所;宠物诊所","area":"","lng":118.657129,"lat":39.51042,"amap_id":"B0FFKZ9HQJ","order":13,"prev_distance_km":0.191,"cumulative_distance_km":59.606,"amap_marker_url":"https://uri.amap.com/marker?position=118.657129,39.510420&name=%E4%B8%AD%E5%AE%A0%E5%AE%A0%E7%89%A9%E7%BE%8E%E5%AE%B9&src=vetmap&coordinate=gaode&callnative=1","route_id":"r1","route_name":"第1段","global_order":13},{"name":"滦南县硕成动物诊所","address":"和谐路与文明街交叉口北100米","phone":"13933456691","category":"医疗保健服务;动物医疗场所;宠物诊所","area":"","lng":118.657073,"lat":39.51057,"amap_id":"B0FFJYB3CL","order":14,"prev_distance_km":0.017,"cumulative_distance_km":59.623,"amap_marker_url":"https://uri.amap.com/marker?position=118.657073,39.510570&name=%E6%BB%A6%E5%8D%97%E5%8E%BF%E7%A1%95%E6%88%90%E5%8A%A8%E7%89%A9%E8%AF%8A%E6%89%80&src=vetmap&coordinate=gaode&callnative=1","route_id":"r1","route_name":"第1段","global_order":14},{"name":"滦南县瑞盛动物医院","address":"和谐路东侧","phone":"15100556658","category":"医疗保健服务;动物医疗场所;宠物诊所","area":"","lng":118.657056,"lat":39.510822,"amap_id":"B0FFLGH51R","order":15,"prev_distance_km":0.028,"cumulative_distance_km":59.651,"amap_marker_url":"https://uri.amap.com/marker?position=118.657056,39.510822&name=%E6%BB%A6%E5%8D%97%E5%8E%BF%E7%91%9E%E7%9B%9B%E5%8A%A8%E7%89%A9%E5%8C%BB%E9%99%A2&src=vetmap&coordinate=gaode&callnative=1","route_id":"r1","route_name":"第1段","global_order":15},{"name":"滦南飞然动物诊所","address":"友谊路与安平街交叉口北200米","phone":"13933340131;15630551003","category":"医疗保健服务;动物医疗场所;宠物诊所","area":"","lng":118.662834,"lat":39.514549,"amap_id":"B0KUK1DS64","order":16,"prev_distance_km":0.646,"cumulative_distance_km":60.298,"amap_marker_url":"https://uri.amap.com/marker?position=118.662834,39.514549&name=%E6%BB%A6%E5%8D%97%E9%A3%9E%E7%84%B6%E5%8A%A8%E7%89%A9%E8%AF%8A%E6%89%80&src=vetmap&coordinate=gaode&callnative=1","route_id":"r1","route_name":"第1段","global_order":16},{"name":"滦南县红康源动物诊所","address":"兆才大街与育才路交叉口东北40米","phone":"","category":"医疗保健服务;动物医疗场所;宠物诊所","area":"","lng":118.668092,"lat":39.516398,"amap_id":"B0JGPZK8E9","order":17,"prev_distance_km":0.496,"cumulative_distance_km":60.793,"amap_marker_url":"https://uri.amap.com/marker?position=118.668092,39.516398&name=%E6%BB%A6%E5%8D%97%E5%8E%BF%E7%BA%A2%E5%BA%B7%E6%BA%90%E5%8A%A8%E7%89%A9%E8%AF%8A%E6%89%80&src=vetmap&coordinate=gaode&callnative=1","route_id":"r1","route_name":"第1段","global_order":17},{"name":"琪琪宠物诊所","address":"兆才大街教育局东行100米路南51号","phone":"13730503907;18712845591","category":"医疗保健服务;动物医疗场所;宠物诊所","area":"","lng":118.668398,"lat":39.515965,"amap_id":"B0FFJYBF00","order":18,"prev_distance_km":0.055,"cumulative_distance_km":60.848,"amap_marker_url":"https://uri.amap.com/marker?position=118.668398,39.515965&name=%E7%90%AA%E7%90%AA%E5%AE%A0%E7%89%A9%E8%AF%8A%E6%89%80&src=vetmap&coordinate=gaode&callnative=1","route_id":"r1","route_name":"第1段","global_order":18},{"name":"悠宠动物诊所","address":"翰林雅苑2期东北1门旁","phone":"15233395685","category":"医疗保健服务;动物医疗场所;宠物诊所","area":"","lng":118.685794,"lat":39.509107,"amap_id":"B0FFJ7W0UP","order":19,"prev_distance_km":1.676,"cumulative_distance_km":62.524,"amap_marker_url":"https://uri.amap.com/marker?position=118.685794,39.509107&name=%E6%82%A0%E5%AE%A0%E5%8A%A8%E7%89%A9%E8%AF%8A%E6%89%80&src=vetmap&coordinate=gaode&callnative=1","route_id":"r1","route_name":"第1段","global_order":19},{"name":"滦南县爱多家动物门诊","address":"倴城镇南大街231号鼎盛花园南门对面爱多家动物门诊","phone":"15230303131;17713192881","category":"医疗保健服务;动物医疗场所;宠物诊所","area":"","lng":118.695141,"lat":39.505401,"amap_id":"B0JKG9CO7D","order":20,"prev_distance_km":0.902,"cumulative_distance_km":63.425,"amap_marker_url":"https://uri.amap.com/marker?position=118.695141,39.505401&name=%E6%BB%A6%E5%8D%97%E5%8E%BF%E7%88%B1%E5%A4%9A%E5%AE%B6%E5%8A%A8%E7%89%A9%E9%97%A8%E8%AF%8A&src=vetmap&coordinate=gaode&callnative=1","route_id":"r1","route_name":"第1段","global_order":20},{"name":"滦南县畜丰动物诊疗室","address":"长泰街","phone":"18632503622","category":"医疗保健服务;动物医疗场所;宠物诊所","area":"","lng":118.784665,"lat":39.581333,"amap_id":"B0GRDOM78J","order":21,"prev_distance_km":11.411,"cumulative_distance_km":74.837,"amap_marker_url":"https://uri.amap.com/marker?position=118.784665,39.581333&name=%E6%BB%A6%E5%8D%97%E5%8E%BF%E7%95%9C%E4%B8%B0%E5%8A%A8%E7%89%A9%E8%AF%8A%E7%96%97%E5%AE%A4&src=vetmap&coordinate=gaode&callnative=1","route_id":"r1","route_name":"第1段","global_order":21},{"name":"牧缘动物诊所","address":"长泰街与098乡道交叉口西北20米","phone":"0315-4479518;15612555627","category":"医疗保健服务;动物医疗场所;宠物诊所","area":"","lng":118.789754,"lat":39.581829,"amap_id":"B0FFKMEO5K","order":22,"prev_distance_km":0.44,"cumulative_distance_km":75.276,"amap_marker_url":"https://uri.amap.com/marker?position=118.789754,39.581829&name=%E7%89%A7%E7%BC%98%E5%8A%A8%E7%89%A9%E8%AF%8A%E6%89%80&src=vetmap&coordinate=gaode&callnative=1","route_id":"r1","route_name":"第1段","global_order":22},{"name":"滦南县宇桐动物诊所","address":"兴富路与长泰街交叉口东行400米路南","phone":"17703156521","category":"医疗保健服务;动物医疗场所;宠物诊所|医疗保健服务;动物医疗场所;兽医站","area":"","lng":118.807121,"lat":39.581866,"amap_id":"B0FFHD6OBJ","order":23,"prev_distance_km":1.488,"cumulative_distance_km":76.765,"amap_marker_url":"https://uri.amap.com/marker?position=118.807121,39.581866&name=%E6%BB%A6%E5%8D%97%E5%8E%BF%E5%AE%87%E6%A1%90%E5%8A%A8%E7%89%A9%E8%AF%8A%E6%89%80&src=vetmap&coordinate=gaode&callnative=1","route_id":"r1","route_name":"第1段","global_order":23}]}