{"summary":{"id":"d00978","province":"河北省","city":"保定市","district":"曲阳县","count":13,"total_distance_km":48.218,"coordinate_system":"GCJ-02 / Amap","generated_at":"2026-05-07 19:57:22"},"rows":[{"name":"燕赵动物诊所","address":"燕赵大街与燕南路交叉口南80米","phone":"13513406029","category":"医疗保健服务;动物医疗场所;宠物诊所","area":"","lng":114.814271,"lat":38.555036,"amap_id":"B0HDOY628B","order":1,"prev_distance_km":0.0,"cumulative_distance_km":0.0,"amap_marker_url":"https://uri.amap.com/marker?position=114.814271,38.555036&name=%E7%87%95%E8%B5%B5%E5%8A%A8%E7%89%A9%E8%AF%8A%E6%89%80&src=vetmap&coordinate=gaode&callnative=1"},{"name":"文德镇兽医站","address":"文德镇南洪德中学东南侧150米","phone":"","category":"医疗保健服务;动物医疗场所;兽医站","area":"","lng":114.774366,"lat":38.579697,"amap_id":"B0J1MHUZD2","order":2,"prev_distance_km":4.422,"cumulative_distance_km":4.422,"amap_marker_url":"https://uri.amap.com/marker?position=114.774366,38.579697&name=%E6%96%87%E5%BE%B7%E9%95%87%E5%85%BD%E5%8C%BB%E7%AB%99&src=vetmap&coordinate=gaode&callnative=1"},{"name":"关爱动物诊所","address":"东环路中段关爱动物诊所宠物医院化验宠物洗澡美容宠物保险定点医院","phone":"13400362260","category":"医疗保健服务;动物医疗场所;宠物诊所","area":"","lng":114.75325,"lat":38.62213,"amap_id":"B0G39SOPJM","order":3,"prev_distance_km":5.063,"cumulative_distance_km":9.485,"amap_marker_url":"https://uri.amap.com/marker?position=114.753250,38.622130&name=%E5%85%B3%E7%88%B1%E5%8A%A8%E7%89%A9%E8%AF%8A%E6%89%80&src=vetmap&coordinate=gaode&callnative=1"},{"name":"佑爱动物医院","address":"东环路与恒山东路交叉口东20米","phone":"","category":"医疗保健服务;动物医疗场所;宠物诊所","area":"","lng":114.753075,"lat":38.622125,"amap_id":"B0M69DARNF","order":4,"prev_distance_km":0.015,"cumulative_distance_km":9.5,"amap_marker_url":"https://uri.amap.com/marker?position=114.753075,38.622125&name=%E4%BD%91%E7%88%B1%E5%8A%A8%E7%89%A9%E5%8C%BB%E9%99%A2&src=vetmap&coordinate=gaode&callnative=1"},{"name":"永恒宠物诊所","address":"嘉禾街","phone":"17631653886","category":"医疗保健服务;动物医疗场所;宠物诊所","area":"","lng":114.744802,"lat":38.615547,"amap_id":"B0KKRAUVXX","order":5,"prev_distance_km":1.025,"cumulative_distance_km":10.526,"amap_marker_url":"https://uri.amap.com/marker?position=114.744802,38.615547&name=%E6%B0%B8%E6%81%92%E5%AE%A0%E7%89%A9%E8%AF%8A%E6%89%80&src=vetmap&coordinate=gaode&callnative=1"},{"name":"宠爱动物门诊","address":"恒阳街122号","phone":"13831243901","category":"医疗保健服务;动物医疗场所;宠物诊所","area":"","lng":114.730355,"lat":38.623565,"amap_id":"B0GDL7JZDI","order":6,"prev_distance_km":1.54,"cumulative_distance_km":12.065,"amap_marker_url":"https://uri.amap.com/marker?position=114.730355,38.623565&name=%E5%AE%A0%E7%88%B1%E5%8A%A8%E7%89%A9%E9%97%A8%E8%AF%8A&src=vetmap&coordinate=gaode&callnative=1"},{"name":"贝安宠物诊所","address":"汇博·阳光水岸东门北110米","phone":"17532099883","category":"医疗保健服务;动物医疗场所;宠物诊所","area":"","lng":114.709283,"lat":38.617592,"amap_id":"B0I3J79PMJ","order":7,"prev_distance_km":1.947,"cumulative_distance_km":14.012,"amap_marker_url":"https://uri.amap.com/marker?position=114.709283,38.617592&name=%E8%B4%9D%E5%AE%89%E5%AE%A0%E7%89%A9%E8%AF%8A%E6%89%80&src=vetmap&coordinate=gaode&callnative=1"},{"name":"动物疫苗","address":"天地嘉园西北门东北180米","phone":"","category":"医疗保健服务;动物医疗场所;动物医疗场所","area":"","lng":114.698764,"lat":38.62918,"amap_id":"B0L6H5FGHQ","order":8,"prev_distance_km":1.58,"cumulative_distance_km":15.592,"amap_marker_url":"https://uri.amap.com/marker?position=114.698764,38.629180&name=%E5%8A%A8%E7%89%A9%E7%96%AB%E8%8B%97&src=vetmap&coordinate=gaode&callnative=1"},{"name":"农和兽药饲料","address":"富盛小区东南门旁","phone":"15175335499","category":"医疗保健服务;动物医疗场所;动物医疗场所","area":"","lng":114.69975,"lat":38.631823,"amap_id":"B0I6B7VBSJ","order":9,"prev_distance_km":0.306,"cumulative_distance_km":15.898,"amap_marker_url":"https://uri.amap.com/marker?position=114.699750,38.631823&name=%E5%86%9C%E5%92%8C%E5%85%BD%E8%8D%AF%E9%A5%B2%E6%96%99&src=vetmap&coordinate=gaode&callnative=1"},{"name":"康博动物医药","address":"驿头村养殖场东侧200米","phone":"","category":"医疗保健服务;动物医疗场所;宠物诊所","area":"","lng":114.775313,"lat":38.697806,"amap_id":"B0K3YS4OT5","order":10,"prev_distance_km":9.842,"cumulative_distance_km":25.741,"amap_marker_url":"https://uri.amap.com/marker?position=114.775313,38.697806&name=%E5%BA%B7%E5%8D%9A%E5%8A%A8%E7%89%A9%E5%8C%BB%E8%8D%AF&src=vetmap&coordinate=gaode&callnative=1"},{"name":"曲唐交界动物疫苗优品销售处","address":"曲唐草料交易市场西侧50米","phone":"","category":"医疗保健服务;动物医疗场所;动物医疗场所","area":"","lng":114.775719,"lat":38.697956,"amap_id":"B0K6GDUM81","order":11,"prev_distance_km":0.039,"cumulative_distance_km":25.78,"amap_marker_url":"https://uri.amap.com/marker?position=114.775719,38.697956&name=%E6%9B%B2%E5%94%90%E4%BA%A4%E7%95%8C%E5%8A%A8%E7%89%A9%E7%96%AB%E8%8B%97%E4%BC%98%E5%93%81%E9%94%80%E5%94%AE%E5%A4%84&src=vetmap&coordinate=gaode&callnative=1"},{"name":"阿妹动物诊所","address":"孝墓乡西口南村34号","phone":"15231299111","category":"医疗保健服务;动物医疗场所;兽医站","area":"","lng":114.612101,"lat":38.716695,"amap_id":"B0FFLLWV7G","order":12,"prev_distance_km":14.349,"cumulative_distance_km":40.129,"amap_marker_url":"https://uri.amap.com/marker?position=114.612101,38.716695&name=%E9%98%BF%E5%A6%B9%E5%8A%A8%E7%89%A9%E8%AF%8A%E6%89%80&src=vetmap&coordinate=gaode&callnative=1"},{"name":"兽医站","address":"337国道与永兴路交叉口西北60米","phone":"13171687581","category":"医疗保健服务;动物医疗场所;兽医站","area":"","lng":114.627417,"lat":38.788455,"amap_id":"B0GUXZ9V0R","order":13,"prev_distance_km":8.089,"cumulative_distance_km":48.218,"amap_marker_url":"https://uri.amap.com/marker?position=114.627417,38.788455&name=%E5%85%BD%E5%8C%BB%E7%AB%99&src=vetmap&coordinate=gaode&callnative=1"}]}