{"summary":{"id":"d00976","province":"河北省","city":"保定市","district":"徐水区","count":8,"total_distance_km":9.981,"coordinate_system":"GCJ-02 / Amap","generated_at":"2026-05-07 20:23:05"},"rows":[{"name":"保定市徐水区崔庄动物防疫站","address":"崔庄动物防疫监督站西北侧","phone":"","category":"医疗保健服务;动物医疗场所;动物医疗场所","area":"","lng":115.698406,"lat":38.981512,"amap_id":"B0J1J7VK6X","order":1,"prev_distance_km":0.0,"cumulative_distance_km":0.0,"amap_marker_url":"https://uri.amap.com/marker?position=115.698406,38.981512&name=%E4%BF%9D%E5%AE%9A%E5%B8%82%E5%BE%90%E6%B0%B4%E5%8C%BA%E5%B4%94%E5%BA%84%E5%8A%A8%E7%89%A9%E9%98%B2%E7%96%AB%E7%AB%99&src=vetmap&coordinate=gaode&callnative=1"},{"name":"宠物美容店","address":"宏兴东路与北关东胡同交叉口西100米","phone":"","category":"医疗保健服务;动物医疗场所;动物医疗场所","area":"","lng":115.659774,"lat":39.021288,"amap_id":"B0J12M3ON3","order":2,"prev_distance_km":5.541,"cumulative_distance_km":5.541,"amap_marker_url":"https://uri.amap.com/marker?position=115.659774,39.021288&name=%E5%AE%A0%E7%89%A9%E7%BE%8E%E5%AE%B9%E5%BA%97&src=vetmap&coordinate=gaode&callnative=1"},{"name":"富道宠物医院","address":"安顺八号小区北2门东70米","phone":"15930757880","category":"医疗保健服务;动物医疗场所;宠物诊所","area":"","lng":115.650109,"lat":39.028929,"amap_id":"B01380Q63Z","order":3,"prev_distance_km":1.191,"cumulative_distance_km":6.733,"amap_marker_url":"https://uri.amap.com/marker?position=115.650109,39.028929&name=%E5%AF%8C%E9%81%93%E5%AE%A0%E7%89%A9%E5%8C%BB%E9%99%A2&src=vetmap&coordinate=gaode&callnative=1"},{"name":"至宠动物诊所","address":"长城北大街5299号(汽车南站北行30米路东)","phone":"15031966327","category":"医疗保健服务;动物医疗场所;宠物诊所","area":"","lng":115.639937,"lat":39.022457,"amap_id":"B0FFFTQLAR","order":4,"prev_distance_km":1.136,"cumulative_distance_km":7.868,"amap_marker_url":"https://uri.amap.com/marker?position=115.639937,39.022457&name=%E8%87%B3%E5%AE%A0%E5%8A%A8%E7%89%A9%E8%AF%8A%E6%89%80&src=vetmap&coordinate=gaode&callnative=1"},{"name":"宠康动物诊疗","address":"安肃镇同兴路78号建筑公司小区1号楼","phone":"13754526888","category":"医疗保健服务;动物医疗场所;宠物诊所","area":"","lng":115.638499,"lat":39.014244,"amap_id":"B0FFKGFL1Z","order":5,"prev_distance_km":0.922,"cumulative_distance_km":8.79,"amap_marker_url":"https://uri.amap.com/marker?position=115.638499,39.014244&name=%E5%AE%A0%E5%BA%B7%E5%8A%A8%E7%89%A9%E8%AF%8A%E7%96%97&src=vetmap&coordinate=gaode&callnative=1"},{"name":"贝尔德动物医院(徐水分店)","address":"南盛源大街永兴信用社商住楼北起6号店铺","phone":"0312-5853066;18131376985","category":"医疗保健服务;动物医疗场所;宠物诊所","area":"","lng":115.643153,"lat":39.010081,"amap_id":"B0FFL9M19C","order":6,"prev_distance_km":0.613,"cumulative_distance_km":9.403,"amap_marker_url":"https://uri.amap.com/marker?position=115.643153,39.010081&name=%E8%B4%9D%E5%B0%94%E5%BE%B7%E5%8A%A8%E7%89%A9%E5%8C%BB%E9%99%A2%28%E5%BE%90%E6%B0%B4%E5%88%86%E5%BA%97%29&src=vetmap&coordinate=gaode&callnative=1"},{"name":"美联众合动物医院(徐水分院)","address":"巨力中路221号","phone":"0312-8610600;17733222110","category":"医疗保健服务;动物医疗场所;宠物诊所","area":"","lng":115.643571,"lat":39.011039,"amap_id":"B0IAL97Y7Z","order":7,"prev_distance_km":0.112,"cumulative_distance_km":9.516,"amap_marker_url":"https://uri.amap.com/marker?position=115.643571,39.011039&name=%E7%BE%8E%E8%81%94%E4%BC%97%E5%90%88%E5%8A%A8%E7%89%A9%E5%8C%BB%E9%99%A2%28%E5%BE%90%E6%B0%B4%E5%88%86%E9%99%A2%29&src=vetmap&coordinate=gaode&callnative=1"},{"name":"博宠宠物诊所(同兴路店)","address":"同兴路106号","phone":"13483914656","category":"医疗保健服务;动物医疗场所;宠物诊所","area":"","lng":115.648231,"lat":39.013132,"amap_id":"B01380R5OK","order":8,"prev_distance_km":0.465,"cumulative_distance_km":9.981,"amap_marker_url":"https://uri.amap.com/marker?position=115.648231,39.013132&name=%E5%8D%9A%E5%AE%A0%E5%AE%A0%E7%89%A9%E8%AF%8A%E6%89%80%28%E5%90%8C%E5%85%B4%E8%B7%AF%E5%BA%97%29&src=vetmap&coordinate=gaode&callnative=1"}]}