{"summary":{"id":"d00965","province":"江西省","city":"赣州市","district":"龙南市","count":5,"total_distance_km":23.646,"coordinate_system":"GCJ-02 / Amap","generated_at":"2026-05-07 20:23:05"},"rows":[{"name":"小脚印宠物诊所","address":"新世界G3栋125号","phone":"15170620771","category":"医疗保健服务;动物医疗场所;宠物诊所","area":"","lng":114.800002,"lat":24.902786,"amap_id":"B0FFKQTDPC","order":1,"prev_distance_km":0.0,"cumulative_distance_km":0.0,"amap_marker_url":"https://uri.amap.com/marker?position=114.800002,24.902786&name=%E5%B0%8F%E8%84%9A%E5%8D%B0%E5%AE%A0%E7%89%A9%E8%AF%8A%E6%89%80&src=vetmap&coordinate=gaode&callnative=1"},{"name":"虫虫宠物医疗诊所","address":"龙景尊府3号店面","phone":"13698058927;15270751003","category":"医疗保健服务;动物医疗场所;宠物诊所","area":"","lng":114.796319,"lat":24.899589,"amap_id":"B0HU1HBHBF","order":2,"prev_distance_km":0.514,"cumulative_distance_km":0.514,"amap_marker_url":"https://uri.amap.com/marker?position=114.796319,24.899589&name=%E8%99%AB%E8%99%AB%E5%AE%A0%E7%89%A9%E5%8C%BB%E7%96%97%E8%AF%8A%E6%89%80&src=vetmap&coordinate=gaode&callnative=1"},{"name":"益兽堂","address":"滨江路与龙翔大道交叉口西南20米","phone":"13237978717","category":"医疗保健服务;动物医疗场所;兽医站","area":"","lng":114.794089,"lat":24.899427,"amap_id":"B0JA7SRSRA","order":3,"prev_distance_km":0.226,"cumulative_distance_km":0.74,"amap_marker_url":"https://uri.amap.com/marker?position=114.794089,24.899427&name=%E7%9B%8A%E5%85%BD%E5%A0%82&src=vetmap&coordinate=gaode&callnative=1"},{"name":"瑞康宠物医院·综合全科·24h危重诊(东湖大道店)","address":"新都大道御龙城店面16-7","phone":"14770808920","category":"医疗保健服务;动物医疗场所;宠物诊所","area":"","lng":114.809101,"lat":24.883493,"amap_id":"B0H1HHS2QK","order":4,"prev_distance_km":2.331,"cumulative_distance_km":3.07,"amap_marker_url":"https://uri.amap.com/marker?position=114.809101,24.883493&name=%E7%91%9E%E5%BA%B7%E5%AE%A0%E7%89%A9%E5%8C%BB%E9%99%A2%C2%B7%E7%BB%BC%E5%90%88%E5%85%A8%E7%A7%91%C2%B724h%E5%8D%B1%E9%87%8D%E8%AF%8A%28%E4%B8%9C%E6%B9%96%E5%A4%A7%E9%81%93%E5%BA%97%29&src=vetmap&coordinate=gaode&callnative=1"},{"name":"明珠动物药品","address":"青年路与榆兴路交叉口东南200米","phone":"","category":"医疗保健服务;动物医疗场所;动物医疗场所","area":"","lng":114.803325,"lat":24.698525,"amap_id":"B0LDCHP3TH","order":5,"prev_distance_km":20.576,"cumulative_distance_km":23.646,"amap_marker_url":"https://uri.amap.com/marker?position=114.803325,24.698525&name=%E6%98%8E%E7%8F%A0%E5%8A%A8%E7%89%A9%E8%8D%AF%E5%93%81&src=vetmap&coordinate=gaode&callnative=1"}]}