{"summary":{"id":"d00943","province":"江西省","city":"景德镇市","district":"珠山区","count":13,"total_distance_km":11.136,"coordinate_system":"GCJ-02 / Amap","generated_at":"2026-05-07 20:23:05"},"rows":[{"name":"宠巢动物诊所","address":"莱顿风情东南门西南60米","phone":"18879895750","category":"医疗保健服务;动物医疗场所;宠物诊所","area":"广场北路","lng":117.215067,"lat":29.311154,"amap_id":"B0JDJLNL5Z","order":1,"prev_distance_km":0.0,"cumulative_distance_km":0.0,"amap_marker_url":"https://uri.amap.com/marker?position=117.215067,29.311154&name=%E5%AE%A0%E5%B7%A2%E5%8A%A8%E7%89%A9%E8%AF%8A%E6%89%80&src=vetmap&coordinate=gaode&callnative=1"},{"name":"天天动物医院","address":"梨树园南苑","phone":"19870888802","category":"医疗保健服务;动物医疗场所;宠物诊所","area":"","lng":117.222029,"lat":29.313237,"amap_id":"B0I35HM42Z","order":2,"prev_distance_km":0.714,"cumulative_distance_km":0.714,"amap_marker_url":"https://uri.amap.com/marker?position=117.222029,29.313237&name=%E5%A4%A9%E5%A4%A9%E5%8A%A8%E7%89%A9%E5%8C%BB%E9%99%A2&src=vetmap&coordinate=gaode&callnative=1"},{"name":"天天宠物美容部","address":"通站路与昌江大道交叉口南80米","phone":"","category":"医疗保健服务;动物医疗场所;动物医疗场所","area":"","lng":117.222062,"lat":29.313134,"amap_id":"B0K6LUL1IH","order":3,"prev_distance_km":0.012,"cumulative_distance_km":0.726,"amap_marker_url":"https://uri.amap.com/marker?position=117.222062,29.313134&name=%E5%A4%A9%E5%A4%A9%E5%AE%A0%E7%89%A9%E7%BE%8E%E5%AE%B9%E9%83%A8&src=vetmap&coordinate=gaode&callnative=1"},{"name":"泽一动物医院","address":"恒大御景S3-124-126","phone":"","category":"医疗保健服务;动物医疗场所;宠物诊所","area":"","lng":117.246038,"lat":29.31334,"amap_id":"B0FFMDL62S","order":4,"prev_distance_km":2.325,"cumulative_distance_km":3.05,"amap_marker_url":"https://uri.amap.com/marker?position=117.246038,29.313340&name=%E6%B3%BD%E4%B8%80%E5%8A%A8%E7%89%A9%E5%8C%BB%E9%99%A2&src=vetmap&coordinate=gaode&callnative=1"},{"name":"爱乐康宠物诊所","address":"朝阳路长虹金域中央E1-03商铺","phone":"15079865060","category":"医疗保健服务;动物医疗场所;宠物诊所","area":"长虹","lng":117.249869,"lat":29.300862,"amap_id":"B0FFGAG3HT","order":5,"prev_distance_km":1.436,"cumulative_distance_km":4.487,"amap_marker_url":"https://uri.amap.com/marker?position=117.249869,29.300862&name=%E7%88%B1%E4%B9%90%E5%BA%B7%E5%AE%A0%E7%89%A9%E8%AF%8A%E6%89%80&src=vetmap&coordinate=gaode&callnative=1"},{"name":"爱心伴侣宠物医院","address":"蝶恋园小区西北门旁","phone":"13979825090;18979881663","category":"医疗保健服务;动物医疗场所;宠物诊所","area":"","lng":117.244765,"lat":29.289827,"amap_id":"B0FFK7MZW6","order":6,"prev_distance_km":1.323,"cumulative_distance_km":5.81,"amap_marker_url":"https://uri.amap.com/marker?position=117.244765,29.289827&name=%E7%88%B1%E5%BF%83%E4%BC%B4%E4%BE%A3%E5%AE%A0%E7%89%A9%E5%8C%BB%E9%99%A2&src=vetmap&coordinate=gaode&callnative=1"},{"name":"宠物诊所","address":"瓷都宾馆边上的宠物诊所","phone":"15879999056","category":"医疗保健服务;动物医疗场所;宠物诊所","area":"","lng":117.224271,"lat":29.289234,"amap_id":"B0FFIWJJTK","order":7,"prev_distance_km":1.989,"cumulative_distance_km":7.798,"amap_marker_url":"https://uri.amap.com/marker?position=117.224271,29.289234&name=%E5%AE%A0%E7%89%A9%E8%AF%8A%E6%89%80&src=vetmap&coordinate=gaode&callnative=1"},{"name":"联萌宠物医院(柠萌店)","address":"通站路恒业内摩尔街99号","phone":"18907983311","category":"医疗保健服务;动物医疗场所;宠物诊所","area":"","lng":117.220746,"lat":29.281731,"amap_id":"B0FFKTDQMX","order":8,"prev_distance_km":0.902,"cumulative_distance_km":8.7,"amap_marker_url":"https://uri.amap.com/marker?position=117.220746,29.281731&name=%E8%81%94%E8%90%8C%E5%AE%A0%E7%89%A9%E5%8C%BB%E9%99%A2%28%E6%9F%A0%E8%90%8C%E5%BA%97%29&src=vetmap&coordinate=gaode&callnative=1"},{"name":"宠奇妙宠物诊所(通站路店)","address":"通站路假日广场1期1栋3号店面","phone":"19870860705","category":"医疗保健服务;动物医疗场所;宠物诊所","area":"","lng":117.220548,"lat":29.277047,"amap_id":"B0JA3LY4D4","order":9,"prev_distance_km":0.521,"cumulative_distance_km":9.221,"amap_marker_url":"https://uri.amap.com/marker?position=117.220548,29.277047&name=%E5%AE%A0%E5%A5%87%E5%A6%99%E5%AE%A0%E7%89%A9%E8%AF%8A%E6%89%80%28%E9%80%9A%E7%AB%99%E8%B7%AF%E5%BA%97%29&src=vetmap&coordinate=gaode&callnative=1"},{"name":"乐福宠物医院","address":"景德大道御景豪庭A栋1号2号店","phone":"13030506503","category":"医疗保健服务;动物医疗场所;宠物诊所","area":"","lng":117.22123,"lat":29.274901,"amap_id":"B0FFJ4VZUG","order":10,"prev_distance_km":0.248,"cumulative_distance_km":9.469,"amap_marker_url":"https://uri.amap.com/marker?position=117.221230,29.274901&name=%E4%B9%90%E7%A6%8F%E5%AE%A0%E7%89%A9%E5%8C%BB%E9%99%A2&src=vetmap&coordinate=gaode&callnative=1"},{"name":"DoDo宠物美容","address":"御景豪庭B15号","phone":"15607087973","category":"医疗保健服务;动物医疗场所;宠物诊所","area":"","lng":117.221436,"lat":29.273846,"amap_id":"B0HKVH8BAZ","order":11,"prev_distance_km":0.119,"cumulative_distance_km":9.588,"amap_marker_url":"https://uri.amap.com/marker?position=117.221436,29.273846&name=DoDo%E5%AE%A0%E7%89%A9%E7%BE%8E%E5%AE%B9&src=vetmap&coordinate=gaode&callnative=1"},{"name":"天恒动物医院分诊部","address":"瓷都国际华城南门西140米","phone":"","category":"医疗保健服务;动物医疗场所;宠物诊所","area":"","lng":117.206957,"lat":29.279555,"amap_id":"B0J16KVDSA","order":12,"prev_distance_km":1.541,"cumulative_distance_km":11.129,"amap_marker_url":"https://uri.amap.com/marker?position=117.206957,29.279555&name=%E5%A4%A9%E6%81%92%E5%8A%A8%E7%89%A9%E5%8C%BB%E9%99%A2%E5%88%86%E8%AF%8A%E9%83%A8&src=vetmap&coordinate=gaode&callnative=1"},{"name":"爱心天恒宠物医院","address":"瓷都国际华城南门西140米","phone":"13970396636","category":"医疗保健服务;动物医疗场所;宠物诊所","area":"","lng":117.206897,"lat":29.279598,"amap_id":"B0LBXRIJ3U","order":13,"prev_distance_km":0.008,"cumulative_distance_km":11.136,"amap_marker_url":"https://uri.amap.com/marker?position=117.206897,29.279598&name=%E7%88%B1%E5%BF%83%E5%A4%A9%E6%81%92%E5%AE%A0%E7%89%A9%E5%8C%BB%E9%99%A2&src=vetmap&coordinate=gaode&callnative=1"}]}