{"summary":{"id":"d00949","province":"江西省","city":"赣州市","district":"于都县","count":7,"route_count":1,"max_route_clinics":7,"total_distance_km":14.988,"coordinate_system":"GCJ-02 / Amap","generated_at":"2026-05-07 21:29:14"},"routes":[{"id":"r1","name":"第1段","count":7,"total_distance_km":14.988,"rows":[{"name":"兽医饲料门市部","address":"远奇口腔东侧","phone":"13970126519","category":"医疗保健服务;动物医疗场所;兽医站","area":"","lng":115.475857,"lat":26.048435,"amap_id":"B0JBT1C81B","order":1,"prev_distance_km":0.0,"cumulative_distance_km":0.0,"amap_marker_url":"https://uri.amap.com/marker?position=115.475857,26.048435&name=%E5%85%BD%E5%8C%BB%E9%A5%B2%E6%96%99%E9%97%A8%E5%B8%82%E9%83%A8&src=vetmap&coordinate=gaode&callnative=1","route_id":"r1","route_name":"第1段"},{"name":"ADM动物营养技术服务中心","address":"窑塘村长坑组","phone":"18907972664","category":"医疗保健服务;动物医疗场所;动物医疗场所","area":"","lng":115.425814,"lat":25.996719,"amap_id":"B0KANS38CB","order":2,"prev_distance_km":7.621,"cumulative_distance_km":7.621,"amap_marker_url":"https://uri.amap.com/marker?position=115.425814,25.996719&name=ADM%E5%8A%A8%E7%89%A9%E8%90%A5%E5%85%BB%E6%8A%80%E6%9C%AF%E6%9C%8D%E5%8A%A1%E4%B8%AD%E5%BF%83&src=vetmap&coordinate=gaode&callnative=1","route_id":"r1","route_name":"第1段"},{"name":"牧兴动保","address":"贡江镇古田中路与站前南路交汇处福熙城9栋212#商铺二楼","phone":"","category":"医疗保健服务;动物医疗场所;动物医疗场所","area":"","lng":115.42828,"lat":25.968594,"amap_id":"B0L31ZURWV","order":3,"prev_distance_km":3.137,"cumulative_distance_km":10.758,"amap_marker_url":"https://uri.amap.com/marker?position=115.428280,25.968594&name=%E7%89%A7%E5%85%B4%E5%8A%A8%E4%BF%9D&src=vetmap&coordinate=gaode&callnative=1","route_id":"r1","route_name":"第1段"},{"name":"吉吉动物诊所","address":"福熙城东门北60米","phone":"18827973569","category":"医疗保健服务;动物医疗场所;宠物诊所","area":"","lng":115.428726,"lat":25.967707,"amap_id":"B0FFKPBTUR","order":4,"prev_distance_km":0.108,"cumulative_distance_km":10.866,"amap_marker_url":"https://uri.amap.com/marker?position=115.428726,25.967707&name=%E5%90%89%E5%90%89%E5%8A%A8%E7%89%A9%E8%AF%8A%E6%89%80&src=vetmap&coordinate=gaode&callnative=1","route_id":"r1","route_name":"第1段"},{"name":"艾迪宠物医院于都","address":"滨江大道疾控中心旁530-1-2-3号","phone":"18166063311","category":"医疗保健服务;动物医疗场所;宠物诊所","area":"滨江大道","lng":115.41031,"lat":25.950676,"amap_id":"B0FFJSN36J","order":5,"prev_distance_km":2.641,"cumulative_distance_km":13.507,"amap_marker_url":"https://uri.amap.com/marker?position=115.410310,25.950676&name=%E8%89%BE%E8%BF%AA%E5%AE%A0%E7%89%A9%E5%8C%BB%E9%99%A2%E4%BA%8E%E9%83%BD&src=vetmap&coordinate=gaode&callnative=1","route_id":"r1","route_name":"第1段"},{"name":"贝贝宠物","address":"新龙路新龙都大市场门口往河边走100米2R-10","phone":"18607075104","category":"医疗保健服务;动物医疗场所;宠物诊所","area":"长征大道","lng":115.405252,"lat":25.953419,"amap_id":"B0H2P7T1P1","order":6,"prev_distance_km":0.591,"cumulative_distance_km":14.098,"amap_marker_url":"https://uri.amap.com/marker?position=115.405252,25.953419&name=%E8%B4%9D%E8%B4%9D%E5%AE%A0%E7%89%A9&src=vetmap&coordinate=gaode&callnative=1","route_id":"r1","route_name":"第1段"},{"name":"萤火虫动物医院","address":"贡江大道翡翠湾二期4-5号商铺","phone":"18172783831","category":"医疗保健服务;动物医疗场所;宠物诊所","area":"","lng":115.403859,"lat":25.94551,"amap_id":"B0M67DY4SY","order":7,"prev_distance_km":0.89,"cumulative_distance_km":14.988,"amap_marker_url":"https://uri.amap.com/marker?position=115.403859,25.945510&name=%E8%90%A4%E7%81%AB%E8%99%AB%E5%8A%A8%E7%89%A9%E5%8C%BB%E9%99%A2&src=vetmap&coordinate=gaode&callnative=1","route_id":"r1","route_name":"第1段"}]}],"rows":[{"name":"兽医饲料门市部","address":"远奇口腔东侧","phone":"13970126519","category":"医疗保健服务;动物医疗场所;兽医站","area":"","lng":115.475857,"lat":26.048435,"amap_id":"B0JBT1C81B","order":1,"prev_distance_km":0.0,"cumulative_distance_km":0.0,"amap_marker_url":"https://uri.amap.com/marker?position=115.475857,26.048435&name=%E5%85%BD%E5%8C%BB%E9%A5%B2%E6%96%99%E9%97%A8%E5%B8%82%E9%83%A8&src=vetmap&coordinate=gaode&callnative=1","route_id":"r1","route_name":"第1段","global_order":1},{"name":"ADM动物营养技术服务中心","address":"窑塘村长坑组","phone":"18907972664","category":"医疗保健服务;动物医疗场所;动物医疗场所","area":"","lng":115.425814,"lat":25.996719,"amap_id":"B0KANS38CB","order":2,"prev_distance_km":7.621,"cumulative_distance_km":7.621,"amap_marker_url":"https://uri.amap.com/marker?position=115.425814,25.996719&name=ADM%E5%8A%A8%E7%89%A9%E8%90%A5%E5%85%BB%E6%8A%80%E6%9C%AF%E6%9C%8D%E5%8A%A1%E4%B8%AD%E5%BF%83&src=vetmap&coordinate=gaode&callnative=1","route_id":"r1","route_name":"第1段","global_order":2},{"name":"牧兴动保","address":"贡江镇古田中路与站前南路交汇处福熙城9栋212#商铺二楼","phone":"","category":"医疗保健服务;动物医疗场所;动物医疗场所","area":"","lng":115.42828,"lat":25.968594,"amap_id":"B0L31ZURWV","order":3,"prev_distance_km":3.137,"cumulative_distance_km":10.758,"amap_marker_url":"https://uri.amap.com/marker?position=115.428280,25.968594&name=%E7%89%A7%E5%85%B4%E5%8A%A8%E4%BF%9D&src=vetmap&coordinate=gaode&callnative=1","route_id":"r1","route_name":"第1段","global_order":3},{"name":"吉吉动物诊所","address":"福熙城东门北60米","phone":"18827973569","category":"医疗保健服务;动物医疗场所;宠物诊所","area":"","lng":115.428726,"lat":25.967707,"amap_id":"B0FFKPBTUR","order":4,"prev_distance_km":0.108,"cumulative_distance_km":10.866,"amap_marker_url":"https://uri.amap.com/marker?position=115.428726,25.967707&name=%E5%90%89%E5%90%89%E5%8A%A8%E7%89%A9%E8%AF%8A%E6%89%80&src=vetmap&coordinate=gaode&callnative=1","route_id":"r1","route_name":"第1段","global_order":4},{"name":"艾迪宠物医院于都","address":"滨江大道疾控中心旁530-1-2-3号","phone":"18166063311","category":"医疗保健服务;动物医疗场所;宠物诊所","area":"滨江大道","lng":115.41031,"lat":25.950676,"amap_id":"B0FFJSN36J","order":5,"prev_distance_km":2.641,"cumulative_distance_km":13.507,"amap_marker_url":"https://uri.amap.com/marker?position=115.410310,25.950676&name=%E8%89%BE%E8%BF%AA%E5%AE%A0%E7%89%A9%E5%8C%BB%E9%99%A2%E4%BA%8E%E9%83%BD&src=vetmap&coordinate=gaode&callnative=1","route_id":"r1","route_name":"第1段","global_order":5},{"name":"贝贝宠物","address":"新龙路新龙都大市场门口往河边走100米2R-10","phone":"18607075104","category":"医疗保健服务;动物医疗场所;宠物诊所","area":"长征大道","lng":115.405252,"lat":25.953419,"amap_id":"B0H2P7T1P1","order":6,"prev_distance_km":0.591,"cumulative_distance_km":14.098,"amap_marker_url":"https://uri.amap.com/marker?position=115.405252,25.953419&name=%E8%B4%9D%E8%B4%9D%E5%AE%A0%E7%89%A9&src=vetmap&coordinate=gaode&callnative=1","route_id":"r1","route_name":"第1段","global_order":6},{"name":"萤火虫动物医院","address":"贡江大道翡翠湾二期4-5号商铺","phone":"18172783831","category":"医疗保健服务;动物医疗场所;宠物诊所","area":"","lng":115.403859,"lat":25.94551,"amap_id":"B0M67DY4SY","order":7,"prev_distance_km":0.89,"cumulative_distance_km":14.988,"amap_marker_url":"https://uri.amap.com/marker?position=115.403859,25.945510&name=%E8%90%A4%E7%81%AB%E8%99%AB%E5%8A%A8%E7%89%A9%E5%8C%BB%E9%99%A2&src=vetmap&coordinate=gaode&callnative=1","route_id":"r1","route_name":"第1段","global_order":7}]}