{"summary":{"id":"d00905","province":"江西省","city":"南昌市","district":"进贤县","count":8,"total_distance_km":13.223,"coordinate_system":"GCJ-02 / Amap","generated_at":"2026-05-07 19:57:21"},"rows":[{"name":"动物防疫检疫","address":"罗岭路与罗溪大道交叉口西40米","phone":"","category":"医疗保健服务;动物医疗场所;动物医疗场所","area":"罗溪","lng":116.160405,"lat":28.412339,"amap_id":"B0FFLC79C1","order":1,"prev_distance_km":0.0,"cumulative_distance_km":0.0,"amap_marker_url":"https://uri.amap.com/marker?position=116.160405,28.412339&name=%E5%8A%A8%E7%89%A9%E9%98%B2%E7%96%AB%E6%A3%80%E7%96%AB&src=vetmap&coordinate=gaode&callnative=1"},{"name":"善美宠物诊疗中心","address":"中山大道818号御景东方店铺","phone":"13755668053","category":"医疗保健服务;动物医疗场所;宠物诊所","area":"","lng":116.244244,"lat":28.382233,"amap_id":"B0JK17ECIH","order":2,"prev_distance_km":8.858,"cumulative_distance_km":8.858,"amap_marker_url":"https://uri.amap.com/marker?position=116.244244,28.382233&name=%E5%96%84%E7%BE%8E%E5%AE%A0%E7%89%A9%E8%AF%8A%E7%96%97%E4%B8%AD%E5%BF%83&src=vetmap&coordinate=gaode&callnative=1"},{"name":"厚朴宠物医院","address":"中山大道民和坊社区一楼商铺","phone":"18079101230","category":"医疗保健服务;动物医疗场所;宠物诊所","area":"","lng":116.244809,"lat":28.381468,"amap_id":"B0KR7ZFF6O","order":3,"prev_distance_km":0.101,"cumulative_distance_km":8.959,"amap_marker_url":"https://uri.amap.com/marker?position=116.244809,28.381468&name=%E5%8E%9A%E6%9C%B4%E5%AE%A0%E7%89%A9%E5%8C%BB%E9%99%A2&src=vetmap&coordinate=gaode&callnative=1"},{"name":"京瑞动物诊疗中心","address":"汇洋小区7栋1号门面(中山大道侧)","phone":"19067960883","category":"医疗保健服务;动物医疗场所;宠物诊所","area":"民和","lng":116.244895,"lat":28.377082,"amap_id":"B0KAMH3BKE","order":4,"prev_distance_km":0.488,"cumulative_distance_km":9.447,"amap_marker_url":"https://uri.amap.com/marker?position=116.244895,28.377082&name=%E4%BA%AC%E7%91%9E%E5%8A%A8%E7%89%A9%E8%AF%8A%E7%96%97%E4%B8%AD%E5%BF%83&src=vetmap&coordinate=gaode&callnative=1"},{"name":"爱康宠物医院(猫砂·猫粮·宠物用品·南昌店)","address":"农夫路36号","phone":"18907097487","category":"医疗保健服务;动物医疗场所;宠物诊所","area":"民和","lng":116.258756,"lat":28.372294,"amap_id":"B0GK0SA7X1","order":5,"prev_distance_km":1.457,"cumulative_distance_km":10.904,"amap_marker_url":"https://uri.amap.com/marker?position=116.258756,28.372294&name=%E7%88%B1%E5%BA%B7%E5%AE%A0%E7%89%A9%E5%8C%BB%E9%99%A2%28%E7%8C%AB%E7%A0%82%C2%B7%E7%8C%AB%E7%B2%AE%C2%B7%E5%AE%A0%E7%89%A9%E7%94%A8%E5%93%81%C2%B7%E5%8D%97%E6%98%8C%E5%BA%97%29&src=vetmap&coordinate=gaode&callnative=1"},{"name":"进贤心儿宠物诊疗中心","address":"董原路37,39号","phone":"18170077115","category":"医疗保健服务;动物医疗场所;宠物诊所","area":"民和","lng":116.261923,"lat":28.371328,"amap_id":"B0LK6SKF0R","order":6,"prev_distance_km":0.328,"cumulative_distance_km":11.232,"amap_marker_url":"https://uri.amap.com/marker?position=116.261923,28.371328&name=%E8%BF%9B%E8%B4%A4%E5%BF%83%E5%84%BF%E5%AE%A0%E7%89%A9%E8%AF%8A%E7%96%97%E4%B8%AD%E5%BF%83&src=vetmap&coordinate=gaode&callnative=1"},{"name":"龙腾宠物","address":"民和镇进贤大道382号(中医院旁30米)","phone":"","category":"医疗保健服务;动物医疗场所;宠物诊所","area":"民和","lng":116.261562,"lat":28.365942,"amap_id":"B0IU1R6N8G","order":7,"prev_distance_km":0.6,"cumulative_distance_km":11.832,"amap_marker_url":"https://uri.amap.com/marker?position=116.261562,28.365942&name=%E9%BE%99%E8%85%BE%E5%AE%A0%E7%89%A9&src=vetmap&coordinate=gaode&callnative=1"},{"name":"阿秀兽医门诊","address":"民和镇胜利北路189号","phone":"13970831903;18079157316","category":"医疗保健服务;动物医疗场所;兽医站","area":"民和","lng":116.273167,"lat":28.373168,"amap_id":"B0FFH89FSW","order":8,"prev_distance_km":1.391,"cumulative_distance_km":13.223,"amap_marker_url":"https://uri.amap.com/marker?position=116.273167,28.373168&name=%E9%98%BF%E7%A7%80%E5%85%BD%E5%8C%BB%E9%97%A8%E8%AF%8A&src=vetmap&coordinate=gaode&callnative=1"}]}