{"summary":{"id":"d01014","province":"河北省","city":"廊坊市","district":"永清县","count":12,"total_distance_km":59.074,"coordinate_system":"GCJ-02 / Amap","generated_at":"2026-05-07 19:57:27"},"rows":[{"name":"龙虎庄兽医站","address":"273省道旁","phone":"13180380025","category":"医疗保健服务;动物医疗场所;兽医站","area":"","lng":116.431088,"lat":39.228555,"amap_id":"B0FFJHXIX8","order":1,"prev_distance_km":0.0,"cumulative_distance_km":0.0,"amap_marker_url":"https://uri.amap.com/marker?position=116.431088,39.228555&name=%E9%BE%99%E8%99%8E%E5%BA%84%E5%85%BD%E5%8C%BB%E7%AB%99&src=vetmap&coordinate=gaode&callnative=1"},{"name":"养马庄畜牧兽医技术服务站","address":"廊霸线与中心街交叉口东20米","phone":"","category":"医疗保健服务;动物医疗场所;兽医站","area":"","lng":116.454661,"lat":39.268307,"amap_id":"B0FFKJ5N79","order":2,"prev_distance_km":4.864,"cumulative_distance_km":4.864,"amap_marker_url":"https://uri.amap.com/marker?position=116.454661,39.268307&name=%E5%85%BB%E9%A9%AC%E5%BA%84%E7%95%9C%E7%89%A7%E5%85%BD%E5%8C%BB%E6%8A%80%E6%9C%AF%E6%9C%8D%E5%8A%A1%E7%AB%99&src=vetmap&coordinate=gaode&callnative=1"},{"name":"兽医站","address":"兴业街与益昌南路交叉口东20米","phone":"","category":"医疗保健服务;动物医疗场所;兽医站","area":"","lng":116.495919,"lat":39.295775,"amap_id":"B0G1P9KY17","order":3,"prev_distance_km":4.684,"cumulative_distance_km":9.548,"amap_marker_url":"https://uri.amap.com/marker?position=116.495919,39.295775&name=%E5%85%BD%E5%8C%BB%E7%AB%99&src=vetmap&coordinate=gaode&callnative=1"},{"name":"永清镇兽医站","address":"永清镇武隆南路","phone":"13784120547","category":"医疗保健服务;动物医疗场所;兽医站","area":"","lng":116.494088,"lat":39.304832,"amap_id":"B0FFG7C9IT","order":4,"prev_distance_km":1.019,"cumulative_distance_km":10.567,"amap_marker_url":"https://uri.amap.com/marker?position=116.494088,39.304832&name=%E6%B0%B8%E6%B8%85%E9%95%87%E5%85%BD%E5%8C%BB%E7%AB%99&src=vetmap&coordinate=gaode&callnative=1"},{"name":"伊丽园宠物诊所","address":"文苑中路与金雀街交叉口北40米","phone":"18632606028","category":"医疗保健服务;动物医疗场所;宠物诊所","area":"","lng":116.504099,"lat":39.316497,"amap_id":"B0FFFRLTYR","order":5,"prev_distance_km":1.557,"cumulative_distance_km":12.124,"amap_marker_url":"https://uri.amap.com/marker?position=116.504099,39.316497&name=%E4%BC%8A%E4%B8%BD%E5%9B%AD%E5%AE%A0%E7%89%A9%E8%AF%8A%E6%89%80&src=vetmap&coordinate=gaode&callnative=1"},{"name":"瑞康宠物医院","address":"武隆中路12号","phone":"","category":"医疗保健服务;动物医疗场所;宠物诊所","area":"","lng":116.493789,"lat":39.327003,"amap_id":"B0LUC5R3U0","order":6,"prev_distance_km":1.467,"cumulative_distance_km":13.591,"amap_marker_url":"https://uri.amap.com/marker?position=116.493789,39.327003&name=%E7%91%9E%E5%BA%B7%E5%AE%A0%E7%89%A9%E5%8C%BB%E9%99%A2&src=vetmap&coordinate=gaode&callnative=1"},{"name":"顽皮宠物医院","address":"盛华园底商1号门市","phone":"19931653777","category":"医疗保健服务;动物医疗场所;宠物诊所","area":"","lng":116.503164,"lat":39.326757,"amap_id":"B0FFL6XNJB","order":7,"prev_distance_km":0.807,"cumulative_distance_km":14.398,"amap_marker_url":"https://uri.amap.com/marker?position=116.503164,39.326757&name=%E9%A1%BD%E7%9A%AE%E5%AE%A0%E7%89%A9%E5%8C%BB%E9%99%A2&src=vetmap&coordinate=gaode&callnative=1"},{"name":"河北省永清县刘其营乡兽医站","address":"东高线北50米","phone":"","category":"医疗保健服务;动物医疗场所;兽医站","area":"","lng":116.55498,"lat":39.330851,"amap_id":"B0FFKJ9JPB","order":8,"prev_distance_km":4.48,"cumulative_distance_km":18.878,"amap_marker_url":"https://uri.amap.com/marker?position=116.554980,39.330851&name=%E6%B2%B3%E5%8C%97%E7%9C%81%E6%B0%B8%E6%B8%85%E5%8E%BF%E5%88%98%E5%85%B6%E8%90%A5%E4%B9%A1%E5%85%BD%E5%8C%BB%E7%AB%99&src=vetmap&coordinate=gaode&callnative=1"},{"name":"永清嘉美宠物中心","address":"广开路与友好西巷交叉口","phone":"","category":"医疗保健服务;动物医疗场所;宠物诊所","area":"","lng":116.517243,"lat":39.405148,"amap_id":"B0JKY5WCVX","order":9,"prev_distance_km":8.876,"cumulative_distance_km":27.753,"amap_marker_url":"https://uri.amap.com/marker?position=116.517243,39.405148&name=%E6%B0%B8%E6%B8%85%E5%98%89%E7%BE%8E%E5%AE%A0%E7%89%A9%E4%B8%AD%E5%BF%83&src=vetmap&coordinate=gaode&callnative=1"},{"name":"韩村镇兽医站","address":"团结路与政通街交叉口东北40米","phone":"13833441698","category":"医疗保健服务;动物医疗场所;兽医站","area":"","lng":116.614432,"lat":39.405158,"amap_id":"B0FFJGJDCH","order":10,"prev_distance_km":8.35,"cumulative_distance_km":36.104,"amap_marker_url":"https://uri.amap.com/marker?position=116.614432,39.405158&name=%E9%9F%A9%E6%9D%91%E9%95%87%E5%85%BD%E5%8C%BB%E7%AB%99&src=vetmap&coordinate=gaode&callnative=1"},{"name":"兽医站","address":"向阳街与韩古线交叉口南160米","phone":"15097623769","category":"医疗保健服务;动物医疗场所;兽医站","area":"","lng":116.670844,"lat":39.317552,"amap_id":"B0H1OOXS7C","order":11,"prev_distance_km":10.882,"cumulative_distance_km":46.985,"amap_marker_url":"https://uri.amap.com/marker?position=116.670844,39.317552&name=%E5%85%BD%E5%8C%BB%E7%AB%99&src=vetmap&coordinate=gaode&callnative=1"},{"name":"三圣口乡兽医站","address":"华昌路与华荣路交叉口东南380米","phone":"","category":"医疗保健服务;动物医疗场所;兽医站","area":"","lng":116.65082,"lat":39.209952,"amap_id":"B0K3H99G6T","order":12,"prev_distance_km":12.088,"cumulative_distance_km":59.074,"amap_marker_url":"https://uri.amap.com/marker?position=116.650820,39.209952&name=%E4%B8%89%E5%9C%A3%E5%8F%A3%E4%B9%A1%E5%85%BD%E5%8C%BB%E7%AB%99&src=vetmap&coordinate=gaode&callnative=1"}]}