{"summary":{"id":"d01096","province":"河北省","city":"衡水市","district":"深州市","count":15,"route_count":1,"max_route_clinics":15,"total_distance_km":84.592,"coordinate_system":"GCJ-02 / Amap","generated_at":"2026-05-07 21:29:28"},"routes":[{"id":"r1","name":"第1段","count":15,"total_distance_km":84.592,"rows":[{"name":"王伟兽医门诊(大屯店)","address":"大屯镇商业街","phone":"0318-3480866;15031800600","category":"医疗保健服务;动物医疗场所;兽医站","area":"","lng":115.385042,"lat":37.793926,"amap_id":"B0FFGXCWZ5","order":1,"prev_distance_km":0.0,"cumulative_distance_km":0.0,"amap_marker_url":"https://uri.amap.com/marker?position=115.385042,37.793926&name=%E7%8E%8B%E4%BC%9F%E5%85%BD%E5%8C%BB%E9%97%A8%E8%AF%8A%28%E5%A4%A7%E5%B1%AF%E5%BA%97%29&src=vetmap&coordinate=gaode&callnative=1","route_id":"r1","route_name":"第1段"},{"name":"乡村兽医动物诊疗","address":"周梅青卫生室东侧170米","phone":"","category":"医疗保健服务;动物医疗场所;兽医站","area":"","lng":115.38782,"lat":37.829252,"amap_id":"B0KAFHIVP5","order":2,"prev_distance_km":3.936,"cumulative_distance_km":3.936,"amap_marker_url":"https://uri.amap.com/marker?position=115.387820,37.829252&name=%E4%B9%A1%E6%9D%91%E5%85%BD%E5%8C%BB%E5%8A%A8%E7%89%A9%E8%AF%8A%E7%96%97&src=vetmap&coordinate=gaode&callnative=1","route_id":"r1","route_name":"第1段"},{"name":"畜禽剖检宠物医院","address":"392省道东50米","phone":"0318-3465619","category":"医疗保健服务;动物医疗场所;宠物诊所","area":"","lng":115.387872,"lat":37.829362,"amap_id":"B0FFFZWY9D","order":3,"prev_distance_km":0.013,"cumulative_distance_km":3.949,"amap_marker_url":"https://uri.amap.com/marker?position=115.387872,37.829362&name=%E7%95%9C%E7%A6%BD%E5%89%96%E6%A3%80%E5%AE%A0%E7%89%A9%E5%8C%BB%E9%99%A2&src=vetmap&coordinate=gaode&callnative=1","route_id":"r1","route_name":"第1段"},{"name":"兽医门诊","address":"深穆路与平安大街交叉口南480米","phone":"","category":"医疗保健服务;动物医疗场所;兽医站","area":"","lng":115.471868,"lat":38.024476,"amap_id":"B0FFLB4J5V","order":4,"prev_distance_km":22.912,"cumulative_distance_km":26.861,"amap_marker_url":"https://uri.amap.com/marker?position=115.471868,38.024476&name=%E5%85%BD%E5%8C%BB%E9%97%A8%E8%AF%8A&src=vetmap&coordinate=gaode&callnative=1","route_id":"r1","route_name":"第1段"},{"name":"唐奉动物防疫站","address":"唐奉镇唐奉村民委员会南侧150米","phone":"","category":"医疗保健服务;动物医疗场所;动物医疗场所","area":"","lng":115.514167,"lat":38.118072,"amap_id":"B0J065JZCN","order":5,"prev_distance_km":11.046,"cumulative_distance_km":37.908,"amap_marker_url":"https://uri.amap.com/marker?position=115.514167,38.118072&name=%E5%94%90%E5%A5%89%E5%8A%A8%E7%89%A9%E9%98%B2%E7%96%AB%E7%AB%99&src=vetmap&coordinate=gaode&callnative=1","route_id":"r1","route_name":"第1段"},{"name":"北街动物门诊","address":"901县道与平安道交叉口东北40米","phone":"13833898358;15610886066","category":"医疗保健服务;动物医疗场所;宠物诊所","area":"","lng":115.555628,"lat":38.021003,"amap_id":"B0FFIVL6CO","order":6,"prev_distance_km":11.387,"cumulative_distance_km":49.295,"amap_marker_url":"https://uri.amap.com/marker?position=115.555628,38.021003&name=%E5%8C%97%E8%A1%97%E5%8A%A8%E7%89%A9%E9%97%A8%E8%AF%8A&src=vetmap&coordinate=gaode&callnative=1","route_id":"r1","route_name":"第1段"},{"name":"尚爱宠物诊所","address":"黄河路富城小区2期北门口7号","phone":"","category":"医疗保健服务;动物医疗场所;宠物诊所","area":"","lng":115.545956,"lat":38.015608,"amap_id":"B0FFL0ZDEO","order":7,"prev_distance_km":1.038,"cumulative_distance_km":50.333,"amap_marker_url":"https://uri.amap.com/marker?position=115.545956,38.015608&name=%E5%B0%9A%E7%88%B1%E5%AE%A0%E7%89%A9%E8%AF%8A%E6%89%80&src=vetmap&coordinate=gaode&callnative=1","route_id":"r1","route_name":"第1段"},{"name":"宠康宠物门诊","address":"博陵路18-2号","phone":"13833868522","category":"医疗保健服务;动物医疗场所;宠物诊所","area":"","lng":115.547301,"lat":38.010625,"amap_id":"B0FFKG14K0","order":8,"prev_distance_km":0.566,"cumulative_distance_km":50.9,"amap_marker_url":"https://uri.amap.com/marker?position=115.547301,38.010625&name=%E5%AE%A0%E5%BA%B7%E5%AE%A0%E7%89%A9%E9%97%A8%E8%AF%8A&src=vetmap&coordinate=gaode&callnative=1","route_id":"r1","route_name":"第1段"},{"name":"宝可梦动物诊所","address":"老街博陵路育英幼儿园对过宝可梦宠物诊所深州镇育英幼儿园对过","phone":"13315832510","category":"医疗保健服务;动物医疗场所;宠物诊所","area":"","lng":115.555688,"lat":38.010067,"amap_id":"B0FFKVJ2KG","order":9,"prev_distance_km":0.737,"cumulative_distance_km":51.637,"amap_marker_url":"https://uri.amap.com/marker?position=115.555688,38.010067&name=%E5%AE%9D%E5%8F%AF%E6%A2%A6%E5%8A%A8%E7%89%A9%E8%AF%8A%E6%89%80&src=vetmap&coordinate=gaode&callnative=1","route_id":"r1","route_name":"第1段"},{"name":"润兴畜禽服务部","address":"永平大街与兴业道交叉口南100米","phone":"13932864478;18003287597","category":"医疗保健服务;动物医疗场所;兽医站","area":"","lng":115.534364,"lat":37.993364,"amap_id":"B0FFH38OO4","order":10,"prev_distance_km":2.634,"cumulative_distance_km":54.272,"amap_marker_url":"https://uri.amap.com/marker?position=115.534364,37.993364&name=%E6%B6%A6%E5%85%B4%E7%95%9C%E7%A6%BD%E6%9C%8D%E5%8A%A1%E9%83%A8&src=vetmap&coordinate=gaode&callnative=1","route_id":"r1","route_name":"第1段"},{"name":"亿达宠物","address":"长城西路11号","phone":"13831815445;18831813250","category":"医疗保健服务;动物医疗场所;动物医疗场所","area":"","lng":115.56914,"lat":37.997134,"amap_id":"B0L3RZNKM8","order":11,"prev_distance_km":3.076,"cumulative_distance_km":57.348,"amap_marker_url":"https://uri.amap.com/marker?position=115.569140,37.997134&name=%E4%BA%BF%E8%BE%BE%E5%AE%A0%E7%89%A9&src=vetmap&coordinate=gaode&callnative=1","route_id":"r1","route_name":"第1段"},{"name":"动物门诊","address":"429乡道与榆科镇商业街交叉口东南160米","phone":"13754585961;13833836469","category":"医疗保健服务;动物医疗场所;宠物诊所","area":"","lng":115.681729,"lat":37.969876,"amap_id":"B0FFH0USI9","order":12,"prev_distance_km":10.323,"cumulative_distance_km":67.67,"amap_marker_url":"https://uri.amap.com/marker?position=115.681729,37.969876&name=%E5%8A%A8%E7%89%A9%E9%97%A8%E8%AF%8A&src=vetmap&coordinate=gaode&callnative=1","route_id":"r1","route_name":"第1段"},{"name":"绿康动保服务中心","address":"240国道","phone":"13623376089","category":"医疗保健服务;动物医疗场所;动物医疗场所","area":"","lng":115.699734,"lat":38.059826,"amap_id":"B0G2HNOWDZ","order":13,"prev_distance_km":10.126,"cumulative_distance_km":77.796,"amap_marker_url":"https://uri.amap.com/marker?position=115.699734,38.059826&name=%E7%BB%BF%E5%BA%B7%E5%8A%A8%E4%BF%9D%E6%9C%8D%E5%8A%A1%E4%B8%AD%E5%BF%83&src=vetmap&coordinate=gaode&callnative=1","route_id":"r1","route_name":"第1段"},{"name":"北溪兽医站","address":"商贸大街与北环路交叉口南260米","phone":"15903183928","category":"医疗保健服务;动物医疗场所;兽医站","area":"","lng":115.771963,"lat":38.078437,"amap_id":"B0FFI7PG1L","order":14,"prev_distance_km":6.653,"cumulative_distance_km":84.449,"amap_marker_url":"https://uri.amap.com/marker?position=115.771963,38.078437&name=%E5%8C%97%E6%BA%AA%E5%85%BD%E5%8C%BB%E7%AB%99&src=vetmap&coordinate=gaode&callnative=1","route_id":"r1","route_name":"第1段"},{"name":"好兽医","address":"北溪镇溪商业街","phone":"13132435618","category":"医疗保健服务;动物医疗场所;兽医站","area":"","lng":115.772429,"lat":38.079673,"amap_id":"B0FFH0RG6F","order":15,"prev_distance_km":0.143,"cumulative_distance_km":84.592,"amap_marker_url":"https://uri.amap.com/marker?position=115.772429,38.079673&name=%E5%A5%BD%E5%85%BD%E5%8C%BB&src=vetmap&coordinate=gaode&callnative=1","route_id":"r1","route_name":"第1段"}]}],"rows":[{"name":"王伟兽医门诊(大屯店)","address":"大屯镇商业街","phone":"0318-3480866;15031800600","category":"医疗保健服务;动物医疗场所;兽医站","area":"","lng":115.385042,"lat":37.793926,"amap_id":"B0FFGXCWZ5","order":1,"prev_distance_km":0.0,"cumulative_distance_km":0.0,"amap_marker_url":"https://uri.amap.com/marker?position=115.385042,37.793926&name=%E7%8E%8B%E4%BC%9F%E5%85%BD%E5%8C%BB%E9%97%A8%E8%AF%8A%28%E5%A4%A7%E5%B1%AF%E5%BA%97%29&src=vetmap&coordinate=gaode&callnative=1","route_id":"r1","route_name":"第1段","global_order":1},{"name":"乡村兽医动物诊疗","address":"周梅青卫生室东侧170米","phone":"","category":"医疗保健服务;动物医疗场所;兽医站","area":"","lng":115.38782,"lat":37.829252,"amap_id":"B0KAFHIVP5","order":2,"prev_distance_km":3.936,"cumulative_distance_km":3.936,"amap_marker_url":"https://uri.amap.com/marker?position=115.387820,37.829252&name=%E4%B9%A1%E6%9D%91%E5%85%BD%E5%8C%BB%E5%8A%A8%E7%89%A9%E8%AF%8A%E7%96%97&src=vetmap&coordinate=gaode&callnative=1","route_id":"r1","route_name":"第1段","global_order":2},{"name":"畜禽剖检宠物医院","address":"392省道东50米","phone":"0318-3465619","category":"医疗保健服务;动物医疗场所;宠物诊所","area":"","lng":115.387872,"lat":37.829362,"amap_id":"B0FFFZWY9D","order":3,"prev_distance_km":0.013,"cumulative_distance_km":3.949,"amap_marker_url":"https://uri.amap.com/marker?position=115.387872,37.829362&name=%E7%95%9C%E7%A6%BD%E5%89%96%E6%A3%80%E5%AE%A0%E7%89%A9%E5%8C%BB%E9%99%A2&src=vetmap&coordinate=gaode&callnative=1","route_id":"r1","route_name":"第1段","global_order":3},{"name":"兽医门诊","address":"深穆路与平安大街交叉口南480米","phone":"","category":"医疗保健服务;动物医疗场所;兽医站","area":"","lng":115.471868,"lat":38.024476,"amap_id":"B0FFLB4J5V","order":4,"prev_distance_km":22.912,"cumulative_distance_km":26.861,"amap_marker_url":"https://uri.amap.com/marker?position=115.471868,38.024476&name=%E5%85%BD%E5%8C%BB%E9%97%A8%E8%AF%8A&src=vetmap&coordinate=gaode&callnative=1","route_id":"r1","route_name":"第1段","global_order":4},{"name":"唐奉动物防疫站","address":"唐奉镇唐奉村民委员会南侧150米","phone":"","category":"医疗保健服务;动物医疗场所;动物医疗场所","area":"","lng":115.514167,"lat":38.118072,"amap_id":"B0J065JZCN","order":5,"prev_distance_km":11.046,"cumulative_distance_km":37.908,"amap_marker_url":"https://uri.amap.com/marker?position=115.514167,38.118072&name=%E5%94%90%E5%A5%89%E5%8A%A8%E7%89%A9%E9%98%B2%E7%96%AB%E7%AB%99&src=vetmap&coordinate=gaode&callnative=1","route_id":"r1","route_name":"第1段","global_order":5},{"name":"北街动物门诊","address":"901县道与平安道交叉口东北40米","phone":"13833898358;15610886066","category":"医疗保健服务;动物医疗场所;宠物诊所","area":"","lng":115.555628,"lat":38.021003,"amap_id":"B0FFIVL6CO","order":6,"prev_distance_km":11.387,"cumulative_distance_km":49.295,"amap_marker_url":"https://uri.amap.com/marker?position=115.555628,38.021003&name=%E5%8C%97%E8%A1%97%E5%8A%A8%E7%89%A9%E9%97%A8%E8%AF%8A&src=vetmap&coordinate=gaode&callnative=1","route_id":"r1","route_name":"第1段","global_order":6},{"name":"尚爱宠物诊所","address":"黄河路富城小区2期北门口7号","phone":"","category":"医疗保健服务;动物医疗场所;宠物诊所","area":"","lng":115.545956,"lat":38.015608,"amap_id":"B0FFL0ZDEO","order":7,"prev_distance_km":1.038,"cumulative_distance_km":50.333,"amap_marker_url":"https://uri.amap.com/marker?position=115.545956,38.015608&name=%E5%B0%9A%E7%88%B1%E5%AE%A0%E7%89%A9%E8%AF%8A%E6%89%80&src=vetmap&coordinate=gaode&callnative=1","route_id":"r1","route_name":"第1段","global_order":7},{"name":"宠康宠物门诊","address":"博陵路18-2号","phone":"13833868522","category":"医疗保健服务;动物医疗场所;宠物诊所","area":"","lng":115.547301,"lat":38.010625,"amap_id":"B0FFKG14K0","order":8,"prev_distance_km":0.566,"cumulative_distance_km":50.9,"amap_marker_url":"https://uri.amap.com/marker?position=115.547301,38.010625&name=%E5%AE%A0%E5%BA%B7%E5%AE%A0%E7%89%A9%E9%97%A8%E8%AF%8A&src=vetmap&coordinate=gaode&callnative=1","route_id":"r1","route_name":"第1段","global_order":8},{"name":"宝可梦动物诊所","address":"老街博陵路育英幼儿园对过宝可梦宠物诊所深州镇育英幼儿园对过","phone":"13315832510","category":"医疗保健服务;动物医疗场所;宠物诊所","area":"","lng":115.555688,"lat":38.010067,"amap_id":"B0FFKVJ2KG","order":9,"prev_distance_km":0.737,"cumulative_distance_km":51.637,"amap_marker_url":"https://uri.amap.com/marker?position=115.555688,38.010067&name=%E5%AE%9D%E5%8F%AF%E6%A2%A6%E5%8A%A8%E7%89%A9%E8%AF%8A%E6%89%80&src=vetmap&coordinate=gaode&callnative=1","route_id":"r1","route_name":"第1段","global_order":9},{"name":"润兴畜禽服务部","address":"永平大街与兴业道交叉口南100米","phone":"13932864478;18003287597","category":"医疗保健服务;动物医疗场所;兽医站","area":"","lng":115.534364,"lat":37.993364,"amap_id":"B0FFH38OO4","order":10,"prev_distance_km":2.634,"cumulative_distance_km":54.272,"amap_marker_url":"https://uri.amap.com/marker?position=115.534364,37.993364&name=%E6%B6%A6%E5%85%B4%E7%95%9C%E7%A6%BD%E6%9C%8D%E5%8A%A1%E9%83%A8&src=vetmap&coordinate=gaode&callnative=1","route_id":"r1","route_name":"第1段","global_order":10},{"name":"亿达宠物","address":"长城西路11号","phone":"13831815445;18831813250","category":"医疗保健服务;动物医疗场所;动物医疗场所","area":"","lng":115.56914,"lat":37.997134,"amap_id":"B0L3RZNKM8","order":11,"prev_distance_km":3.076,"cumulative_distance_km":57.348,"amap_marker_url":"https://uri.amap.com/marker?position=115.569140,37.997134&name=%E4%BA%BF%E8%BE%BE%E5%AE%A0%E7%89%A9&src=vetmap&coordinate=gaode&callnative=1","route_id":"r1","route_name":"第1段","global_order":11},{"name":"动物门诊","address":"429乡道与榆科镇商业街交叉口东南160米","phone":"13754585961;13833836469","category":"医疗保健服务;动物医疗场所;宠物诊所","area":"","lng":115.681729,"lat":37.969876,"amap_id":"B0FFH0USI9","order":12,"prev_distance_km":10.323,"cumulative_distance_km":67.67,"amap_marker_url":"https://uri.amap.com/marker?position=115.681729,37.969876&name=%E5%8A%A8%E7%89%A9%E9%97%A8%E8%AF%8A&src=vetmap&coordinate=gaode&callnative=1","route_id":"r1","route_name":"第1段","global_order":12},{"name":"绿康动保服务中心","address":"240国道","phone":"13623376089","category":"医疗保健服务;动物医疗场所;动物医疗场所","area":"","lng":115.699734,"lat":38.059826,"amap_id":"B0G2HNOWDZ","order":13,"prev_distance_km":10.126,"cumulative_distance_km":77.796,"amap_marker_url":"https://uri.amap.com/marker?position=115.699734,38.059826&name=%E7%BB%BF%E5%BA%B7%E5%8A%A8%E4%BF%9D%E6%9C%8D%E5%8A%A1%E4%B8%AD%E5%BF%83&src=vetmap&coordinate=gaode&callnative=1","route_id":"r1","route_name":"第1段","global_order":13},{"name":"北溪兽医站","address":"商贸大街与北环路交叉口南260米","phone":"15903183928","category":"医疗保健服务;动物医疗场所;兽医站","area":"","lng":115.771963,"lat":38.078437,"amap_id":"B0FFI7PG1L","order":14,"prev_distance_km":6.653,"cumulative_distance_km":84.449,"amap_marker_url":"https://uri.amap.com/marker?position=115.771963,38.078437&name=%E5%8C%97%E6%BA%AA%E5%85%BD%E5%8C%BB%E7%AB%99&src=vetmap&coordinate=gaode&callnative=1","route_id":"r1","route_name":"第1段","global_order":14},{"name":"好兽医","address":"北溪镇溪商业街","phone":"13132435618","category":"医疗保健服务;动物医疗场所;兽医站","area":"","lng":115.772429,"lat":38.079673,"amap_id":"B0FFH0RG6F","order":15,"prev_distance_km":0.143,"cumulative_distance_km":84.592,"amap_marker_url":"https://uri.amap.com/marker?position=115.772429,38.079673&name=%E5%A5%BD%E5%85%BD%E5%8C%BB&src=vetmap&coordinate=gaode&callnative=1","route_id":"r1","route_name":"第1段","global_order":15}]}