{"summary":{"id":"d01085","province":"河北省","city":"秦皇岛市","district":"昌黎县","count":40,"total_distance_km":105.846,"coordinate_system":"GCJ-02 / Amap","generated_at":"2026-05-07 19:57:31"},"rows":[{"name":"玄德宠物","address":"宾水大街与燕山路交叉口西北240米","phone":"","category":"医疗保健服务;动物医疗场所;宠物诊所","area":"","lng":119.156775,"lat":39.694075,"amap_id":"B0L0CCZL7M","order":1,"prev_distance_km":0.0,"cumulative_distance_km":0.0,"amap_marker_url":"https://uri.amap.com/marker?position=119.156775,39.694075&name=%E7%8E%84%E5%BE%B7%E5%AE%A0%E7%89%A9&src=vetmap&coordinate=gaode&callnative=1"},{"name":"金杰宠物诊所","address":"昌黎镇地王大街糖厂小区底商","phone":"13230382188;18633522321","category":"医疗保健服务;动物医疗场所;宠物诊所","area":"","lng":119.165145,"lat":39.698086,"amap_id":"B0FFGAZ5WA","order":2,"prev_distance_km":0.844,"cumulative_distance_km":0.844,"amap_marker_url":"https://uri.amap.com/marker?position=119.165145,39.698086&name=%E9%87%91%E6%9D%B0%E5%AE%A0%E7%89%A9%E8%AF%8A%E6%89%80&src=vetmap&coordinate=gaode&callnative=1"},{"name":"萌康宠物服务中心","address":"天城府北侧门市s4-101","phone":"13223351589","category":"医疗保健服务;动物医疗场所;宠物诊所","area":"","lng":119.16149,"lat":39.709088,"amap_id":"B0LR9SOTW7","order":3,"prev_distance_km":1.263,"cumulative_distance_km":2.106,"amap_marker_url":"https://uri.amap.com/marker?position=119.161490,39.709088&name=%E8%90%8C%E5%BA%B7%E5%AE%A0%E7%89%A9%E6%9C%8D%E5%8A%A1%E4%B8%AD%E5%BF%83&src=vetmap&coordinate=gaode&callnative=1"},{"name":"泰源动物医院","address":"碣阳大街惠民园小区一号商业109号","phone":"13230331777","category":"医疗保健服务;动物医疗场所;宠物诊所","area":"","lng":119.155311,"lat":39.712591,"amap_id":"B0FFIATE72","order":4,"prev_distance_km":0.657,"cumulative_distance_km":2.763,"amap_marker_url":"https://uri.amap.com/marker?position=119.155311,39.712591&name=%E6%B3%B0%E6%BA%90%E5%8A%A8%E7%89%A9%E5%8C%BB%E9%99%A2&src=vetmap&coordinate=gaode&callnative=1"},{"name":"银隆宠物诊所(星耀商业广场店)","address":"星耀商业广场西门旁","phone":"0335-3295888;18033583555;18733513888","category":"医疗保健服务;动物医疗场所;宠物诊所","area":"碣阳大街","lng":119.158827,"lat":39.712129,"amap_id":"B0JBUADAFQ","order":5,"prev_distance_km":0.305,"cumulative_distance_km":3.068,"amap_marker_url":"https://uri.amap.com/marker?position=119.158827,39.712129&name=%E9%93%B6%E9%9A%86%E5%AE%A0%E7%89%A9%E8%AF%8A%E6%89%80%28%E6%98%9F%E8%80%80%E5%95%86%E4%B8%9A%E5%B9%BF%E5%9C%BA%E5%BA%97%29&src=vetmap&coordinate=gaode&callnative=1"},{"name":"梦涵家·宠物美容","address":"滨海国际南门东60米","phone":"","category":"医疗保健服务;动物医疗场所;宠物诊所","area":"碣阳大街","lng":119.169104,"lat":39.713034,"amap_id":"B0J3GAAIF3","order":6,"prev_distance_km":0.885,"cumulative_distance_km":3.953,"amap_marker_url":"https://uri.amap.com/marker?position=119.169104,39.713034&name=%E6%A2%A6%E6%B6%B5%E5%AE%B6%C2%B7%E5%AE%A0%E7%89%A9%E7%BE%8E%E5%AE%B9&src=vetmap&coordinate=gaode&callnative=1"},{"name":"萌康宠物医疗","address":"东山华府二期社区11号楼103号","phone":"0335-2866119;18031258518;18630385173;18932598228","category":"医疗保健服务;动物医疗场所;宠物诊所","area":"","lng":119.165832,"lat":39.721571,"amap_id":"B0L2FZ271S","order":7,"prev_distance_km":0.99,"cumulative_distance_km":4.943,"amap_marker_url":"https://uri.amap.com/marker?position=119.165832,39.721571&name=%E8%90%8C%E5%BA%B7%E5%AE%A0%E7%89%A9%E5%8C%BB%E7%96%97&src=vetmap&coordinate=gaode&callnative=1"},{"name":"宠佑宠物诊所","address":"学院路东山公园北1000米路东","phone":"17733595993","category":"医疗保健服务;动物医疗场所;宠物诊所","area":"","lng":119.171298,"lat":39.723005,"amap_id":"B0G30DK682","order":8,"prev_distance_km":0.494,"cumulative_distance_km":5.436,"amap_marker_url":"https://uri.amap.com/marker?position=119.171298,39.723005&name=%E5%AE%A0%E4%BD%91%E5%AE%A0%E7%89%A9%E8%AF%8A%E6%89%80&src=vetmap&coordinate=gaode&callnative=1"},{"name":"全欣宠物医院","address":"韩愈大街与东山路交叉口西行300米(云创谷底商9号楼105门市)","phone":"18503323068","category":"医疗保健服务;动物医疗场所;宠物诊所","area":"","lng":119.17624,"lat":39.72846,"amap_id":"B0L37CM0CZ","order":9,"prev_distance_km":0.739,"cumulative_distance_km":6.176,"amap_marker_url":"https://uri.amap.com/marker?position=119.176240,39.728460&name=%E5%85%A8%E6%AC%A3%E5%AE%A0%E7%89%A9%E5%8C%BB%E9%99%A2&src=vetmap&coordinate=gaode&callnative=1"},{"name":"宠屿宠物医院","address":"昌黎镇碣阳大街北侧丶华夏路西侧丶(东山帝景小区)41号楼底商-1号","phone":"17743730866","category":"医疗保健服务;动物医疗场所;宠物诊所","area":"碣阳大街","lng":119.184075,"lat":39.718225,"amap_id":"B0LKHHQSLV","order":10,"prev_distance_km":1.321,"cumulative_distance_km":7.496,"amap_marker_url":"https://uri.amap.com/marker?position=119.184075,39.718225&name=%E5%AE%A0%E5%B1%BF%E5%AE%A0%E7%89%A9%E5%8C%BB%E9%99%A2&src=vetmap&coordinate=gaode&callnative=1"},{"name":"田伟动物门诊","address":"碣阳大街东段205号碣石花苑底商","phone":"18833895116","category":"医疗保健服务;动物医疗场所;宠物诊所","area":"碣阳大街","lng":119.185526,"lat":39.717706,"amap_id":"B0FFKBH124","order":11,"prev_distance_km":0.137,"cumulative_distance_km":7.633,"amap_marker_url":"https://uri.amap.com/marker?position=119.185526,39.717706&name=%E7%94%B0%E4%BC%9F%E5%8A%A8%E7%89%A9%E9%97%A8%E8%AF%8A&src=vetmap&coordinate=gaode&callnative=1"},{"name":"宠物店宠物诊所","address":"秦皇岛农副产品批发市场西北门旁","phone":"","category":"医疗保健服务;动物医疗场所;宠物诊所","area":"碣阳大街","lng":119.190635,"lat":39.719738,"amap_id":"B0KRVOI220","order":12,"prev_distance_km":0.492,"cumulative_distance_km":8.125,"amap_marker_url":"https://uri.amap.com/marker?position=119.190635,39.719738&name=%E5%AE%A0%E7%89%A9%E5%BA%97%E5%AE%A0%E7%89%A9%E8%AF%8A%E6%89%80&src=vetmap&coordinate=gaode&callnative=1"},{"name":"壹欣宠物医院","address":"碣阳大街与五峰山南路交叉口东北180米","phone":"13343340688;13722573527","category":"医疗保健服务;动物医疗场所;宠物诊所","area":"碣阳大街","lng":119.190089,"lat":39.720231,"amap_id":"B0JDXRL9XA","order":13,"prev_distance_km":0.072,"cumulative_distance_km":8.197,"amap_marker_url":"https://uri.amap.com/marker?position=119.190089,39.720231&name=%E5%A3%B9%E6%AC%A3%E5%AE%A0%E7%89%A9%E5%8C%BB%E9%99%A2&src=vetmap&coordinate=gaode&callnative=1"},{"name":"昌黎县科师动物疾病诊所","address":"昌黎县印象昌黎小区27号西4底商","phone":"","category":"医疗保健服务;动物医疗场所;宠物诊所","area":"","lng":119.189315,"lat":39.730466,"amap_id":"B0JUS9VQ93","order":14,"prev_distance_km":1.14,"cumulative_distance_km":9.337,"amap_marker_url":"https://uri.amap.com/marker?position=119.189315,39.730466&name=%E6%98%8C%E9%BB%8E%E5%8E%BF%E7%A7%91%E5%B8%88%E5%8A%A8%E7%89%A9%E7%96%BE%E7%97%85%E8%AF%8A%E6%89%80&src=vetmap&coordinate=gaode&callnative=1"},{"name":"昌黎县乡村兽医工作室(刘坤畜牧店)","address":"两山乡后两山村","phone":"","category":"医疗保健服务;动物医疗场所;兽医站","area":"","lng":119.203075,"lat":39.744575,"amap_id":"B0LRCDFQE2","order":15,"prev_distance_km":1.961,"cumulative_distance_km":11.298,"amap_marker_url":"https://uri.amap.com/marker?position=119.203075,39.744575&name=%E6%98%8C%E9%BB%8E%E5%8E%BF%E4%B9%A1%E6%9D%91%E5%85%BD%E5%8C%BB%E5%B7%A5%E4%BD%9C%E5%AE%A4%28%E5%88%98%E5%9D%A4%E7%95%9C%E7%89%A7%E5%BA%97%29&src=vetmap&coordinate=gaode&callnative=1"},{"name":"秦皇岛陈丹兽药店","address":"261省道与施乐路交叉口西20米","phone":"","category":"医疗保健服务;动物医疗场所;动物医疗场所","area":"","lng":119.208475,"lat":39.755875,"amap_id":"B0LRKXKGIS","order":16,"prev_distance_km":1.339,"cumulative_distance_km":12.637,"amap_marker_url":"https://uri.amap.com/marker?position=119.208475,39.755875&name=%E7%A7%A6%E7%9A%87%E5%B2%9B%E9%99%88%E4%B8%B9%E5%85%BD%E8%8D%AF%E5%BA%97&src=vetmap&coordinate=gaode&callnative=1"},{"name":"广程兽药店","address":"106乡道东南侧","phone":"","category":"医疗保健服务;动物医疗场所;动物医疗场所","area":"","lng":119.267659,"lat":39.731818,"amap_id":"B0G1OGFP8K","order":17,"prev_distance_km":5.724,"cumulative_distance_km":18.361,"amap_marker_url":"https://uri.amap.com/marker?position=119.267659,39.731818&name=%E5%B9%BF%E7%A8%8B%E5%85%BD%E8%8D%AF%E5%BA%97&src=vetmap&coordinate=gaode&callnative=1"},{"name":"仁仁兽药店","address":"向海大道与106乡道交叉口东220米","phone":"","category":"医疗保健服务;动物医疗场所;动物医疗场所","area":"","lng":119.256088,"lat":39.685974,"amap_id":"B0JRKO1T25","order":18,"prev_distance_km":5.193,"cumulative_distance_km":23.553,"amap_marker_url":"https://uri.amap.com/marker?position=119.256088,39.685974&name=%E4%BB%81%E4%BB%81%E5%85%BD%E8%8D%AF%E5%BA%97&src=vetmap&coordinate=gaode&callnative=1"},{"name":"悦发兽药店","address":"向海大道辅路西南侧","phone":"","category":"医疗保健服务;动物医疗场所;动物医疗场所","area":"","lng":119.256616,"lat":39.685202,"amap_id":"B0FFJ0134I","order":19,"prev_distance_km":0.097,"cumulative_distance_km":23.65,"amap_marker_url":"https://uri.amap.com/marker?position=119.256616,39.685202&name=%E6%82%A6%E5%8F%91%E5%85%BD%E8%8D%AF%E5%BA%97&src=vetmap&coordinate=gaode&callnative=1"},{"name":"兽医站门诊","address":"106乡道东侧","phone":"15032379198","category":"医疗保健服务;动物医疗场所;兽医站","area":"","lng":119.257743,"lat":39.665649,"amap_id":"B0GK27IYRL","order":20,"prev_distance_km":2.176,"cumulative_distance_km":25.827,"amap_marker_url":"https://uri.amap.com/marker?position=119.257743,39.665649&name=%E5%85%BD%E5%8C%BB%E7%AB%99%E9%97%A8%E8%AF%8A&src=vetmap&coordinate=gaode&callnative=1"},{"name":"李东臣动物诊所","address":"葛条港乡西沙河村","phone":"","category":"医疗保健服务;动物医疗场所;宠物诊所","area":"","lng":119.215904,"lat":39.66611,"amap_id":"B014F05UUA","order":21,"prev_distance_km":3.582,"cumulative_distance_km":29.408,"amap_marker_url":"https://uri.amap.com/marker?position=119.215904,39.666110&name=%E6%9D%8E%E4%B8%9C%E8%87%A3%E5%8A%A8%E7%89%A9%E8%AF%8A%E6%89%80&src=vetmap&coordinate=gaode&callnative=1"},{"name":"西沙河兽医站","address":"107乡道与152乡道交叉口北140米","phone":"","category":"医疗保健服务;动物医疗场所;兽医站","area":"","lng":119.215331,"lat":39.664853,"amap_id":"B0FFFYHCK2","order":22,"prev_distance_km":0.148,"cumulative_distance_km":29.557,"amap_marker_url":"https://uri.amap.com/marker?position=119.215331,39.664853&name=%E8%A5%BF%E6%B2%99%E6%B2%B3%E5%85%BD%E5%8C%BB%E7%AB%99&src=vetmap&coordinate=gaode&callnative=1"},{"name":"泥井兽医站畜禽服务部","address":"国家电网汽车充电站(河北省秦皇岛市昌黎县泥井公共充电点)东侧","phone":"","category":"医疗保健服务;动物医疗场所;兽医站","area":"","lng":119.148632,"lat":39.628161,"amap_id":"B0JRVDOB34","order":23,"prev_distance_km":7.018,"cumulative_distance_km":36.575,"amap_marker_url":"https://uri.amap.com/marker?position=119.148632,39.628161&name=%E6%B3%A5%E4%BA%95%E5%85%BD%E5%8C%BB%E7%AB%99%E7%95%9C%E7%A6%BD%E6%9C%8D%E5%8A%A1%E9%83%A8&src=vetmap&coordinate=gaode&callnative=1"},{"name":"牧之星兽药店","address":"261省道与文体街交叉口南240米","phone":"","category":"医疗保健服务;动物医疗场所;动物医疗场所","area":"","lng":119.148274,"lat":39.613905,"amap_id":"B0I3F11OUV","order":24,"prev_distance_km":1.585,"cumulative_distance_km":38.161,"amap_marker_url":"https://uri.amap.com/marker?position=119.148274,39.613905&name=%E7%89%A7%E4%B9%8B%E6%98%9F%E5%85%BD%E8%8D%AF%E5%BA%97&src=vetmap&coordinate=gaode&callnative=1"},{"name":"昌黎县动物卫生监督所刘台庄分站","address":"261省道与119乡道交叉口北160米","phone":"","category":"医疗保健服务;动物医疗场所;动物医疗场所","area":"","lng":119.160425,"lat":39.535535,"amap_id":"B0FFG7ADWA","order":25,"prev_distance_km":8.776,"cumulative_distance_km":46.937,"amap_marker_url":"https://uri.amap.com/marker?position=119.160425,39.535535&name=%E6%98%8C%E9%BB%8E%E5%8E%BF%E5%8A%A8%E7%89%A9%E5%8D%AB%E7%94%9F%E7%9B%91%E7%9D%A3%E6%89%80%E5%88%98%E5%8F%B0%E5%BA%84%E5%88%86%E7%AB%99&src=vetmap&coordinate=gaode&callnative=1"},{"name":"中国动物防疫","address":"261省道与平安街交叉口东20米","phone":"","category":"医疗保健服务;动物医疗场所;动物医疗场所","area":"","lng":119.160963,"lat":39.534323,"amap_id":"B0FFK3ICAU","order":26,"prev_distance_km":0.142,"cumulative_distance_km":47.079,"amap_marker_url":"https://uri.amap.com/marker?position=119.160963,39.534323&name=%E4%B8%AD%E5%9B%BD%E5%8A%A8%E7%89%A9%E9%98%B2%E7%96%AB&src=vetmap&coordinate=gaode&callnative=1"},{"name":"荒佃庄兽医站兽医门诊","address":"631县道与128乡道交叉口东160米","phone":"0335-2510687","category":"医疗保健服务;动物医疗场所;兽医站","area":"","lng":119.085876,"lat":39.528357,"amap_id":"B014F05RCI","order":27,"prev_distance_km":6.474,"cumulative_distance_km":53.553,"amap_marker_url":"https://uri.amap.com/marker?position=119.085876,39.528357&name=%E8%8D%92%E4%BD%83%E5%BA%84%E5%85%BD%E5%8C%BB%E7%AB%99%E5%85%BD%E5%8C%BB%E9%97%A8%E8%AF%8A&src=vetmap&coordinate=gaode&callnative=1"},{"name":"盛兰国宠","address":"新和路与128乡道交叉口西240米","phone":"","category":"医疗保健服务;动物医疗场所;动物医疗场所|购物服务;专卖店;宠物用品店","area":"","lng":119.081275,"lat":39.527625,"amap_id":"B0L3MRMX25","order":28,"prev_distance_km":0.403,"cumulative_distance_km":53.956,"amap_marker_url":"https://uri.amap.com/marker?position=119.081275,39.527625&name=%E7%9B%9B%E5%85%B0%E5%9B%BD%E5%AE%A0&src=vetmap&coordinate=gaode&callnative=1"},{"name":"老三兽药店","address":"新集镇槐贾庄村老三兽药店","phone":"","category":"医疗保健服务;动物医疗场所;动物医疗场所","area":"","lng":119.01289,"lat":39.533047,"amap_id":"B0L6NCUPPL","order":29,"prev_distance_km":5.896,"cumulative_distance_km":59.852,"amap_marker_url":"https://uri.amap.com/marker?position=119.012890,39.533047&name=%E8%80%81%E4%B8%89%E5%85%BD%E8%8D%AF%E5%BA%97&src=vetmap&coordinate=gaode&callnative=1"},{"name":"兽医站门门诊部","address":"685县道北侧","phone":"","category":"医疗保健服务;动物医疗场所;兽医站","area":"","lng":118.951432,"lat":39.576874,"amap_id":"B0G1SN8E3D","order":30,"prev_distance_km":7.177,"cumulative_distance_km":67.029,"amap_marker_url":"https://uri.amap.com/marker?position=118.951432,39.576874&name=%E5%85%BD%E5%8C%BB%E7%AB%99%E9%97%A8%E9%97%A8%E8%AF%8A%E9%83%A8&src=vetmap&coordinate=gaode&callnative=1"},{"name":"昌黎县乡村兽医工作室","address":"685县道与向阳路交叉口东40米","phone":"","category":"医疗保健服务;动物医疗场所;兽医站","area":"","lng":118.983275,"lat":39.577875,"amap_id":"B0M65HIP59","order":31,"prev_distance_km":2.731,"cumulative_distance_km":69.76,"amap_marker_url":"https://uri.amap.com/marker?position=118.983275,39.577875&name=%E6%98%8C%E9%BB%8E%E5%8E%BF%E4%B9%A1%E6%9D%91%E5%85%BD%E5%8C%BB%E5%B7%A5%E4%BD%9C%E5%AE%A4&src=vetmap&coordinate=gaode&callnative=1"},{"name":"莜晗兽药店","address":"中国邮政储蓄银行新集支行路西北行五十米","phone":"13191805189","category":"医疗保健服务;动物医疗场所;动物医疗场所","area":"","lng":118.992046,"lat":39.578035,"amap_id":"B0JRB78TUN","order":32,"prev_distance_km":0.752,"cumulative_distance_km":70.512,"amap_marker_url":"https://uri.amap.com/marker?position=118.992046,39.578035&name=%E8%8E%9C%E6%99%97%E5%85%BD%E8%8D%AF%E5%BA%97&src=vetmap&coordinate=gaode&callnative=1"},{"name":"纯喜兽医门诊","address":"东腾远路与常乐街交叉口西北80米","phone":"","category":"医疗保健服务;动物医疗场所;兽医站","area":"","lng":119.082225,"lat":39.576025,"amap_id":"B0L0JNE3IY","order":33,"prev_distance_km":7.732,"cumulative_distance_km":78.244,"amap_marker_url":"https://uri.amap.com/marker?position=119.082225,39.576025&name=%E7%BA%AF%E5%96%9C%E5%85%BD%E5%8C%BB%E9%97%A8%E8%AF%8A&src=vetmap&coordinate=gaode&callnative=1"},{"name":"康畜畜牧兽药店","address":"马坨店农机加油站(昌黎县马坨店乡计划生育委员会东)东北侧250米","phone":"","category":"医疗保健服务;动物医疗场所;动物医疗场所","area":"","lng":119.058925,"lat":39.614525,"amap_id":"B0JR47JYUQ","order":34,"prev_distance_km":4.724,"cumulative_distance_km":82.968,"amap_marker_url":"https://uri.amap.com/marker?position=119.058925,39.614525&name=%E5%BA%B7%E7%95%9C%E7%95%9C%E7%89%A7%E5%85%BD%E8%8D%AF%E5%BA%97&src=vetmap&coordinate=gaode&callnative=1"},{"name":"铭博兽药店","address":"马坨店乡杨坨村","phone":"","category":"医疗保健服务;动物医疗场所;动物医疗场所","area":"","lng":119.041734,"lat":39.619458,"amap_id":"B0G24GCDYI","order":35,"prev_distance_km":1.571,"cumulative_distance_km":84.539,"amap_marker_url":"https://uri.amap.com/marker?position=119.041734,39.619458&name=%E9%93%AD%E5%8D%9A%E5%85%BD%E8%8D%AF%E5%BA%97&src=vetmap&coordinate=gaode&callnative=1"},{"name":"昌黎县乡村兽医工作室","address":"微笑齿科西南侧","phone":"","category":"医疗保健服务;动物医疗场所;兽医站","area":"","lng":118.987148,"lat":39.629205,"amap_id":"B0J2AC407V","order":36,"prev_distance_km":4.799,"cumulative_distance_km":89.338,"amap_marker_url":"https://uri.amap.com/marker?position=118.987148,39.629205&name=%E6%98%8C%E9%BB%8E%E5%8E%BF%E4%B9%A1%E6%9D%91%E5%85%BD%E5%8C%BB%E5%B7%A5%E4%BD%9C%E5%AE%A4&src=vetmap&coordinate=gaode&callnative=1"},{"name":"张树武兽药店","address":"121乡道与631县道交叉口西180米","phone":"","category":"医疗保健服务;动物医疗场所;动物医疗场所","area":"","lng":118.984475,"lat":39.633975,"amap_id":"B0M67AWB5N","order":37,"prev_distance_km":0.578,"cumulative_distance_km":89.916,"amap_marker_url":"https://uri.amap.com/marker?position=118.984475,39.633975&name=%E5%BC%A0%E6%A0%91%E6%AD%A6%E5%85%BD%E8%8D%AF%E5%BA%97&src=vetmap&coordinate=gaode&callnative=1"},{"name":"申恒兽药店","address":"百里超市东北侧","phone":"","category":"医疗保健服务;动物医疗场所;动物医疗场所","area":"","lng":118.922527,"lat":39.673086,"amap_id":"B0JRB5YINB","order":38,"prev_distance_km":6.859,"cumulative_distance_km":96.775,"amap_marker_url":"https://uri.amap.com/marker?position=118.922527,39.673086&name=%E7%94%B3%E6%81%92%E5%85%BD%E8%8D%AF%E5%BA%97&src=vetmap&coordinate=gaode&callnative=1"},{"name":"芮嘉动物诊所","address":"总屯二村村委会南侧100米","phone":"","category":"医疗保健服务;动物医疗场所;宠物诊所","area":"","lng":118.917413,"lat":39.707934,"amap_id":"B0L05NS04M","order":39,"prev_distance_km":3.9,"cumulative_distance_km":100.674,"amap_marker_url":"https://uri.amap.com/marker?position=118.917413,39.707934&name=%E8%8A%AE%E5%98%89%E5%8A%A8%E7%89%A9%E8%AF%8A%E6%89%80&src=vetmap&coordinate=gaode&callnative=1"},{"name":"家大兽药店","address":"军英加油站(军英站)西北侧140米","phone":"","category":"医疗保健服务;动物医疗场所;动物医疗场所","area":"","lng":118.866525,"lat":39.682825,"amap_id":"B0LG7AWHAI","order":40,"prev_distance_km":5.172,"cumulative_distance_km":105.846,"amap_marker_url":"https://uri.amap.com/marker?position=118.866525,39.682825&name=%E5%AE%B6%E5%A4%A7%E5%85%BD%E8%8D%AF%E5%BA%97&src=vetmap&coordinate=gaode&callnative=1"}]}