{"summary":{"id":"d01084","province":"河北省","city":"秦皇岛市","district":"抚宁区","count":12,"total_distance_km":49.152,"coordinate_system":"GCJ-02 / Amap","generated_at":"2026-05-07 20:23:16"},"rows":[{"name":"旺牧兽药店","address":"205国道与633县道交叉口西100米","phone":"13784519920;13784519921","category":"医疗保健服务;动物医疗场所;动物医疗场所","area":"","lng":119.295571,"lat":39.781194,"amap_id":"B0FFGRWCHG","order":1,"prev_distance_km":0.0,"cumulative_distance_km":0.0,"amap_marker_url":"https://uri.amap.com/marker?position=119.295571,39.781194&name=%E6%97%BA%E7%89%A7%E5%85%BD%E8%8D%AF%E5%BA%97&src=vetmap&coordinate=gaode&callnative=1"},{"name":"牧诚兽药店","address":"103乡道与L16省道交叉口东100米","phone":"","category":"医疗保健服务;动物医疗场所;动物医疗场所","area":"","lng":119.281383,"lat":39.833706,"amap_id":"B0I3FLUDCW","order":2,"prev_distance_km":5.964,"cumulative_distance_km":5.964,"amap_marker_url":"https://uri.amap.com/marker?position=119.281383,39.833706&name=%E7%89%A7%E8%AF%9A%E5%85%BD%E8%8D%AF%E5%BA%97&src=vetmap&coordinate=gaode&callnative=1"},{"name":"六旺兽药店","address":"103乡道与L16省道交叉口东100米","phone":"","category":"医疗保健服务;动物医疗场所;动物医疗场所","area":"","lng":119.281248,"lat":39.833968,"amap_id":"B0I3FRWE4R","order":3,"prev_distance_km":0.031,"cumulative_distance_km":5.995,"amap_marker_url":"https://uri.amap.com/marker?position=119.281248,39.833968&name=%E5%85%AD%E6%97%BA%E5%85%BD%E8%8D%AF%E5%BA%97&src=vetmap&coordinate=gaode&callnative=1"},{"name":"博雪兽药店","address":"坟坨村民委员会北侧50米","phone":"13930350565;13933919979","category":"医疗保健服务;动物医疗场所;动物医疗场所","area":"","lng":119.208174,"lat":39.845359,"amap_id":"B0G2M4VXDL","order":4,"prev_distance_km":6.366,"cumulative_distance_km":12.361,"amap_marker_url":"https://uri.amap.com/marker?position=119.208174,39.845359&name=%E5%8D%9A%E9%9B%AA%E5%85%BD%E8%8D%AF%E5%BA%97&src=vetmap&coordinate=gaode&callnative=1"},{"name":"安淇宠物医院","address":"抚宁镇紫金湾香营新村北门","phone":"15033591359","category":"医疗保健服务;动物医疗场所;宠物诊所","area":"","lng":119.25658,"lat":39.868285,"amap_id":"B0H1OLUT9X","order":5,"prev_distance_km":4.855,"cumulative_distance_km":17.216,"amap_marker_url":"https://uri.amap.com/marker?position=119.256580,39.868285&name=%E5%AE%89%E6%B7%87%E5%AE%A0%E7%89%A9%E5%8C%BB%E9%99%A2&src=vetmap&coordinate=gaode&callnative=1"},{"name":"德康宠物医院(健康大街店)","address":"健康大街德康宠物医院","phone":"18230445599","category":"医疗保健服务;动物医疗场所;宠物诊所","area":"","lng":119.243976,"lat":39.880131,"amap_id":"B0G19B8TAY","order":6,"prev_distance_km":1.701,"cumulative_distance_km":18.917,"amap_marker_url":"https://uri.amap.com/marker?position=119.243976,39.880131&name=%E5%BE%B7%E5%BA%B7%E5%AE%A0%E7%89%A9%E5%8C%BB%E9%99%A2%28%E5%81%A5%E5%BA%B7%E5%A4%A7%E8%A1%97%E5%BA%97%29&src=vetmap&coordinate=gaode&callnative=1"},{"name":"民信兽药店","address":"长征路69号","phone":"13292315398","category":"医疗保健服务;动物医疗场所;动物医疗场所","area":"抚宁镇","lng":119.238662,"lat":39.891505,"amap_id":"B014F05CCY","order":7,"prev_distance_km":1.344,"cumulative_distance_km":20.26,"amap_marker_url":"https://uri.amap.com/marker?position=119.238662,39.891505&name=%E6%B0%91%E4%BF%A1%E5%85%BD%E8%8D%AF%E5%BA%97&src=vetmap&coordinate=gaode&callnative=1"},{"name":"东街兽药(东大街)","address":"迎宾路(电信营业厅南30米)","phone":"13133552195","category":"医疗保健服务;动物医疗场所;兽医站","area":"骊城","lng":119.248005,"lat":39.889579,"amap_id":"B014F05MPE","order":8,"prev_distance_km":0.825,"cumulative_distance_km":21.086,"amap_marker_url":"https://uri.amap.com/marker?position=119.248005,39.889579&name=%E4%B8%9C%E8%A1%97%E5%85%BD%E8%8D%AF%28%E4%B8%9C%E5%A4%A7%E8%A1%97%29&src=vetmap&coordinate=gaode&callnative=1"},{"name":"百牧泰兽药店","address":"635县道西100米","phone":"13730354125","category":"医疗保健服务;动物医疗场所;动物医疗场所","area":"","lng":119.349684,"lat":39.903752,"amap_id":"B0FFK9K3Z0","order":9,"prev_distance_km":8.816,"cumulative_distance_km":29.902,"amap_marker_url":"https://uri.amap.com/marker?position=119.349684,39.903752&name=%E7%99%BE%E7%89%A7%E6%B3%B0%E5%85%BD%E8%8D%AF%E5%BA%97&src=vetmap&coordinate=gaode&callnative=1"},{"name":"秦皇岛市玖瑞兽药店","address":"张晨超市东北侧","phone":"","category":"医疗保健服务;动物医疗场所;动物医疗场所","area":"","lng":119.340636,"lat":39.920008,"amap_id":"B0KRTZQ26E","order":10,"prev_distance_km":1.965,"cumulative_distance_km":31.867,"amap_marker_url":"https://uri.amap.com/marker?position=119.340636,39.920008&name=%E7%A7%A6%E7%9A%87%E5%B2%9B%E5%B8%82%E7%8E%96%E7%91%9E%E5%85%BD%E8%8D%AF%E5%BA%97&src=vetmap&coordinate=gaode&callnative=1"},{"name":"秦皇岛晨铭兽医服务有限公司","address":"363省道与261省道交叉口西北220米","phone":"","category":"医疗保健服务;动物医疗场所;动物医疗场所","area":"","lng":119.271973,"lat":40.023235,"amap_id":"B0JK2AT90B","order":11,"prev_distance_km":12.884,"cumulative_distance_km":44.751,"amap_marker_url":"https://uri.amap.com/marker?position=119.271973,40.023235&name=%E7%A7%A6%E7%9A%87%E5%B2%9B%E6%99%A8%E9%93%AD%E5%85%BD%E5%8C%BB%E6%9C%8D%E5%8A%A1%E6%9C%89%E9%99%90%E5%85%AC%E5%8F%B8&src=vetmap&coordinate=gaode&callnative=1"},{"name":"力牧达兽药店","address":"台营镇卫生院西侧","phone":"","category":"医疗保健服务;动物医疗场所;动物医疗场所","area":"","lng":119.220899,"lat":40.029324,"amap_id":"B0KRKD4FL2","order":12,"prev_distance_km":4.401,"cumulative_distance_km":49.152,"amap_marker_url":"https://uri.amap.com/marker?position=119.220899,40.029324&name=%E5%8A%9B%E7%89%A7%E8%BE%BE%E5%85%BD%E8%8D%AF%E5%BA%97&src=vetmap&coordinate=gaode&callnative=1"}]}