{"summary":{"id":"d01058","province":"河北省","city":"沧州市","district":"黄骅市","count":9,"route_count":1,"max_route_clinics":9,"total_distance_km":56.58,"coordinate_system":"GCJ-02 / Amap","generated_at":"2026-05-08 19:46:37"},"routes":[{"id":"r1","name":"第1段","count":9,"total_distance_km":56.58,"rows":[{"name":"鸿济宠物诊疗中心","address":"渤海新区海天雅居沧海路7号","phone":"13383062137","category":"医疗保健服务;动物医疗场所;宠物诊所","area":"","lng":117.764373,"lat":38.273209,"amap_id":"B0KDS5UE5J","order":1,"prev_distance_km":0.0,"cumulative_distance_km":0.0,"amap_marker_url":"https://uri.amap.com/marker?position=117.764373,38.273209&name=%E9%B8%BF%E6%B5%8E%E5%AE%A0%E7%89%A9%E8%AF%8A%E7%96%97%E4%B8%AD%E5%BF%83&src=vetmap&coordinate=gaode&callnative=1","route_id":"r1","route_name":"第1段"},{"name":"永利畜牧水产动物疾病防控中心","address":"228国道与东海路交叉口西北220米","phone":"0317-5803666;13930789566","category":"医疗保健服务;动物医疗场所;动物医疗场所","area":"","lng":117.618512,"lat":38.489756,"amap_id":"B0FFH9BYR6","order":2,"prev_distance_km":27.229,"cumulative_distance_km":27.229,"amap_marker_url":"https://uri.amap.com/marker?position=117.618512,38.489756&name=%E6%B0%B8%E5%88%A9%E7%95%9C%E7%89%A7%E6%B0%B4%E4%BA%A7%E5%8A%A8%E7%89%A9%E7%96%BE%E7%97%85%E9%98%B2%E6%8E%A7%E4%B8%AD%E5%BF%83&src=vetmap&coordinate=gaode&callnative=1","route_id":"r1","route_name":"第1段"},{"name":"尚和动物诊疗服务站","address":"金都马庄佳苑A区南门西280米","phone":"","category":"医疗保健服务;动物医疗场所;宠物诊所","area":"","lng":117.377108,"lat":38.370883,"amap_id":"B0L3FA506K","order":3,"prev_distance_km":24.837,"cumulative_distance_km":52.067,"amap_marker_url":"https://uri.amap.com/marker?position=117.377108,38.370883&name=%E5%B0%9A%E5%92%8C%E5%8A%A8%E7%89%A9%E8%AF%8A%E7%96%97%E6%9C%8D%E5%8A%A1%E7%AB%99&src=vetmap&coordinate=gaode&callnative=1","route_id":"r1","route_name":"第1段"},{"name":"李大夫宠物诊所(和平大街店)","address":"渤海路与和平大街交汇处(金都雅居北广场东南角F3-01商铺)","phone":"0317-5212335;13292771077;13663270005","category":"医疗保健服务;动物医疗场所;宠物诊所","area":"骅东","lng":117.366479,"lat":38.372779,"amap_id":"B0FFHEDK80","order":4,"prev_distance_km":0.95,"cumulative_distance_km":53.017,"amap_marker_url":"https://uri.amap.com/marker?position=117.366479,38.372779&name=%E6%9D%8E%E5%A4%A7%E5%A4%AB%E5%AE%A0%E7%89%A9%E8%AF%8A%E6%89%80%28%E5%92%8C%E5%B9%B3%E5%A4%A7%E8%A1%97%E5%BA%97%29&src=vetmap&coordinate=gaode&callnative=1","route_id":"r1","route_name":"第1段"},{"name":"伴侣宠物门诊","address":"金都雅居底商F2--18","phone":"13323272810","category":"医疗保健服务;动物医疗场所;宠物诊所","area":"骅东","lng":117.365901,"lat":38.373183,"amap_id":"B0G2HZQ0FS","order":5,"prev_distance_km":0.068,"cumulative_distance_km":53.084,"amap_marker_url":"https://uri.amap.com/marker?position=117.365901,38.373183&name=%E4%BC%B4%E4%BE%A3%E5%AE%A0%E7%89%A9%E9%97%A8%E8%AF%8A&src=vetmap&coordinate=gaode&callnative=1","route_id":"r1","route_name":"第1段"},{"name":"宠爱宠物医院","address":"新海东路137号","phone":"15716977785","category":"医疗保健服务;动物医疗场所;宠物诊所","area":"","lng":117.348064,"lat":38.378078,"amap_id":"B0IBA5CBB7","order":6,"prev_distance_km":1.647,"cumulative_distance_km":54.732,"amap_marker_url":"https://uri.amap.com/marker?position=117.348064,38.378078&name=%E5%AE%A0%E7%88%B1%E5%AE%A0%E7%89%A9%E5%8C%BB%E9%99%A2&src=vetmap&coordinate=gaode&callnative=1","route_id":"r1","route_name":"第1段"},{"name":"金项圈宠物医院","address":"骅中街道新海东路22号","phone":"15733712290","category":"医疗保健服务;动物医疗场所;宠物诊所","area":"","lng":117.340396,"lat":38.377154,"amap_id":"B0LUL58LWE","order":7,"prev_distance_km":0.676,"cumulative_distance_km":55.408,"amap_marker_url":"https://uri.amap.com/marker?position=117.340396,38.377154&name=%E9%87%91%E9%A1%B9%E5%9C%88%E5%AE%A0%E7%89%A9%E5%8C%BB%E9%99%A2&src=vetmap&coordinate=gaode&callnative=1","route_id":"r1","route_name":"第1段"},{"name":"艾文宠物医院","address":"迎宾北大街37号","phone":"0317-5220120","category":"医疗保健服务;动物医疗场所;宠物诊所","area":"","lng":117.339112,"lat":38.376533,"amap_id":"B0FFKZNQSA","order":8,"prev_distance_km":0.132,"cumulative_distance_km":55.54,"amap_marker_url":"https://uri.amap.com/marker?position=117.339112,38.376533&name=%E8%89%BE%E6%96%87%E5%AE%A0%E7%89%A9%E5%8C%BB%E9%99%A2&src=vetmap&coordinate=gaode&callnative=1","route_id":"r1","route_name":"第1段"},{"name":"黄骅宠屿宠物医院","address":"黄新海西路121号","phone":"18932762621","category":"医疗保健服务;动物医疗场所;宠物诊所","area":"","lng":117.327179,"lat":38.376579,"amap_id":"B0KR9CIKYK","order":9,"prev_distance_km":1.04,"cumulative_distance_km":56.58,"amap_marker_url":"https://uri.amap.com/marker?position=117.327179,38.376579&name=%E9%BB%84%E9%AA%85%E5%AE%A0%E5%B1%BF%E5%AE%A0%E7%89%A9%E5%8C%BB%E9%99%A2&src=vetmap&coordinate=gaode&callnative=1","route_id":"r1","route_name":"第1段"}]}],"rows":[{"name":"鸿济宠物诊疗中心","address":"渤海新区海天雅居沧海路7号","phone":"13383062137","category":"医疗保健服务;动物医疗场所;宠物诊所","area":"","lng":117.764373,"lat":38.273209,"amap_id":"B0KDS5UE5J","order":1,"prev_distance_km":0.0,"cumulative_distance_km":0.0,"amap_marker_url":"https://uri.amap.com/marker?position=117.764373,38.273209&name=%E9%B8%BF%E6%B5%8E%E5%AE%A0%E7%89%A9%E8%AF%8A%E7%96%97%E4%B8%AD%E5%BF%83&src=vetmap&coordinate=gaode&callnative=1","route_id":"r1","route_name":"第1段","global_order":1},{"name":"永利畜牧水产动物疾病防控中心","address":"228国道与东海路交叉口西北220米","phone":"0317-5803666;13930789566","category":"医疗保健服务;动物医疗场所;动物医疗场所","area":"","lng":117.618512,"lat":38.489756,"amap_id":"B0FFH9BYR6","order":2,"prev_distance_km":27.229,"cumulative_distance_km":27.229,"amap_marker_url":"https://uri.amap.com/marker?position=117.618512,38.489756&name=%E6%B0%B8%E5%88%A9%E7%95%9C%E7%89%A7%E6%B0%B4%E4%BA%A7%E5%8A%A8%E7%89%A9%E7%96%BE%E7%97%85%E9%98%B2%E6%8E%A7%E4%B8%AD%E5%BF%83&src=vetmap&coordinate=gaode&callnative=1","route_id":"r1","route_name":"第1段","global_order":2},{"name":"尚和动物诊疗服务站","address":"金都马庄佳苑A区南门西280米","phone":"","category":"医疗保健服务;动物医疗场所;宠物诊所","area":"","lng":117.377108,"lat":38.370883,"amap_id":"B0L3FA506K","order":3,"prev_distance_km":24.837,"cumulative_distance_km":52.067,"amap_marker_url":"https://uri.amap.com/marker?position=117.377108,38.370883&name=%E5%B0%9A%E5%92%8C%E5%8A%A8%E7%89%A9%E8%AF%8A%E7%96%97%E6%9C%8D%E5%8A%A1%E7%AB%99&src=vetmap&coordinate=gaode&callnative=1","route_id":"r1","route_name":"第1段","global_order":3},{"name":"李大夫宠物诊所(和平大街店)","address":"渤海路与和平大街交汇处(金都雅居北广场东南角F3-01商铺)","phone":"0317-5212335;13292771077;13663270005","category":"医疗保健服务;动物医疗场所;宠物诊所","area":"骅东","lng":117.366479,"lat":38.372779,"amap_id":"B0FFHEDK80","order":4,"prev_distance_km":0.95,"cumulative_distance_km":53.017,"amap_marker_url":"https://uri.amap.com/marker?position=117.366479,38.372779&name=%E6%9D%8E%E5%A4%A7%E5%A4%AB%E5%AE%A0%E7%89%A9%E8%AF%8A%E6%89%80%28%E5%92%8C%E5%B9%B3%E5%A4%A7%E8%A1%97%E5%BA%97%29&src=vetmap&coordinate=gaode&callnative=1","route_id":"r1","route_name":"第1段","global_order":4},{"name":"伴侣宠物门诊","address":"金都雅居底商F2--18","phone":"13323272810","category":"医疗保健服务;动物医疗场所;宠物诊所","area":"骅东","lng":117.365901,"lat":38.373183,"amap_id":"B0G2HZQ0FS","order":5,"prev_distance_km":0.068,"cumulative_distance_km":53.084,"amap_marker_url":"https://uri.amap.com/marker?position=117.365901,38.373183&name=%E4%BC%B4%E4%BE%A3%E5%AE%A0%E7%89%A9%E9%97%A8%E8%AF%8A&src=vetmap&coordinate=gaode&callnative=1","route_id":"r1","route_name":"第1段","global_order":5},{"name":"宠爱宠物医院","address":"新海东路137号","phone":"15716977785","category":"医疗保健服务;动物医疗场所;宠物诊所","area":"","lng":117.348064,"lat":38.378078,"amap_id":"B0IBA5CBB7","order":6,"prev_distance_km":1.647,"cumulative_distance_km":54.732,"amap_marker_url":"https://uri.amap.com/marker?position=117.348064,38.378078&name=%E5%AE%A0%E7%88%B1%E5%AE%A0%E7%89%A9%E5%8C%BB%E9%99%A2&src=vetmap&coordinate=gaode&callnative=1","route_id":"r1","route_name":"第1段","global_order":6},{"name":"金项圈宠物医院","address":"骅中街道新海东路22号","phone":"15733712290","category":"医疗保健服务;动物医疗场所;宠物诊所","area":"","lng":117.340396,"lat":38.377154,"amap_id":"B0LUL58LWE","order":7,"prev_distance_km":0.676,"cumulative_distance_km":55.408,"amap_marker_url":"https://uri.amap.com/marker?position=117.340396,38.377154&name=%E9%87%91%E9%A1%B9%E5%9C%88%E5%AE%A0%E7%89%A9%E5%8C%BB%E9%99%A2&src=vetmap&coordinate=gaode&callnative=1","route_id":"r1","route_name":"第1段","global_order":7},{"name":"艾文宠物医院","address":"迎宾北大街37号","phone":"0317-5220120","category":"医疗保健服务;动物医疗场所;宠物诊所","area":"","lng":117.339112,"lat":38.376533,"amap_id":"B0FFKZNQSA","order":8,"prev_distance_km":0.132,"cumulative_distance_km":55.54,"amap_marker_url":"https://uri.amap.com/marker?position=117.339112,38.376533&name=%E8%89%BE%E6%96%87%E5%AE%A0%E7%89%A9%E5%8C%BB%E9%99%A2&src=vetmap&coordinate=gaode&callnative=1","route_id":"r1","route_name":"第1段","global_order":8},{"name":"黄骅宠屿宠物医院","address":"黄新海西路121号","phone":"18932762621","category":"医疗保健服务;动物医疗场所;宠物诊所","area":"","lng":117.327179,"lat":38.376579,"amap_id":"B0KR9CIKYK","order":9,"prev_distance_km":1.04,"cumulative_distance_km":56.58,"amap_marker_url":"https://uri.amap.com/marker?position=117.327179,38.376579&name=%E9%BB%84%E9%AA%85%E5%AE%A0%E5%B1%BF%E5%AE%A0%E7%89%A9%E5%8C%BB%E9%99%A2&src=vetmap&coordinate=gaode&callnative=1","route_id":"r1","route_name":"第1段","global_order":9}]}