{"summary":{"id":"d01057","province":"河北省","city":"沧州市","district":"青县","count":9,"route_count":1,"max_route_clinics":9,"total_distance_km":40.154,"coordinate_system":"GCJ-02 / Amap","generated_at":"2026-05-08 19:46:37"},"routes":[{"id":"r1","name":"第1段","count":9,"total_distance_km":40.154,"rows":[{"name":"崇仙兽医站","address":"木门店镇崇仙兽医站","phone":"","category":"医疗保健服务;动物医疗场所;兽医站","area":"","lng":116.646963,"lat":38.429384,"amap_id":"B013D0MY10","order":1,"prev_distance_km":0.0,"cumulative_distance_km":0.0,"amap_marker_url":"https://uri.amap.com/marker?position=116.646963,38.429384&name=%E5%B4%87%E4%BB%99%E5%85%BD%E5%8C%BB%E7%AB%99&src=vetmap&coordinate=gaode&callnative=1","route_id":"r1","route_name":"第1段"},{"name":"庆利畜牧兽医诊疗服务站","address":"清国富宇厨具电器西侧70米","phone":"","category":"医疗保健服务;动物医疗场所;兽医站","area":"","lng":116.716846,"lat":38.418921,"amap_id":"B0H1X601BM","order":2,"prev_distance_km":6.198,"cumulative_distance_km":6.198,"amap_marker_url":"https://uri.amap.com/marker?position=116.716846,38.418921&name=%E5%BA%86%E5%88%A9%E7%95%9C%E7%89%A7%E5%85%BD%E5%8C%BB%E8%AF%8A%E7%96%97%E6%9C%8D%E5%8A%A1%E7%AB%99&src=vetmap&coordinate=gaode&callnative=1","route_id":"r1","route_name":"第1段"},{"name":"青县陈嘴乡兽医站","address":"陈嘴乡李杜线","phone":"","category":"医疗保健服务;动物医疗场所;兽医站","area":"","lng":116.885165,"lat":38.467395,"amap_id":"B0FFHID4ZV","order":3,"prev_distance_km":15.619,"cumulative_distance_km":21.817,"amap_marker_url":"https://uri.amap.com/marker?position=116.885165,38.467395&name=%E9%9D%92%E5%8E%BF%E9%99%88%E5%98%B4%E4%B9%A1%E5%85%BD%E5%8C%BB%E7%AB%99&src=vetmap&coordinate=gaode&callnative=1","route_id":"r1","route_name":"第1段"},{"name":"青县兽医院","address":"清州镇京福南路212号","phone":"","category":"医疗保健服务;动物医疗场所;兽医站","area":"","lng":116.838804,"lat":38.56939,"amap_id":"B0FFJGHJMB","order":4,"prev_distance_km":12.037,"cumulative_distance_km":33.854,"amap_marker_url":"https://uri.amap.com/marker?position=116.838804,38.569390&name=%E9%9D%92%E5%8E%BF%E5%85%BD%E5%8C%BB%E9%99%A2&src=vetmap&coordinate=gaode&callnative=1","route_id":"r1","route_name":"第1段"},{"name":"青县愈它宠物医院","address":"新华桥东50米路南","phone":"19931760986","category":"医疗保健服务;动物医疗场所;宠物诊所","area":"新华中路","lng":116.829637,"lat":38.579088,"amap_id":"B0LDP71FSY","order":5,"prev_distance_km":1.341,"cumulative_distance_km":35.195,"amap_marker_url":"https://uri.amap.com/marker?position=116.829637,38.579088&name=%E9%9D%92%E5%8E%BF%E6%84%88%E5%AE%83%E5%AE%A0%E7%89%A9%E5%8C%BB%E9%99%A2&src=vetmap&coordinate=gaode&callnative=1","route_id":"r1","route_name":"第1段"},{"name":"河北省青县清州畜牧兽医站","address":"青王线东200米河北省青县动物防疫监督站清州分站附近","phone":"","category":"医疗保健服务;动物医疗场所;兽医站","area":"","lng":116.815563,"lat":38.589981,"amap_id":"B013D015LI","order":6,"prev_distance_km":1.722,"cumulative_distance_km":36.916,"amap_marker_url":"https://uri.amap.com/marker?position=116.815563,38.589981&name=%E6%B2%B3%E5%8C%97%E7%9C%81%E9%9D%92%E5%8E%BF%E6%B8%85%E5%B7%9E%E7%95%9C%E7%89%A7%E5%85%BD%E5%8C%BB%E7%AB%99&src=vetmap&coordinate=gaode&callnative=1","route_id":"r1","route_name":"第1段"},{"name":"川川宠物诊所(乾宁花园店)","address":"清州镇乾宁街乾宁花园底商","phone":"17703373730","category":"医疗保健服务;动物医疗场所;宠物诊所","area":"","lng":116.81393,"lat":38.585165,"amap_id":"B0G3FHGO28","order":7,"prev_distance_km":0.554,"cumulative_distance_km":37.47,"amap_marker_url":"https://uri.amap.com/marker?position=116.813930,38.585165&name=%E5%B7%9D%E5%B7%9D%E5%AE%A0%E7%89%A9%E8%AF%8A%E6%89%80%28%E4%B9%BE%E5%AE%81%E8%8A%B1%E5%9B%AD%E5%BA%97%29&src=vetmap&coordinate=gaode&callnative=1","route_id":"r1","route_name":"第1段"},{"name":"宠贝安动物医院","address":"清州镇新华西路10-3明德中学东侧小高层底商","phone":"0317-4126990;13102724006","category":"医疗保健服务;动物医疗场所;宠物诊所","area":"","lng":116.807739,"lat":38.574161,"amap_id":"B0FFFPVB3F","order":8,"prev_distance_km":1.337,"cumulative_distance_km":38.807,"amap_marker_url":"https://uri.amap.com/marker?position=116.807739,38.574161&name=%E5%AE%A0%E8%B4%9D%E5%AE%89%E5%8A%A8%E7%89%A9%E5%8C%BB%E9%99%A2&src=vetmap&coordinate=gaode&callnative=1","route_id":"r1","route_name":"第1段"},{"name":"旺康宠物医院","address":"南环红十字会医院东200米路南","phone":"17731772202","category":"医疗保健服务;动物医疗场所;宠物诊所","area":"","lng":116.816913,"lat":38.564393,"amap_id":"B0G3NMOET3","order":9,"prev_distance_km":1.348,"cumulative_distance_km":40.154,"amap_marker_url":"https://uri.amap.com/marker?position=116.816913,38.564393&name=%E6%97%BA%E5%BA%B7%E5%AE%A0%E7%89%A9%E5%8C%BB%E9%99%A2&src=vetmap&coordinate=gaode&callnative=1","route_id":"r1","route_name":"第1段"}]}],"rows":[{"name":"崇仙兽医站","address":"木门店镇崇仙兽医站","phone":"","category":"医疗保健服务;动物医疗场所;兽医站","area":"","lng":116.646963,"lat":38.429384,"amap_id":"B013D0MY10","order":1,"prev_distance_km":0.0,"cumulative_distance_km":0.0,"amap_marker_url":"https://uri.amap.com/marker?position=116.646963,38.429384&name=%E5%B4%87%E4%BB%99%E5%85%BD%E5%8C%BB%E7%AB%99&src=vetmap&coordinate=gaode&callnative=1","route_id":"r1","route_name":"第1段","global_order":1},{"name":"庆利畜牧兽医诊疗服务站","address":"清国富宇厨具电器西侧70米","phone":"","category":"医疗保健服务;动物医疗场所;兽医站","area":"","lng":116.716846,"lat":38.418921,"amap_id":"B0H1X601BM","order":2,"prev_distance_km":6.198,"cumulative_distance_km":6.198,"amap_marker_url":"https://uri.amap.com/marker?position=116.716846,38.418921&name=%E5%BA%86%E5%88%A9%E7%95%9C%E7%89%A7%E5%85%BD%E5%8C%BB%E8%AF%8A%E7%96%97%E6%9C%8D%E5%8A%A1%E7%AB%99&src=vetmap&coordinate=gaode&callnative=1","route_id":"r1","route_name":"第1段","global_order":2},{"name":"青县陈嘴乡兽医站","address":"陈嘴乡李杜线","phone":"","category":"医疗保健服务;动物医疗场所;兽医站","area":"","lng":116.885165,"lat":38.467395,"amap_id":"B0FFHID4ZV","order":3,"prev_distance_km":15.619,"cumulative_distance_km":21.817,"amap_marker_url":"https://uri.amap.com/marker?position=116.885165,38.467395&name=%E9%9D%92%E5%8E%BF%E9%99%88%E5%98%B4%E4%B9%A1%E5%85%BD%E5%8C%BB%E7%AB%99&src=vetmap&coordinate=gaode&callnative=1","route_id":"r1","route_name":"第1段","global_order":3},{"name":"青县兽医院","address":"清州镇京福南路212号","phone":"","category":"医疗保健服务;动物医疗场所;兽医站","area":"","lng":116.838804,"lat":38.56939,"amap_id":"B0FFJGHJMB","order":4,"prev_distance_km":12.037,"cumulative_distance_km":33.854,"amap_marker_url":"https://uri.amap.com/marker?position=116.838804,38.569390&name=%E9%9D%92%E5%8E%BF%E5%85%BD%E5%8C%BB%E9%99%A2&src=vetmap&coordinate=gaode&callnative=1","route_id":"r1","route_name":"第1段","global_order":4},{"name":"青县愈它宠物医院","address":"新华桥东50米路南","phone":"19931760986","category":"医疗保健服务;动物医疗场所;宠物诊所","area":"新华中路","lng":116.829637,"lat":38.579088,"amap_id":"B0LDP71FSY","order":5,"prev_distance_km":1.341,"cumulative_distance_km":35.195,"amap_marker_url":"https://uri.amap.com/marker?position=116.829637,38.579088&name=%E9%9D%92%E5%8E%BF%E6%84%88%E5%AE%83%E5%AE%A0%E7%89%A9%E5%8C%BB%E9%99%A2&src=vetmap&coordinate=gaode&callnative=1","route_id":"r1","route_name":"第1段","global_order":5},{"name":"河北省青县清州畜牧兽医站","address":"青王线东200米河北省青县动物防疫监督站清州分站附近","phone":"","category":"医疗保健服务;动物医疗场所;兽医站","area":"","lng":116.815563,"lat":38.589981,"amap_id":"B013D015LI","order":6,"prev_distance_km":1.722,"cumulative_distance_km":36.916,"amap_marker_url":"https://uri.amap.com/marker?position=116.815563,38.589981&name=%E6%B2%B3%E5%8C%97%E7%9C%81%E9%9D%92%E5%8E%BF%E6%B8%85%E5%B7%9E%E7%95%9C%E7%89%A7%E5%85%BD%E5%8C%BB%E7%AB%99&src=vetmap&coordinate=gaode&callnative=1","route_id":"r1","route_name":"第1段","global_order":6},{"name":"川川宠物诊所(乾宁花园店)","address":"清州镇乾宁街乾宁花园底商","phone":"17703373730","category":"医疗保健服务;动物医疗场所;宠物诊所","area":"","lng":116.81393,"lat":38.585165,"amap_id":"B0G3FHGO28","order":7,"prev_distance_km":0.554,"cumulative_distance_km":37.47,"amap_marker_url":"https://uri.amap.com/marker?position=116.813930,38.585165&name=%E5%B7%9D%E5%B7%9D%E5%AE%A0%E7%89%A9%E8%AF%8A%E6%89%80%28%E4%B9%BE%E5%AE%81%E8%8A%B1%E5%9B%AD%E5%BA%97%29&src=vetmap&coordinate=gaode&callnative=1","route_id":"r1","route_name":"第1段","global_order":7},{"name":"宠贝安动物医院","address":"清州镇新华西路10-3明德中学东侧小高层底商","phone":"0317-4126990;13102724006","category":"医疗保健服务;动物医疗场所;宠物诊所","area":"","lng":116.807739,"lat":38.574161,"amap_id":"B0FFFPVB3F","order":8,"prev_distance_km":1.337,"cumulative_distance_km":38.807,"amap_marker_url":"https://uri.amap.com/marker?position=116.807739,38.574161&name=%E5%AE%A0%E8%B4%9D%E5%AE%89%E5%8A%A8%E7%89%A9%E5%8C%BB%E9%99%A2&src=vetmap&coordinate=gaode&callnative=1","route_id":"r1","route_name":"第1段","global_order":8},{"name":"旺康宠物医院","address":"南环红十字会医院东200米路南","phone":"17731772202","category":"医疗保健服务;动物医疗场所;宠物诊所","area":"","lng":116.816913,"lat":38.564393,"amap_id":"B0G3NMOET3","order":9,"prev_distance_km":1.348,"cumulative_distance_km":40.154,"amap_marker_url":"https://uri.amap.com/marker?position=116.816913,38.564393&name=%E6%97%BA%E5%BA%B7%E5%AE%A0%E7%89%A9%E5%8C%BB%E9%99%A2&src=vetmap&coordinate=gaode&callnative=1","route_id":"r1","route_name":"第1段","global_order":9}]}