{"summary":{"id":"d01005","province":"河北省","city":"唐山市","district":"迁西县","count":6,"route_count":1,"max_route_clinics":6,"total_distance_km":25.255,"coordinate_system":"GCJ-02 / Amap","generated_at":"2026-05-07 21:29:18"},"routes":[{"id":"r1","name":"第1段","count":6,"total_distance_km":25.255,"rows":[{"name":"东荒峪动物防疫站","address":"向阳街250号","phone":"","category":"医疗保健服务;动物医疗场所;动物医疗场所","area":"","lng":118.399934,"lat":40.20109,"amap_id":"B0M69SA5AN","order":1,"prev_distance_km":0.0,"cumulative_distance_km":0.0,"amap_marker_url":"https://uri.amap.com/marker?position=118.399934,40.201090&name=%E4%B8%9C%E8%8D%92%E5%B3%AA%E5%8A%A8%E7%89%A9%E9%98%B2%E7%96%AB%E7%AB%99&src=vetmap&coordinate=gaode&callnative=1","route_id":"r1","route_name":"第1段"},{"name":"有猫有狗宠物诊疗","address":"金源东街","phone":"13363378581","category":"医疗保健服务;动物医疗场所;宠物诊所","area":"","lng":118.304528,"lat":40.164758,"amap_id":"B0G2YCRJMY","order":2,"prev_distance_km":9.056,"cumulative_distance_km":9.056,"amap_marker_url":"https://uri.amap.com/marker?position=118.304528,40.164758&name=%E6%9C%89%E7%8C%AB%E6%9C%89%E7%8B%97%E5%AE%A0%E7%89%A9%E8%AF%8A%E7%96%97&src=vetmap&coordinate=gaode&callnative=1","route_id":"r1","route_name":"第1段"},{"name":"伴侣宠物诊疗中心","address":"喜峰南路路西","phone":"","category":"医疗保健服务;动物医疗场所;宠物诊所","area":"","lng":118.307265,"lat":40.140446,"amap_id":"B0KA9MITOE","order":3,"prev_distance_km":2.713,"cumulative_distance_km":11.769,"amap_marker_url":"https://uri.amap.com/marker?position=118.307265,40.140446&name=%E4%BC%B4%E4%BE%A3%E5%AE%A0%E7%89%A9%E8%AF%8A%E7%96%97%E4%B8%AD%E5%BF%83&src=vetmap&coordinate=gaode&callnative=1","route_id":"r1","route_name":"第1段"},{"name":"海月宠物诊所","address":"兴城镇西环路西山公园对面","phone":"13473510520","category":"医疗保健服务;动物医疗场所;宠物诊所","area":"","lng":118.292805,"lat":40.140479,"amap_id":"B0FFIKIPUH","order":4,"prev_distance_km":1.229,"cumulative_distance_km":12.999,"amap_marker_url":"https://uri.amap.com/marker?position=118.292805,40.140479&name=%E6%B5%B7%E6%9C%88%E5%AE%A0%E7%89%A9%E8%AF%8A%E6%89%80&src=vetmap&coordinate=gaode&callnative=1","route_id":"r1","route_name":"第1段"},{"name":"向辉宠物诊所","address":"喜峰南路253号","phone":"13231525780","category":"医疗保健服务;动物医疗场所;宠物诊所","area":"","lng":118.301585,"lat":40.117897,"amap_id":"B0IR2C2AP5","order":5,"prev_distance_km":2.62,"cumulative_distance_km":15.618,"amap_marker_url":"https://uri.amap.com/marker?position=118.301585,40.117897&name=%E5%90%91%E8%BE%89%E5%AE%A0%E7%89%A9%E8%AF%8A%E6%89%80&src=vetmap&coordinate=gaode&callnative=1","route_id":"r1","route_name":"第1段"},{"name":"中国动物防疫","address":"彭李线附近","phone":"","category":"医疗保健服务;动物医疗场所;动物医疗场所","area":"","lng":118.411375,"lat":40.096452,"amap_id":"B0FFGSTWZ3","order":6,"prev_distance_km":9.637,"cumulative_distance_km":25.255,"amap_marker_url":"https://uri.amap.com/marker?position=118.411375,40.096452&name=%E4%B8%AD%E5%9B%BD%E5%8A%A8%E7%89%A9%E9%98%B2%E7%96%AB&src=vetmap&coordinate=gaode&callnative=1","route_id":"r1","route_name":"第1段"}]}],"rows":[{"name":"东荒峪动物防疫站","address":"向阳街250号","phone":"","category":"医疗保健服务;动物医疗场所;动物医疗场所","area":"","lng":118.399934,"lat":40.20109,"amap_id":"B0M69SA5AN","order":1,"prev_distance_km":0.0,"cumulative_distance_km":0.0,"amap_marker_url":"https://uri.amap.com/marker?position=118.399934,40.201090&name=%E4%B8%9C%E8%8D%92%E5%B3%AA%E5%8A%A8%E7%89%A9%E9%98%B2%E7%96%AB%E7%AB%99&src=vetmap&coordinate=gaode&callnative=1","route_id":"r1","route_name":"第1段","global_order":1},{"name":"有猫有狗宠物诊疗","address":"金源东街","phone":"13363378581","category":"医疗保健服务;动物医疗场所;宠物诊所","area":"","lng":118.304528,"lat":40.164758,"amap_id":"B0G2YCRJMY","order":2,"prev_distance_km":9.056,"cumulative_distance_km":9.056,"amap_marker_url":"https://uri.amap.com/marker?position=118.304528,40.164758&name=%E6%9C%89%E7%8C%AB%E6%9C%89%E7%8B%97%E5%AE%A0%E7%89%A9%E8%AF%8A%E7%96%97&src=vetmap&coordinate=gaode&callnative=1","route_id":"r1","route_name":"第1段","global_order":2},{"name":"伴侣宠物诊疗中心","address":"喜峰南路路西","phone":"","category":"医疗保健服务;动物医疗场所;宠物诊所","area":"","lng":118.307265,"lat":40.140446,"amap_id":"B0KA9MITOE","order":3,"prev_distance_km":2.713,"cumulative_distance_km":11.769,"amap_marker_url":"https://uri.amap.com/marker?position=118.307265,40.140446&name=%E4%BC%B4%E4%BE%A3%E5%AE%A0%E7%89%A9%E8%AF%8A%E7%96%97%E4%B8%AD%E5%BF%83&src=vetmap&coordinate=gaode&callnative=1","route_id":"r1","route_name":"第1段","global_order":3},{"name":"海月宠物诊所","address":"兴城镇西环路西山公园对面","phone":"13473510520","category":"医疗保健服务;动物医疗场所;宠物诊所","area":"","lng":118.292805,"lat":40.140479,"amap_id":"B0FFIKIPUH","order":4,"prev_distance_km":1.229,"cumulative_distance_km":12.999,"amap_marker_url":"https://uri.amap.com/marker?position=118.292805,40.140479&name=%E6%B5%B7%E6%9C%88%E5%AE%A0%E7%89%A9%E8%AF%8A%E6%89%80&src=vetmap&coordinate=gaode&callnative=1","route_id":"r1","route_name":"第1段","global_order":4},{"name":"向辉宠物诊所","address":"喜峰南路253号","phone":"13231525780","category":"医疗保健服务;动物医疗场所;宠物诊所","area":"","lng":118.301585,"lat":40.117897,"amap_id":"B0IR2C2AP5","order":5,"prev_distance_km":2.62,"cumulative_distance_km":15.618,"amap_marker_url":"https://uri.amap.com/marker?position=118.301585,40.117897&name=%E5%90%91%E8%BE%89%E5%AE%A0%E7%89%A9%E8%AF%8A%E6%89%80&src=vetmap&coordinate=gaode&callnative=1","route_id":"r1","route_name":"第1段","global_order":5},{"name":"中国动物防疫","address":"彭李线附近","phone":"","category":"医疗保健服务;动物医疗场所;动物医疗场所","area":"","lng":118.411375,"lat":40.096452,"amap_id":"B0FFGSTWZ3","order":6,"prev_distance_km":9.637,"cumulative_distance_km":25.255,"amap_marker_url":"https://uri.amap.com/marker?position=118.411375,40.096452&name=%E4%B8%AD%E5%9B%BD%E5%8A%A8%E7%89%A9%E9%98%B2%E7%96%AB&src=vetmap&coordinate=gaode&callnative=1","route_id":"r1","route_name":"第1段","global_order":6}]}