{"summary":{"id":"d01030","province":"河北省","city":"张家口市","district":"赤城县","count":5,"total_distance_km":35.125,"coordinate_system":"GCJ-02 / Amap","generated_at":"2026-05-07 20:23:12"},"rows":[{"name":"圈康兽药","address":"079乡道与412县道交叉口南140米","phone":"","category":"购物服务;购物相关场所;购物相关场所|医疗保健服务;动物医疗场所;动物医疗场所","area":"","lng":115.552975,"lat":40.693625,"amap_id":"B0L3O902KF","order":1,"prev_distance_km":0.0,"cumulative_distance_km":0.0,"amap_marker_url":"https://uri.amap.com/marker?position=115.552975,40.693625&name=%E5%9C%88%E5%BA%B7%E5%85%BD%E8%8D%AF&src=vetmap&coordinate=gaode&callnative=1"},{"name":"宠爱宠物美容寄养","address":"府安西街与城隍庙街交叉口西40米","phone":"15833139882","category":"医疗保健服务;动物医疗场所;动物医疗场所","area":"","lng":115.828197,"lat":40.9119,"amap_id":"B0FFHO4WKW","order":2,"prev_distance_km":33.552,"cumulative_distance_km":33.552,"amap_marker_url":"https://uri.amap.com/marker?position=115.828197,40.911900&name=%E5%AE%A0%E7%88%B1%E5%AE%A0%E7%89%A9%E7%BE%8E%E5%AE%B9%E5%AF%84%E5%85%BB&src=vetmap&coordinate=gaode&callnative=1"},{"name":"宠物门诊","address":"南河沿工会西50米","phone":"18401669776","category":"医疗保健服务;动物医疗场所;宠物诊所","area":"","lng":115.834783,"lat":40.910847,"amap_id":"B0G3BYQN37","order":3,"prev_distance_km":0.566,"cumulative_distance_km":34.118,"amap_marker_url":"https://uri.amap.com/marker?position=115.834783,40.910847&name=%E5%AE%A0%E7%89%A9%E9%97%A8%E8%AF%8A&src=vetmap&coordinate=gaode&callnative=1"},{"name":"爱宠动物诊所","address":"东关小区","phone":"15932337217","category":"医疗保健服务;动物医疗场所;宠物诊所","area":"","lng":115.842489,"lat":40.909158,"amap_id":"B0FFL6ILVO","order":4,"prev_distance_km":0.674,"cumulative_distance_km":34.792,"amap_marker_url":"https://uri.amap.com/marker?position=115.842489,40.909158&name=%E7%88%B1%E5%AE%A0%E5%8A%A8%E7%89%A9%E8%AF%8A%E6%89%80&src=vetmap&coordinate=gaode&callnative=1"},{"name":"萌萌动物诊所","address":"大幼新街与霞城大道交叉口东240米","phone":"13633232772","category":"医疗保健服务;动物医疗场所;宠物诊所","area":"","lng":115.845585,"lat":40.911033,"amap_id":"B0JGG7QPWO","order":5,"prev_distance_km":0.333,"cumulative_distance_km":35.125,"amap_marker_url":"https://uri.amap.com/marker?position=115.845585,40.911033&name=%E8%90%8C%E8%90%8C%E5%8A%A8%E7%89%A9%E8%AF%8A%E6%89%80&src=vetmap&coordinate=gaode&callnative=1"}]}