{"summary":{"id":"d01001","province":"河北省","city":"唐山市","district":"玉田县","count":28,"total_distance_km":114.491,"coordinate_system":"GCJ-02 / Amap","generated_at":"2026-05-07 20:23:08"},"rows":[{"name":"柏林兽药服务部宠物门诊","address":"潮洛窝乡北兴庄中心小学西北侧120米","phone":"","category":"医疗保健服务;动物医疗场所;宠物诊所","area":"","lng":117.713556,"lat":39.58019,"amap_id":"B0L6DDM18D","order":1,"prev_distance_km":0.0,"cumulative_distance_km":0.0,"amap_marker_url":"https://uri.amap.com/marker?position=117.713556,39.580190&name=%E6%9F%8F%E6%9E%97%E5%85%BD%E8%8D%AF%E6%9C%8D%E5%8A%A1%E9%83%A8%E5%AE%A0%E7%89%A9%E9%97%A8%E8%AF%8A&src=vetmap&coordinate=gaode&callnative=1"},{"name":"潮洛窝兽医站","address":"德康医院南侧150米","phone":"0315-6421967;13832520207","category":"医疗保健服务;动物医疗场所;兽医站","area":"","lng":117.736019,"lat":39.616442,"amap_id":"B013B04OY6","order":2,"prev_distance_km":4.467,"cumulative_distance_km":4.467,"amap_marker_url":"https://uri.amap.com/marker?position=117.736019,39.616442&name=%E6%BD%AE%E6%B4%9B%E7%AA%9D%E5%85%BD%E5%8C%BB%E7%AB%99&src=vetmap&coordinate=gaode&callnative=1"},{"name":"石臼窝兽医站","address":"唐通线与614县道交叉口东120米","phone":"","category":"医疗保健服务;动物医疗场所;兽医站","area":"","lng":117.672246,"lat":39.668081,"amap_id":"B013B03XZ3","order":3,"prev_distance_km":7.924,"cumulative_distance_km":12.391,"amap_marker_url":"https://uri.amap.com/marker?position=117.672246,39.668081&name=%E7%9F%B3%E8%87%BC%E7%AA%9D%E5%85%BD%E5%8C%BB%E7%AB%99&src=vetmap&coordinate=gaode&callnative=1"},{"name":"窝洛沽镇兽医分站","address":"窝洛沽镇361省道","phone":"15032581777","category":"医疗保健服务;动物医疗场所;兽医站","area":"","lng":117.766691,"lat":39.662842,"amap_id":"B013B0QN0S","order":4,"prev_distance_km":8.105,"cumulative_distance_km":20.496,"amap_marker_url":"https://uri.amap.com/marker?position=117.766691,39.662842&name=%E7%AA%9D%E6%B4%9B%E6%B2%BD%E9%95%87%E5%85%BD%E5%8C%BB%E5%88%86%E7%AB%99&src=vetmap&coordinate=gaode&callnative=1"},{"name":"福爱德畜禽养殖服务处","address":"迎宾路与丰杨线交叉口南420米","phone":"","category":"医疗保健服务;动物医疗场所;兽医站","area":"","lng":117.820993,"lat":39.746754,"amap_id":"B0L3H79TB5","order":5,"prev_distance_km":10.423,"cumulative_distance_km":30.919,"amap_marker_url":"https://uri.amap.com/marker?position=117.820993,39.746754&name=%E7%A6%8F%E7%88%B1%E5%BE%B7%E7%95%9C%E7%A6%BD%E5%85%BB%E6%AE%96%E6%9C%8D%E5%8A%A1%E5%A4%84&src=vetmap&coordinate=gaode&callnative=1"},{"name":"孙各庄兽医站","address":"丰杨线与迎宾路交叉口西200米","phone":"0315-6565291","category":"医疗保健服务;动物医疗场所;兽医站","area":"","lng":117.818606,"lat":39.750496,"amap_id":"B0FFHGTCBD","order":6,"prev_distance_km":0.463,"cumulative_distance_km":31.382,"amap_marker_url":"https://uri.amap.com/marker?position=117.818606,39.750496&name=%E5%AD%99%E5%90%84%E5%BA%84%E5%85%BD%E5%8C%BB%E7%AB%99&src=vetmap&coordinate=gaode&callnative=1"},{"name":"邢庄兽医站","address":"鸦丰线鸦鸿桥国际商贸城37栋七号","phone":"","category":"医疗保健服务;动物医疗场所;兽医站","area":"","lng":117.845579,"lat":39.750618,"amap_id":"B0FFHGRIGS","order":7,"prev_distance_km":2.306,"cumulative_distance_km":33.688,"amap_marker_url":"https://uri.amap.com/marker?position=117.845579,39.750618&name=%E9%82%A2%E5%BA%84%E5%85%BD%E5%8C%BB%E7%AB%99&src=vetmap&coordinate=gaode&callnative=1"},{"name":"鸦鸿桥兽医服务站","address":"兴城街与新城路交叉口东180米","phone":"","category":"医疗保健服务;动物医疗场所;兽医站","area":"","lng":117.853592,"lat":39.757911,"amap_id":"B0IRV7RQIA","order":8,"prev_distance_km":1.062,"cumulative_distance_km":34.75,"amap_marker_url":"https://uri.amap.com/marker?position=117.853592,39.757911&name=%E9%B8%A6%E9%B8%BF%E6%A1%A5%E5%85%BD%E5%8C%BB%E6%9C%8D%E5%8A%A1%E7%AB%99&src=vetmap&coordinate=gaode&callnative=1"},{"name":"医宠康动物宠物服务诊所","address":"玉田县公安局鸦鸿桥治安分局东侧70米","phone":"","category":"医疗保健服务;动物医疗场所;宠物诊所","area":"","lng":117.855425,"lat":39.758825,"amap_id":"B0L0F97HP2","order":9,"prev_distance_km":0.187,"cumulative_distance_km":34.937,"amap_marker_url":"https://uri.amap.com/marker?position=117.855425,39.758825&name=%E5%8C%BB%E5%AE%A0%E5%BA%B7%E5%8A%A8%E7%89%A9%E5%AE%A0%E7%89%A9%E6%9C%8D%E5%8A%A1%E8%AF%8A%E6%89%80&src=vetmap&coordinate=gaode&callnative=1"},{"name":"鸦鸿桥中心兽医站","address":"向江街","phone":"","category":"医疗保健服务;动物医疗场所;兽医站","area":"","lng":117.863655,"lat":39.759107,"amap_id":"B0FFHE3GOX","order":10,"prev_distance_km":0.704,"cumulative_distance_km":35.641,"amap_marker_url":"https://uri.amap.com/marker?position=117.863655,39.759107&name=%E9%B8%A6%E9%B8%BF%E6%A1%A5%E4%B8%AD%E5%BF%83%E5%85%BD%E5%8C%BB%E7%AB%99&src=vetmap&coordinate=gaode&callnative=1"},{"name":"玉田县散水头镇畜牧兽医站","address":"珠王线东100米","phone":"","category":"医疗保健服务;动物医疗场所;兽医站","area":"","lng":117.79536,"lat":39.787967,"amap_id":"B0FFKOE6UQ","order":11,"prev_distance_km":6.661,"cumulative_distance_km":42.302,"amap_marker_url":"https://uri.amap.com/marker?position=117.795360,39.787967&name=%E7%8E%89%E7%94%B0%E5%8E%BF%E6%95%A3%E6%B0%B4%E5%A4%B4%E9%95%87%E7%95%9C%E7%89%A7%E5%85%BD%E5%8C%BB%E7%AB%99&src=vetmap&coordinate=gaode&callnative=1"},{"name":"杨家套镇兽医站","address":"府前街与马渠线交叉口西北20米","phone":"0315-6468627;13903158564","category":"医疗保健服务;动物医疗场所;兽医站","area":"","lng":117.864171,"lat":39.80532,"amap_id":"B0FFG4NVZ9","order":12,"prev_distance_km":6.187,"cumulative_distance_km":48.489,"amap_marker_url":"https://uri.amap.com/marker?position=117.864171,39.805320&name=%E6%9D%A8%E5%AE%B6%E5%A5%97%E9%95%87%E5%85%BD%E5%8C%BB%E7%AB%99&src=vetmap&coordinate=gaode&callnative=1"},{"name":"小定府庄兽医站","address":"马渠线","phone":"13931566763","category":"医疗保健服务;动物医疗场所;兽医站","area":"","lng":117.917414,"lat":39.803733,"amap_id":"B0G0A4R3CQ","order":13,"prev_distance_km":4.552,"cumulative_distance_km":53.041,"amap_marker_url":"https://uri.amap.com/marker?position=117.917414,39.803733&name=%E5%B0%8F%E5%AE%9A%E5%BA%9C%E5%BA%84%E5%85%BD%E5%8C%BB%E7%AB%99&src=vetmap&coordinate=gaode&callnative=1"},{"name":"沈阳辉山华美兽医站门诊","address":"102国道与东小桥路交叉口西140米","phone":"13102683189;13663369872","category":"医疗保健服务;动物医疗场所;兽医站","area":"","lng":117.8876,"lat":39.875042,"amap_id":"B0FFG8SVVD","order":14,"prev_distance_km":8.328,"cumulative_distance_km":61.368,"amap_marker_url":"https://uri.amap.com/marker?position=117.887600,39.875042&name=%E6%B2%88%E9%98%B3%E8%BE%89%E5%B1%B1%E5%8D%8E%E7%BE%8E%E5%85%BD%E5%8C%BB%E7%AB%99%E9%97%A8%E8%AF%8A&src=vetmap&coordinate=gaode&callnative=1"},{"name":"兄弟宠物诊所","address":"万兴家园小区西南门旁","phone":"18000452227","category":"医疗保健服务;动物医疗场所;宠物诊所","area":"","lng":117.874722,"lat":39.875758,"amap_id":"B0FFM958EJ","order":15,"prev_distance_km":1.102,"cumulative_distance_km":62.47,"amap_marker_url":"https://uri.amap.com/marker?position=117.874722,39.875758&name=%E5%85%84%E5%BC%9F%E5%AE%A0%E7%89%A9%E8%AF%8A%E6%89%80&src=vetmap&coordinate=gaode&callnative=1"},{"name":"郭家屯兽医站","address":"南宁路与安新路交叉口东北180米","phone":"","category":"医疗保健服务;动物医疗场所;兽医站","area":"","lng":117.798101,"lat":39.925994,"amap_id":"B0FFJMB892","order":16,"prev_distance_km":8.598,"cumulative_distance_km":71.068,"amap_marker_url":"https://uri.amap.com/marker?position=117.798101,39.925994&name=%E9%83%AD%E5%AE%B6%E5%B1%AF%E5%85%BD%E5%8C%BB%E7%AB%99&src=vetmap&coordinate=gaode&callnative=1"},{"name":"华景时代宠物门诊","address":"旭升路与光明街交叉口西北260米","phone":"","category":"医疗保健服务;动物医疗场所;宠物诊所","area":"","lng":117.771525,"lat":39.895025,"amap_id":"B0M6KRDIMA","order":17,"prev_distance_km":4.123,"cumulative_distance_km":75.191,"amap_marker_url":"https://uri.amap.com/marker?position=117.771525,39.895025&name=%E5%8D%8E%E6%99%AF%E6%97%B6%E4%BB%A3%E5%AE%A0%E7%89%A9%E9%97%A8%E8%AF%8A&src=vetmap&coordinate=gaode&callnative=1"},{"name":"周金玲宠物门诊","address":"华景时代18栋14门市","phone":"13102683197","category":"医疗保健服务;动物医疗场所;宠物诊所","area":"","lng":117.771482,"lat":39.894962,"amap_id":"B013B0SPWZ","order":18,"prev_distance_km":0.008,"cumulative_distance_km":75.199,"amap_marker_url":"https://uri.amap.com/marker?position=117.771482,39.894962&name=%E5%91%A8%E9%87%91%E7%8E%B2%E5%AE%A0%E7%89%A9%E9%97%A8%E8%AF%8A&src=vetmap&coordinate=gaode&callnative=1"},{"name":"安琪佳宝宠物诊所","address":"兴旺三期底商6号(玉田全季酒店西100米)","phone":"15930509120","category":"医疗保健服务;动物医疗场所;宠物诊所","area":"","lng":117.758083,"lat":39.898626,"amap_id":"B0FFG07LSF","order":19,"prev_distance_km":1.213,"cumulative_distance_km":76.412,"amap_marker_url":"https://uri.amap.com/marker?position=117.758083,39.898626&name=%E5%AE%89%E7%90%AA%E4%BD%B3%E5%AE%9D%E5%AE%A0%E7%89%A9%E8%AF%8A%E6%89%80&src=vetmap&coordinate=gaode&callnative=1"},{"name":"佳林动物诊所","address":"凤凰春城三期东北门北190米","phone":"13315565624","category":"医疗保健服务;动物医疗场所;宠物诊所","area":"繁荣路","lng":117.757925,"lat":39.890803,"amap_id":"B0G06AO3TY","order":20,"prev_distance_km":0.87,"cumulative_distance_km":77.282,"amap_marker_url":"https://uri.amap.com/marker?position=117.757925,39.890803&name=%E4%BD%B3%E6%9E%97%E5%8A%A8%E7%89%A9%E8%AF%8A%E6%89%80&src=vetmap&coordinate=gaode&callnative=1"},{"name":"诚忠宠物医院(玉田店)","address":"玉田镇东城路242号","phone":"0315-6581008","category":"医疗保健服务;动物医疗场所;宠物诊所","area":"","lng":117.758809,"lat":39.885146,"amap_id":"B0FFLKC8X4","order":21,"prev_distance_km":0.634,"cumulative_distance_km":77.916,"amap_marker_url":"https://uri.amap.com/marker?position=117.758809,39.885146&name=%E8%AF%9A%E5%BF%A0%E5%AE%A0%E7%89%A9%E5%8C%BB%E9%99%A2%28%E7%8E%89%E7%94%B0%E5%BA%97%29&src=vetmap&coordinate=gaode&callnative=1"},{"name":"河北省玉田县城关中心畜牧兽医站","address":"无终东街1396号","phone":"","category":"医疗保健服务;动物医疗场所;兽医站","area":"","lng":117.771409,"lat":39.881225,"amap_id":"B013B03Z6P","order":22,"prev_distance_km":1.16,"cumulative_distance_km":79.076,"amap_marker_url":"https://uri.amap.com/marker?position=117.771409,39.881225&name=%E6%B2%B3%E5%8C%97%E7%9C%81%E7%8E%89%E7%94%B0%E5%8E%BF%E5%9F%8E%E5%85%B3%E4%B8%AD%E5%BF%83%E7%95%9C%E7%89%A7%E5%85%BD%E5%8C%BB%E7%AB%99&src=vetmap&coordinate=gaode&callnative=1"},{"name":"畜牧兽医门诊部","address":"中国农业银行玉田县支行南门旁","phone":"","category":"医疗保健服务;动物医疗场所;兽医站","area":"","lng":117.756289,"lat":39.882285,"amap_id":"B0FFKMU4B0","order":23,"prev_distance_km":1.296,"cumulative_distance_km":80.371,"amap_marker_url":"https://uri.amap.com/marker?position=117.756289,39.882285&name=%E7%95%9C%E7%89%A7%E5%85%BD%E5%8C%BB%E9%97%A8%E8%AF%8A%E9%83%A8&src=vetmap&coordinate=gaode&callnative=1"},{"name":"晓军宠物诊所","address":"北城西街206号","phone":"13503372397","category":"医疗保健服务;动物医疗场所;宠物诊所","area":"","lng":117.751907,"lat":39.888743,"amap_id":"B0FFG4SG4A","order":24,"prev_distance_km":0.81,"cumulative_distance_km":81.181,"amap_marker_url":"https://uri.amap.com/marker?position=117.751907,39.888743&name=%E6%99%93%E5%86%9B%E5%AE%A0%E7%89%A9%E8%AF%8A%E6%89%80&src=vetmap&coordinate=gaode&callnative=1"},{"name":"名望动物医院","address":"玉田镇凤凰春城二期步行街45号门市","phone":"","category":"医疗保健服务;动物医疗场所;宠物诊所","area":"繁荣路","lng":117.750949,"lat":39.891173,"amap_id":"B0L3D55GXQ","order":25,"prev_distance_km":0.282,"cumulative_distance_km":81.463,"amap_marker_url":"https://uri.amap.com/marker?position=117.750949,39.891173&name=%E5%90%8D%E6%9C%9B%E5%8A%A8%E7%89%A9%E5%8C%BB%E9%99%A2&src=vetmap&coordinate=gaode&callnative=1"},{"name":"北京新希望养殖服务中心兽医站门诊","address":"香小线与富贵街交叉口北260米","phone":"13582872406","category":"医疗保健服务;动物医疗场所;兽医站","area":"","lng":117.622859,"lat":39.892054,"amap_id":"B0FFHD8ATS","order":26,"prev_distance_km":10.928,"cumulative_distance_km":92.392,"amap_marker_url":"https://uri.amap.com/marker?position=117.622859,39.892054&name=%E5%8C%97%E4%BA%AC%E6%96%B0%E5%B8%8C%E6%9C%9B%E5%85%BB%E6%AE%96%E6%9C%8D%E5%8A%A1%E4%B8%AD%E5%BF%83%E5%85%BD%E5%8C%BB%E7%AB%99%E9%97%A8%E8%AF%8A&src=vetmap&coordinate=gaode&callnative=1"},{"name":"大安镇兽医站","address":"玉田县公安局交通警察大队螺山中队东南侧","phone":"13363253478;13383243388","category":"医疗保健服务;动物医疗场所;兽医站","area":"","lng":117.548397,"lat":39.936279,"amap_id":"B0FFG7A2J1","order":27,"prev_distance_km":8.032,"cumulative_distance_km":100.424,"amap_marker_url":"https://uri.amap.com/marker?position=117.548397,39.936279&name=%E5%A4%A7%E5%AE%89%E9%95%87%E5%85%BD%E5%8C%BB%E7%AB%99&src=vetmap&coordinate=gaode&callnative=1"},{"name":"大丁庄兽医站","address":"129乡道与135乡道交叉口北60米","phone":"","category":"医疗保健服务;动物医疗场所;兽医站","area":"","lng":117.572971,"lat":39.811179,"amap_id":"B0FFHE7L1V","order":28,"prev_distance_km":14.068,"cumulative_distance_km":114.491,"amap_marker_url":"https://uri.amap.com/marker?position=117.572971,39.811179&name=%E5%A4%A7%E4%B8%81%E5%BA%84%E5%85%BD%E5%8C%BB%E7%AB%99&src=vetmap&coordinate=gaode&callnative=1"}]}