{"summary":{"id":"d01062","province":"河北省","city":"石家庄市","district":"平山县","count":14,"total_distance_km":58.177,"coordinate_system":"GCJ-02 / Amap","generated_at":"2026-05-07 20:23:14"},"rows":[{"name":"兽医门诊","address":"商贸南街与古月南大街交叉口北100米","phone":"","category":"医疗保健服务;动物医疗场所;兽医站","area":"","lng":113.878677,"lat":38.28406,"amap_id":"B0J1VY1JUL","order":1,"prev_distance_km":0.0,"cumulative_distance_km":0.0,"amap_marker_url":"https://uri.amap.com/marker?position=113.878677,38.284060&name=%E5%85%BD%E5%8C%BB%E9%97%A8%E8%AF%8A&src=vetmap&coordinate=gaode&callnative=1"},{"name":"畜牧兽医门诊","address":"锡海线与501乡道交叉口东260米","phone":"","category":"医疗保健服务;动物医疗场所;兽医站","area":"","lng":113.865522,"lat":38.362711,"amap_id":"B0FFJKI2SU","order":2,"prev_distance_km":8.821,"cumulative_distance_km":8.821,"amap_marker_url":"https://uri.amap.com/marker?position=113.865522,38.362711&name=%E7%95%9C%E7%89%A7%E5%85%BD%E5%8C%BB%E9%97%A8%E8%AF%8A&src=vetmap&coordinate=gaode&callnative=1"},{"name":"牧康畜禽门诊","address":"商业街与241省道交叉口南200米","phone":"","category":"医疗保健服务;动物医疗场所;兽医站","area":"","lng":114.136995,"lat":38.38383,"amap_id":"B0GRJ1RWMR","order":3,"prev_distance_km":23.782,"cumulative_distance_km":32.602,"amap_marker_url":"https://uri.amap.com/marker?position=114.136995,38.383830&name=%E7%89%A7%E5%BA%B7%E7%95%9C%E7%A6%BD%E9%97%A8%E8%AF%8A&src=vetmap&coordinate=gaode&callnative=1"},{"name":"南甸兽医院","address":"南甸镇南甸村商贸街3号","phone":"","category":"医疗保健服务;动物医疗场所;兽医站","area":"","lng":114.137675,"lat":38.385525,"amap_id":"B0GUOO6XMX","order":4,"prev_distance_km":0.198,"cumulative_distance_km":32.8,"amap_marker_url":"https://uri.amap.com/marker?position=114.137675,38.385525&name=%E5%8D%97%E7%94%B8%E5%85%BD%E5%8C%BB%E9%99%A2&src=vetmap&coordinate=gaode&callnative=1"},{"name":"利山兽医技术服务站","address":"三汲乡上三汲小学西侧110米","phone":"13126169521","category":"医疗保健服务;动物医疗场所;兽医站","area":"","lng":114.238436,"lat":38.32144,"amap_id":"B0LD4MNSIX","order":5,"prev_distance_km":11.313,"cumulative_distance_km":44.113,"amap_marker_url":"https://uri.amap.com/marker?position=114.238436,38.321440&name=%E5%88%A9%E5%B1%B1%E5%85%BD%E5%8C%BB%E6%8A%80%E6%9C%AF%E6%9C%8D%E5%8A%A1%E7%AB%99&src=vetmap&coordinate=gaode&callnative=1"},{"name":"兽医门诊","address":"066县道南侧","phone":"","category":"医疗保健服务;动物医疗场所;兽医站","area":"","lng":114.213321,"lat":38.314213,"amap_id":"B0H6Z5T5F9","order":6,"prev_distance_km":2.334,"cumulative_distance_km":46.447,"amap_marker_url":"https://uri.amap.com/marker?position=114.213321,38.314213&name=%E5%85%BD%E5%8C%BB%E9%97%A8%E8%AF%8A&src=vetmap&coordinate=gaode&callnative=1"},{"name":"兽医","address":"066县道与永胜大街交叉口东南20米","phone":"","category":"医疗保健服务;动物医疗场所;兽医站","area":"","lng":114.195296,"lat":38.314249,"amap_id":"B0JKS91R4U","order":7,"prev_distance_km":1.573,"cumulative_distance_km":48.019,"amap_marker_url":"https://uri.amap.com/marker?position=114.195296,38.314249&name=%E5%85%BD%E5%8C%BB&src=vetmap&coordinate=gaode&callnative=1"},{"name":"动物疫病预防控制中心","address":"正义路与西外环路交叉口东南460米","phone":"","category":"医疗保健服务;动物医疗场所;动物医疗场所","area":"","lng":114.169382,"lat":38.265437,"amap_id":"B0LD711RVK","order":8,"prev_distance_km":5.88,"cumulative_distance_km":53.899,"amap_marker_url":"https://uri.amap.com/marker?position=114.169382,38.265437&name=%E5%8A%A8%E7%89%A9%E7%96%AB%E7%97%85%E9%A2%84%E9%98%B2%E6%8E%A7%E5%88%B6%E4%B8%AD%E5%BF%83&src=vetmap&coordinate=gaode&callnative=1"},{"name":"宠爱宠物(冶河花园店)","address":"冶河花园A西北2门旁","phone":"18034113717","category":"医疗保健服务;动物医疗场所;宠物诊所","area":"","lng":114.17706,"lat":38.26238,"amap_id":"B0FFG1AD5B","order":9,"prev_distance_km":0.752,"cumulative_distance_km":54.651,"amap_marker_url":"https://uri.amap.com/marker?position=114.177060,38.262380&name=%E5%AE%A0%E7%88%B1%E5%AE%A0%E7%89%A9%28%E5%86%B6%E6%B2%B3%E8%8A%B1%E5%9B%AD%E5%BA%97%29&src=vetmap&coordinate=gaode&callnative=1"},{"name":"平山县宠爱动物诊所","address":"建设北大街东侧紫园小区综合楼1-106","phone":"18034113717","category":"医疗保健服务;动物医疗场所;宠物诊所","area":"","lng":114.184234,"lat":38.267046,"amap_id":"B0KAR7HG11","order":10,"prev_distance_km":0.813,"cumulative_distance_km":55.464,"amap_marker_url":"https://uri.amap.com/marker?position=114.184234,38.267046&name=%E5%B9%B3%E5%B1%B1%E5%8E%BF%E5%AE%A0%E7%88%B1%E5%8A%A8%E7%89%A9%E8%AF%8A%E6%89%80&src=vetmap&coordinate=gaode&callnative=1"},{"name":"十犬十美宠物美容店","address":"平山镇冶河西路冶河明珠四区37号商铺","phone":"15832159382","category":"医疗保健服务;动物医疗场所;动物医疗场所","area":"","lng":114.190706,"lat":38.261056,"amap_id":"B0G0K1VKP1","order":11,"prev_distance_km":0.873,"cumulative_distance_km":56.338,"amap_marker_url":"https://uri.amap.com/marker?position=114.190706,38.261056&name=%E5%8D%81%E7%8A%AC%E5%8D%81%E7%BE%8E%E5%AE%A0%E7%89%A9%E7%BE%8E%E5%AE%B9%E5%BA%97&src=vetmap&coordinate=gaode&callnative=1"},{"name":"新伟动物诊疗(平山分店)","address":"西城华府北1门旁","phone":"19358283537","category":"医疗保健服务;动物医疗场所;宠物诊所","area":"","lng":114.188585,"lat":38.258931,"amap_id":"B0K3MUL4FG","order":12,"prev_distance_km":0.3,"cumulative_distance_km":56.638,"amap_marker_url":"https://uri.amap.com/marker?position=114.188585,38.258931&name=%E6%96%B0%E4%BC%9F%E5%8A%A8%E7%89%A9%E8%AF%8A%E7%96%97%28%E5%B9%B3%E5%B1%B1%E5%88%86%E5%BA%97%29&src=vetmap&coordinate=gaode&callnative=1"},{"name":"牛弟弟动物诊所","address":"旧桥头东50米路南西城华府底商","phone":"15613370161","category":"医疗保健服务;动物医疗场所;宠物诊所","area":"","lng":114.19196,"lat":38.258902,"amap_id":"B0I3A7T0PK","order":13,"prev_distance_km":0.295,"cumulative_distance_km":56.932,"amap_marker_url":"https://uri.amap.com/marker?position=114.191960,38.258902&name=%E7%89%9B%E5%BC%9F%E5%BC%9F%E5%8A%A8%E7%89%A9%E8%AF%8A%E6%89%80&src=vetmap&coordinate=gaode&callnative=1"},{"name":"平山贝康宠物诊所","address":"锦绣花园南门东50米","phone":"15003217900","category":"医疗保健服务;动物医疗场所;宠物诊所","area":"","lng":114.205059,"lat":38.254487,"amap_id":"B0FFHE1B88","order":14,"prev_distance_km":1.245,"cumulative_distance_km":58.177,"amap_marker_url":"https://uri.amap.com/marker?position=114.205059,38.254487&name=%E5%B9%B3%E5%B1%B1%E8%B4%9D%E5%BA%B7%E5%AE%A0%E7%89%A9%E8%AF%8A%E6%89%80&src=vetmap&coordinate=gaode&callnative=1"}]}