{"summary":{"id":"d01020","province":"河北省","city":"张家口市","district":"尚义县","count":5,"total_distance_km":6.302,"coordinate_system":"GCJ-02 / Amap","generated_at":"2026-05-07 20:23:12"},"rows":[{"name":"动物兽药宠物会馆","address":"平安街南23-20","phone":"15028418955;15128358855","category":"医疗保健服务;动物医疗场所;动物医疗场所","area":"","lng":113.968831,"lat":41.07566,"amap_id":"B0FFKKIF90","order":1,"prev_distance_km":0.0,"cumulative_distance_km":0.0,"amap_marker_url":"https://uri.amap.com/marker?position=113.968831,41.075660&name=%E5%8A%A8%E7%89%A9%E5%85%BD%E8%8D%AF%E5%AE%A0%E7%89%A9%E4%BC%9A%E9%A6%86&src=vetmap&coordinate=gaode&callnative=1"},{"name":"马喜元兽药店","address":"新华街与平安西街交叉口东南80米","phone":"","category":"医疗保健服务;动物医疗场所;动物医疗场所","area":"","lng":113.968475,"lat":41.074275,"amap_id":"B0L3AZRGU9","order":2,"prev_distance_km":0.157,"cumulative_distance_km":0.157,"amap_marker_url":"https://uri.amap.com/marker?position=113.968475,41.074275&name=%E9%A9%AC%E5%96%9C%E5%85%83%E5%85%BD%E8%8D%AF%E5%BA%97&src=vetmap&coordinate=gaode&callnative=1"},{"name":"圣德动物诊所","address":"南南路16-62号","phone":"18831343485","category":"医疗保健服务;动物医疗场所;宠物诊所","area":"","lng":113.97774,"lat":41.073321,"amap_id":"B0KD99RUBU","order":3,"prev_distance_km":0.784,"cumulative_distance_km":0.941,"amap_marker_url":"https://uri.amap.com/marker?position=113.977740,41.073321&name=%E5%9C%A3%E5%BE%B7%E5%8A%A8%E7%89%A9%E8%AF%8A%E6%89%80&src=vetmap&coordinate=gaode&callnative=1"},{"name":"英帅兽药店","address":"平安街与一中路交叉口南80米","phone":"15530388804","category":"医疗保健服务;动物医疗场所;兽医站","area":"","lng":113.989284,"lat":41.092156,"amap_id":"B0FFG8SYA5","order":4,"prev_distance_km":2.307,"cumulative_distance_km":3.248,"amap_marker_url":"https://uri.amap.com/marker?position=113.989284,41.092156&name=%E8%8B%B1%E5%B8%85%E5%85%BD%E8%8D%AF%E5%BA%97&src=vetmap&coordinate=gaode&callnative=1"},{"name":"尚义老李兽医门诊","address":"南壕堑镇落铺梁","phone":"","category":"医疗保健服务;动物医疗场所;兽医站","area":"","lng":114.001376,"lat":41.118068,"amap_id":"B0G09ZMX8U","order":5,"prev_distance_km":3.054,"cumulative_distance_km":6.302,"amap_marker_url":"https://uri.amap.com/marker?position=114.001376,41.118068&name=%E5%B0%9A%E4%B9%89%E8%80%81%E6%9D%8E%E5%85%BD%E5%8C%BB%E9%97%A8%E8%AF%8A&src=vetmap&coordinate=gaode&callnative=1"}]}