{"summary":{"id":"d01045","province":"河北省","city":"沧州市","district":"南皮县","count":9,"route_count":1,"max_route_clinics":9,"total_distance_km":45.636,"coordinate_system":"GCJ-02 / Amap","generated_at":"2026-05-07 21:29:23"},"routes":[{"id":"r1","name":"第1段","count":9,"total_distance_km":45.636,"rows":[{"name":"柴大夫动物门诊","address":"220省道与150乡道交叉口西南180米","phone":"13613276311;15031706001","category":"医疗保健服务;动物医疗场所;兽医站","area":"","lng":116.745137,"lat":38.161671,"amap_id":"B0FFKP13XJ","order":1,"prev_distance_km":0.0,"cumulative_distance_km":0.0,"amap_marker_url":"https://uri.amap.com/marker?position=116.745137,38.161671&name=%E6%9F%B4%E5%A4%A7%E5%A4%AB%E5%8A%A8%E7%89%A9%E9%97%A8%E8%AF%8A&src=vetmap&coordinate=gaode&callnative=1","route_id":"r1","route_name":"第1段"},{"name":"宠多多宠物医院(光明西路店)","address":"南皮镇光明西路58号","phone":"15194726015","category":"医疗保健服务;动物医疗场所;宠物诊所","area":"","lng":116.696507,"lat":38.042751,"amap_id":"B0FFG8DCLR","order":2,"prev_distance_km":13.891,"cumulative_distance_km":13.891,"amap_marker_url":"https://uri.amap.com/marker?position=116.696507,38.042751&name=%E5%AE%A0%E5%A4%9A%E5%A4%9A%E5%AE%A0%E7%89%A9%E5%8C%BB%E9%99%A2%28%E5%85%89%E6%98%8E%E8%A5%BF%E8%B7%AF%E5%BA%97%29&src=vetmap&coordinate=gaode&callnative=1","route_id":"r1","route_name":"第1段"},{"name":"齐大夫宠物医院","address":"安顺南大街3号","phone":"13831742706","category":"医疗保健服务;动物医疗场所;宠物诊所","area":"","lng":116.693206,"lat":38.037041,"amap_id":"B0FFFSBG0I","order":3,"prev_distance_km":0.698,"cumulative_distance_km":14.589,"amap_marker_url":"https://uri.amap.com/marker?position=116.693206,38.037041&name=%E9%BD%90%E5%A4%A7%E5%A4%AB%E5%AE%A0%E7%89%A9%E5%8C%BB%E9%99%A2&src=vetmap&coordinate=gaode&callnative=1","route_id":"r1","route_name":"第1段"},{"name":"乐邦宠医","address":"富嘉花园南门旁","phone":"15128765222","category":"医疗保健服务;动物医疗场所;宠物诊所","area":"","lng":116.704023,"lat":38.038081,"amap_id":"B0L11BJ8QE","order":4,"prev_distance_km":0.954,"cumulative_distance_km":15.543,"amap_marker_url":"https://uri.amap.com/marker?position=116.704023,38.038081&name=%E4%B9%90%E9%82%A6%E5%AE%A0%E5%8C%BB&src=vetmap&coordinate=gaode&callnative=1","route_id":"r1","route_name":"第1段"},{"name":"济生动物诊所","address":"光明中路与光荣南大街交叉口西220米","phone":"0317-8864399;13803234980","category":"医疗保健服务;动物医疗场所;宠物诊所|医疗保健服务;动物医疗场所;兽医站","area":"","lng":116.714993,"lat":38.038093,"amap_id":"B013D00XC3","order":5,"prev_distance_km":0.961,"cumulative_distance_km":16.504,"amap_marker_url":"https://uri.amap.com/marker?position=116.714993,38.038093&name=%E6%B5%8E%E7%94%9F%E5%8A%A8%E7%89%A9%E8%AF%8A%E6%89%80&src=vetmap&coordinate=gaode&callnative=1","route_id":"r1","route_name":"第1段"},{"name":"宠多多宠物门诊","address":"光明东路福兴家园底商东03铺宠多多宠物门诊","phone":"15194726015;15720375825","category":"医疗保健服务;动物医疗场所;宠物诊所","area":"","lng":116.725317,"lat":38.035952,"amap_id":"B0FFGAFJ6P","order":6,"prev_distance_km":0.935,"cumulative_distance_km":17.439,"amap_marker_url":"https://uri.amap.com/marker?position=116.725317,38.035952&name=%E5%AE%A0%E5%A4%9A%E5%A4%9A%E5%AE%A0%E7%89%A9%E9%97%A8%E8%AF%8A&src=vetmap&coordinate=gaode&callnative=1","route_id":"r1","route_name":"第1段"},{"name":"南皮县兽医院","address":"南皮镇畜牧局家属院","phone":"","category":"医疗保健服务;动物医疗场所;兽医站","area":"","lng":116.726233,"lat":38.036459,"amap_id":"B0FFI1TISB","order":7,"prev_distance_km":0.098,"cumulative_distance_km":17.537,"amap_marker_url":"https://uri.amap.com/marker?position=116.726233,38.036459&name=%E5%8D%97%E7%9A%AE%E5%8E%BF%E5%85%BD%E5%8C%BB%E9%99%A2&src=vetmap&coordinate=gaode&callnative=1","route_id":"r1","route_name":"第1段"},{"name":"南皮县兴牧兽医门诊","address":"南皮镇光明东路33号","phone":"18931720446","category":"医疗保健服务;动物医疗场所;兽医站","area":"","lng":116.726383,"lat":38.036229,"amap_id":"B0FFJGDUCA","order":8,"prev_distance_km":0.029,"cumulative_distance_km":17.566,"amap_marker_url":"https://uri.amap.com/marker?position=116.726383,38.036229&name=%E5%8D%97%E7%9A%AE%E5%8E%BF%E5%85%B4%E7%89%A7%E5%85%BD%E5%8C%BB%E9%97%A8%E8%AF%8A&src=vetmap&coordinate=gaode&callnative=1","route_id":"r1","route_name":"第1段"},{"name":"科健兽医门诊","address":"寨子镇北街明德小学东南侧270米","phone":"","category":"医疗保健服务;动物医疗场所;兽医站","area":"","lng":116.945399,"lat":37.852123,"amap_id":"B013D014S5","order":9,"prev_distance_km":28.07,"cumulative_distance_km":45.636,"amap_marker_url":"https://uri.amap.com/marker?position=116.945399,37.852123&name=%E7%A7%91%E5%81%A5%E5%85%BD%E5%8C%BB%E9%97%A8%E8%AF%8A&src=vetmap&coordinate=gaode&callnative=1","route_id":"r1","route_name":"第1段"}]}],"rows":[{"name":"柴大夫动物门诊","address":"220省道与150乡道交叉口西南180米","phone":"13613276311;15031706001","category":"医疗保健服务;动物医疗场所;兽医站","area":"","lng":116.745137,"lat":38.161671,"amap_id":"B0FFKP13XJ","order":1,"prev_distance_km":0.0,"cumulative_distance_km":0.0,"amap_marker_url":"https://uri.amap.com/marker?position=116.745137,38.161671&name=%E6%9F%B4%E5%A4%A7%E5%A4%AB%E5%8A%A8%E7%89%A9%E9%97%A8%E8%AF%8A&src=vetmap&coordinate=gaode&callnative=1","route_id":"r1","route_name":"第1段","global_order":1},{"name":"宠多多宠物医院(光明西路店)","address":"南皮镇光明西路58号","phone":"15194726015","category":"医疗保健服务;动物医疗场所;宠物诊所","area":"","lng":116.696507,"lat":38.042751,"amap_id":"B0FFG8DCLR","order":2,"prev_distance_km":13.891,"cumulative_distance_km":13.891,"amap_marker_url":"https://uri.amap.com/marker?position=116.696507,38.042751&name=%E5%AE%A0%E5%A4%9A%E5%A4%9A%E5%AE%A0%E7%89%A9%E5%8C%BB%E9%99%A2%28%E5%85%89%E6%98%8E%E8%A5%BF%E8%B7%AF%E5%BA%97%29&src=vetmap&coordinate=gaode&callnative=1","route_id":"r1","route_name":"第1段","global_order":2},{"name":"齐大夫宠物医院","address":"安顺南大街3号","phone":"13831742706","category":"医疗保健服务;动物医疗场所;宠物诊所","area":"","lng":116.693206,"lat":38.037041,"amap_id":"B0FFFSBG0I","order":3,"prev_distance_km":0.698,"cumulative_distance_km":14.589,"amap_marker_url":"https://uri.amap.com/marker?position=116.693206,38.037041&name=%E9%BD%90%E5%A4%A7%E5%A4%AB%E5%AE%A0%E7%89%A9%E5%8C%BB%E9%99%A2&src=vetmap&coordinate=gaode&callnative=1","route_id":"r1","route_name":"第1段","global_order":3},{"name":"乐邦宠医","address":"富嘉花园南门旁","phone":"15128765222","category":"医疗保健服务;动物医疗场所;宠物诊所","area":"","lng":116.704023,"lat":38.038081,"amap_id":"B0L11BJ8QE","order":4,"prev_distance_km":0.954,"cumulative_distance_km":15.543,"amap_marker_url":"https://uri.amap.com/marker?position=116.704023,38.038081&name=%E4%B9%90%E9%82%A6%E5%AE%A0%E5%8C%BB&src=vetmap&coordinate=gaode&callnative=1","route_id":"r1","route_name":"第1段","global_order":4},{"name":"济生动物诊所","address":"光明中路与光荣南大街交叉口西220米","phone":"0317-8864399;13803234980","category":"医疗保健服务;动物医疗场所;宠物诊所|医疗保健服务;动物医疗场所;兽医站","area":"","lng":116.714993,"lat":38.038093,"amap_id":"B013D00XC3","order":5,"prev_distance_km":0.961,"cumulative_distance_km":16.504,"amap_marker_url":"https://uri.amap.com/marker?position=116.714993,38.038093&name=%E6%B5%8E%E7%94%9F%E5%8A%A8%E7%89%A9%E8%AF%8A%E6%89%80&src=vetmap&coordinate=gaode&callnative=1","route_id":"r1","route_name":"第1段","global_order":5},{"name":"宠多多宠物门诊","address":"光明东路福兴家园底商东03铺宠多多宠物门诊","phone":"15194726015;15720375825","category":"医疗保健服务;动物医疗场所;宠物诊所","area":"","lng":116.725317,"lat":38.035952,"amap_id":"B0FFGAFJ6P","order":6,"prev_distance_km":0.935,"cumulative_distance_km":17.439,"amap_marker_url":"https://uri.amap.com/marker?position=116.725317,38.035952&name=%E5%AE%A0%E5%A4%9A%E5%A4%9A%E5%AE%A0%E7%89%A9%E9%97%A8%E8%AF%8A&src=vetmap&coordinate=gaode&callnative=1","route_id":"r1","route_name":"第1段","global_order":6},{"name":"南皮县兽医院","address":"南皮镇畜牧局家属院","phone":"","category":"医疗保健服务;动物医疗场所;兽医站","area":"","lng":116.726233,"lat":38.036459,"amap_id":"B0FFI1TISB","order":7,"prev_distance_km":0.098,"cumulative_distance_km":17.537,"amap_marker_url":"https://uri.amap.com/marker?position=116.726233,38.036459&name=%E5%8D%97%E7%9A%AE%E5%8E%BF%E5%85%BD%E5%8C%BB%E9%99%A2&src=vetmap&coordinate=gaode&callnative=1","route_id":"r1","route_name":"第1段","global_order":7},{"name":"南皮县兴牧兽医门诊","address":"南皮镇光明东路33号","phone":"18931720446","category":"医疗保健服务;动物医疗场所;兽医站","area":"","lng":116.726383,"lat":38.036229,"amap_id":"B0FFJGDUCA","order":8,"prev_distance_km":0.029,"cumulative_distance_km":17.566,"amap_marker_url":"https://uri.amap.com/marker?position=116.726383,38.036229&name=%E5%8D%97%E7%9A%AE%E5%8E%BF%E5%85%B4%E7%89%A7%E5%85%BD%E5%8C%BB%E9%97%A8%E8%AF%8A&src=vetmap&coordinate=gaode&callnative=1","route_id":"r1","route_name":"第1段","global_order":8},{"name":"科健兽医门诊","address":"寨子镇北街明德小学东南侧270米","phone":"","category":"医疗保健服务;动物医疗场所;兽医站","area":"","lng":116.945399,"lat":37.852123,"amap_id":"B013D014S5","order":9,"prev_distance_km":28.07,"cumulative_distance_km":45.636,"amap_marker_url":"https://uri.amap.com/marker?position=116.945399,37.852123&name=%E7%A7%91%E5%81%A5%E5%85%BD%E5%8C%BB%E9%97%A8%E8%AF%8A&src=vetmap&coordinate=gaode&callnative=1","route_id":"r1","route_name":"第1段","global_order":9}]}