{"summary":{"id":"d01073","province":"河北省","city":"石家庄市","district":"行唐县","count":16,"route_count":1,"max_route_clinics":16,"total_distance_km":34.109,"coordinate_system":"GCJ-02 / Amap","generated_at":"2026-05-08 19:46:39"},"routes":[{"id":"r1","name":"第1段","count":16,"total_distance_km":34.109,"rows":[{"name":"博爱宠物医院","address":"恒阳大街与永昌南路交叉口西北80米","phone":"18032140158","category":"医疗保健服务;动物医疗场所;宠物诊所","area":"","lng":114.559219,"lat":38.43295,"amap_id":"B0KBOLIB44","order":1,"prev_distance_km":0.0,"cumulative_distance_km":0.0,"amap_marker_url":"https://uri.amap.com/marker?position=114.559219,38.432950&name=%E5%8D%9A%E7%88%B1%E5%AE%A0%E7%89%A9%E5%8C%BB%E9%99%A2&src=vetmap&coordinate=gaode&callnative=1","route_id":"r1","route_name":"第1段"},{"name":"兴唐兽医门诊","address":"衡阳大街413号大众面馆东边","phone":"13832352451","category":"医疗保健服务;动物医疗场所;兽医站","area":"","lng":114.558769,"lat":38.432561,"amap_id":"B01370SVQ4","order":2,"prev_distance_km":0.058,"cumulative_distance_km":0.058,"amap_marker_url":"https://uri.amap.com/marker?position=114.558769,38.432561&name=%E5%85%B4%E5%94%90%E5%85%BD%E5%8C%BB%E9%97%A8%E8%AF%8A&src=vetmap&coordinate=gaode&callnative=1","route_id":"r1","route_name":"第1段"},{"name":"行唐县动物疾病诊疗中心","address":"恒阳大街与幸福南路交叉口东80米","phone":"13582365139","category":"医疗保健服务;动物医疗场所;兽医站","area":"","lng":114.556976,"lat":38.432397,"amap_id":"B0JK9XFWQT","order":3,"prev_distance_km":0.157,"cumulative_distance_km":0.216,"amap_marker_url":"https://uri.amap.com/marker?position=114.556976,38.432397&name=%E8%A1%8C%E5%94%90%E5%8E%BF%E5%8A%A8%E7%89%A9%E7%96%BE%E7%97%85%E8%AF%8A%E7%96%97%E4%B8%AD%E5%BF%83&src=vetmap&coordinate=gaode&callnative=1","route_id":"r1","route_name":"第1段"},{"name":"张立平兽药门诊","address":"龙州镇衡阳大街南马路109号","phone":"13832130428","category":"医疗保健服务;动物医疗场所;兽医站","area":"","lng":114.549304,"lat":38.432177,"amap_id":"B0FFFE5DLX","order":4,"prev_distance_km":0.669,"cumulative_distance_km":0.884,"amap_marker_url":"https://uri.amap.com/marker?position=114.549304,38.432177&name=%E5%BC%A0%E7%AB%8B%E5%B9%B3%E5%85%BD%E8%8D%AF%E9%97%A8%E8%AF%8A&src=vetmap&coordinate=gaode&callnative=1","route_id":"r1","route_name":"第1段"},{"name":"张国翠兽药门诊","address":"恒阳大街与西关南路交叉口西80米","phone":"13513317026","category":"医疗保健服务;动物医疗场所;兽医站","area":"","lng":114.548939,"lat":38.432234,"amap_id":"B0FFGDGEUA","order":5,"prev_distance_km":0.032,"cumulative_distance_km":0.917,"amap_marker_url":"https://uri.amap.com/marker?position=114.548939,38.432234&name=%E5%BC%A0%E5%9B%BD%E7%BF%A0%E5%85%BD%E8%8D%AF%E9%97%A8%E8%AF%8A&src=vetmap&coordinate=gaode&callnative=1","route_id":"r1","route_name":"第1段"},{"name":"坤鹏宠物诊所","address":"南马路恒阳大街妇幼保健院正对面","phone":"13933847087","category":"医疗保健服务;动物医疗场所;宠物诊所","area":"","lng":114.544429,"lat":38.433182,"amap_id":"B0FFJH9F8U","order":6,"prev_distance_km":0.407,"cumulative_distance_km":1.323,"amap_marker_url":"https://uri.amap.com/marker?position=114.544429,38.433182&name=%E5%9D%A4%E9%B9%8F%E5%AE%A0%E7%89%A9%E8%AF%8A%E6%89%80&src=vetmap&coordinate=gaode&callnative=1","route_id":"r1","route_name":"第1段"},{"name":"福悦兽药门诊","address":"龙州镇妇幼院对过","phone":"13011594907","category":"医疗保健服务;动物医疗场所;兽医站","area":"","lng":114.544311,"lat":38.433729,"amap_id":"B0FFHC8PBY","order":7,"prev_distance_km":0.062,"cumulative_distance_km":1.385,"amap_marker_url":"https://uri.amap.com/marker?position=114.544311,38.433729&name=%E7%A6%8F%E6%82%A6%E5%85%BD%E8%8D%AF%E9%97%A8%E8%AF%8A&src=vetmap&coordinate=gaode&callnative=1","route_id":"r1","route_name":"第1段"},{"name":"行唐县动物疫病预防控制中心","address":"龙州镇","phone":"","category":"医疗保健服务;动物医疗场所;动物医疗场所","area":"","lng":114.542811,"lat":38.434593,"amap_id":"B0FFFE4HDA","order":8,"prev_distance_km":0.162,"cumulative_distance_km":1.547,"amap_marker_url":"https://uri.amap.com/marker?position=114.542811,38.434593&name=%E8%A1%8C%E5%94%90%E5%8E%BF%E5%8A%A8%E7%89%A9%E7%96%AB%E7%97%85%E9%A2%84%E9%98%B2%E6%8E%A7%E5%88%B6%E4%B8%AD%E5%BF%83&src=vetmap&coordinate=gaode&callnative=1","route_id":"r1","route_name":"第1段"},{"name":"关爱宠物诊所","address":"龙州镇章武路第一运输公司楼下2-3号","phone":"13803347289","category":"医疗保健服务;动物医疗场所;宠物诊所","area":"","lng":114.542806,"lat":38.435257,"amap_id":"B0FFH27PFX","order":9,"prev_distance_km":0.074,"cumulative_distance_km":1.621,"amap_marker_url":"https://uri.amap.com/marker?position=114.542806,38.435257&name=%E5%85%B3%E7%88%B1%E5%AE%A0%E7%89%A9%E8%AF%8A%E6%89%80&src=vetmap&coordinate=gaode&callnative=1","route_id":"r1","route_name":"第1段"},{"name":"智农牧联畜牧服务中心","address":"行唐县公安局交通管理大队事故处理科东侧150米","phone":"","category":"医疗保健服务;动物医疗场所;兽医站","area":"","lng":114.534995,"lat":38.433047,"amap_id":"B0K63HR3KQ","order":10,"prev_distance_km":0.723,"cumulative_distance_km":2.345,"amap_marker_url":"https://uri.amap.com/marker?position=114.534995,38.433047&name=%E6%99%BA%E5%86%9C%E7%89%A7%E8%81%94%E7%95%9C%E7%89%A7%E6%9C%8D%E5%8A%A1%E4%B8%AD%E5%BF%83&src=vetmap&coordinate=gaode&callnative=1","route_id":"r1","route_name":"第1段"},{"name":"源奕兽药门诊部","address":"启智小学北侧90米","phone":"","category":"医疗保健服务;动物医疗场所;兽医站","area":"","lng":114.458725,"lat":38.432125,"amap_id":"B0LRCHFKTG","order":11,"prev_distance_km":6.644,"cumulative_distance_km":8.989,"amap_marker_url":"https://uri.amap.com/marker?position=114.458725,38.432125&name=%E6%BA%90%E5%A5%95%E5%85%BD%E8%8D%AF%E9%97%A8%E8%AF%8A%E9%83%A8&src=vetmap&coordinate=gaode&callnative=1","route_id":"r1","route_name":"第1段"},{"name":"行唐县禽畜防治处","address":"启智小学西北侧200米","phone":"13833152241;19933049667","category":"医疗保健服务;动物医疗场所;兽医站","area":"","lng":114.456678,"lat":38.432341,"amap_id":"B0G0LOL9CI","order":12,"prev_distance_km":0.18,"cumulative_distance_km":9.169,"amap_marker_url":"https://uri.amap.com/marker?position=114.456678,38.432341&name=%E8%A1%8C%E5%94%90%E5%8E%BF%E7%A6%BD%E7%95%9C%E9%98%B2%E6%B2%BB%E5%A4%84&src=vetmap&coordinate=gaode&callnative=1","route_id":"r1","route_name":"第1段"},{"name":"志刚畜牧店","address":"320县道与临镇街交叉口西300米","phone":"","category":"医疗保健服务;动物医疗场所;动物医疗场所","area":"","lng":114.455425,"lat":38.485275,"amap_id":"B0LBLLPUVZ","order":13,"prev_distance_km":5.887,"cumulative_distance_km":15.056,"amap_marker_url":"https://uri.amap.com/marker?position=114.455425,38.485275&name=%E5%BF%97%E5%88%9A%E7%95%9C%E7%89%A7%E5%BA%97&src=vetmap&coordinate=gaode&callnative=1","route_id":"r1","route_name":"第1段"},{"name":"玉亭乡兽医站","address":"009县道与西南路交叉口北60米","phone":"13513371812","category":"医疗保健服务;动物医疗场所;兽医站","area":"","lng":114.517684,"lat":38.533412,"amap_id":"B0FFJGDUPW","order":14,"prev_distance_km":7.616,"cumulative_distance_km":22.671,"amap_marker_url":"https://uri.amap.com/marker?position=114.517684,38.533412&name=%E7%8E%89%E4%BA%AD%E4%B9%A1%E5%85%BD%E5%8C%BB%E7%AB%99&src=vetmap&coordinate=gaode&callnative=1","route_id":"r1","route_name":"第1段"},{"name":"南桥镇兽医站","address":"南桥村向阳街","phone":"13930133681","category":"医疗保健服务;动物医疗场所;兽医站","area":"","lng":114.570633,"lat":38.518575,"amap_id":"B0FFJH9L1T","order":15,"prev_distance_km":4.893,"cumulative_distance_km":27.564,"amap_marker_url":"https://uri.amap.com/marker?position=114.570633,38.518575&name=%E5%8D%97%E6%A1%A5%E9%95%87%E5%85%BD%E5%8C%BB%E7%AB%99&src=vetmap&coordinate=gaode&callnative=1","route_id":"r1","route_name":"第1段"},{"name":"贾庄畜牧兽医站","address":"602乡道与幸福大街交叉口东40米","phone":"15933628298","category":"医疗保健服务;动物医疗场所;兽医站","area":"","lng":114.625405,"lat":38.478239,"amap_id":"B0FFHFEV50","order":16,"prev_distance_km":6.545,"cumulative_distance_km":34.109,"amap_marker_url":"https://uri.amap.com/marker?position=114.625405,38.478239&name=%E8%B4%BE%E5%BA%84%E7%95%9C%E7%89%A7%E5%85%BD%E5%8C%BB%E7%AB%99&src=vetmap&coordinate=gaode&callnative=1","route_id":"r1","route_name":"第1段"}]}],"rows":[{"name":"博爱宠物医院","address":"恒阳大街与永昌南路交叉口西北80米","phone":"18032140158","category":"医疗保健服务;动物医疗场所;宠物诊所","area":"","lng":114.559219,"lat":38.43295,"amap_id":"B0KBOLIB44","order":1,"prev_distance_km":0.0,"cumulative_distance_km":0.0,"amap_marker_url":"https://uri.amap.com/marker?position=114.559219,38.432950&name=%E5%8D%9A%E7%88%B1%E5%AE%A0%E7%89%A9%E5%8C%BB%E9%99%A2&src=vetmap&coordinate=gaode&callnative=1","route_id":"r1","route_name":"第1段","global_order":1},{"name":"兴唐兽医门诊","address":"衡阳大街413号大众面馆东边","phone":"13832352451","category":"医疗保健服务;动物医疗场所;兽医站","area":"","lng":114.558769,"lat":38.432561,"amap_id":"B01370SVQ4","order":2,"prev_distance_km":0.058,"cumulative_distance_km":0.058,"amap_marker_url":"https://uri.amap.com/marker?position=114.558769,38.432561&name=%E5%85%B4%E5%94%90%E5%85%BD%E5%8C%BB%E9%97%A8%E8%AF%8A&src=vetmap&coordinate=gaode&callnative=1","route_id":"r1","route_name":"第1段","global_order":2},{"name":"行唐县动物疾病诊疗中心","address":"恒阳大街与幸福南路交叉口东80米","phone":"13582365139","category":"医疗保健服务;动物医疗场所;兽医站","area":"","lng":114.556976,"lat":38.432397,"amap_id":"B0JK9XFWQT","order":3,"prev_distance_km":0.157,"cumulative_distance_km":0.216,"amap_marker_url":"https://uri.amap.com/marker?position=114.556976,38.432397&name=%E8%A1%8C%E5%94%90%E5%8E%BF%E5%8A%A8%E7%89%A9%E7%96%BE%E7%97%85%E8%AF%8A%E7%96%97%E4%B8%AD%E5%BF%83&src=vetmap&coordinate=gaode&callnative=1","route_id":"r1","route_name":"第1段","global_order":3},{"name":"张立平兽药门诊","address":"龙州镇衡阳大街南马路109号","phone":"13832130428","category":"医疗保健服务;动物医疗场所;兽医站","area":"","lng":114.549304,"lat":38.432177,"amap_id":"B0FFFE5DLX","order":4,"prev_distance_km":0.669,"cumulative_distance_km":0.884,"amap_marker_url":"https://uri.amap.com/marker?position=114.549304,38.432177&name=%E5%BC%A0%E7%AB%8B%E5%B9%B3%E5%85%BD%E8%8D%AF%E9%97%A8%E8%AF%8A&src=vetmap&coordinate=gaode&callnative=1","route_id":"r1","route_name":"第1段","global_order":4},{"name":"张国翠兽药门诊","address":"恒阳大街与西关南路交叉口西80米","phone":"13513317026","category":"医疗保健服务;动物医疗场所;兽医站","area":"","lng":114.548939,"lat":38.432234,"amap_id":"B0FFGDGEUA","order":5,"prev_distance_km":0.032,"cumulative_distance_km":0.917,"amap_marker_url":"https://uri.amap.com/marker?position=114.548939,38.432234&name=%E5%BC%A0%E5%9B%BD%E7%BF%A0%E5%85%BD%E8%8D%AF%E9%97%A8%E8%AF%8A&src=vetmap&coordinate=gaode&callnative=1","route_id":"r1","route_name":"第1段","global_order":5},{"name":"坤鹏宠物诊所","address":"南马路恒阳大街妇幼保健院正对面","phone":"13933847087","category":"医疗保健服务;动物医疗场所;宠物诊所","area":"","lng":114.544429,"lat":38.433182,"amap_id":"B0FFJH9F8U","order":6,"prev_distance_km":0.407,"cumulative_distance_km":1.323,"amap_marker_url":"https://uri.amap.com/marker?position=114.544429,38.433182&name=%E5%9D%A4%E9%B9%8F%E5%AE%A0%E7%89%A9%E8%AF%8A%E6%89%80&src=vetmap&coordinate=gaode&callnative=1","route_id":"r1","route_name":"第1段","global_order":6},{"name":"福悦兽药门诊","address":"龙州镇妇幼院对过","phone":"13011594907","category":"医疗保健服务;动物医疗场所;兽医站","area":"","lng":114.544311,"lat":38.433729,"amap_id":"B0FFHC8PBY","order":7,"prev_distance_km":0.062,"cumulative_distance_km":1.385,"amap_marker_url":"https://uri.amap.com/marker?position=114.544311,38.433729&name=%E7%A6%8F%E6%82%A6%E5%85%BD%E8%8D%AF%E9%97%A8%E8%AF%8A&src=vetmap&coordinate=gaode&callnative=1","route_id":"r1","route_name":"第1段","global_order":7},{"name":"行唐县动物疫病预防控制中心","address":"龙州镇","phone":"","category":"医疗保健服务;动物医疗场所;动物医疗场所","area":"","lng":114.542811,"lat":38.434593,"amap_id":"B0FFFE4HDA","order":8,"prev_distance_km":0.162,"cumulative_distance_km":1.547,"amap_marker_url":"https://uri.amap.com/marker?position=114.542811,38.434593&name=%E8%A1%8C%E5%94%90%E5%8E%BF%E5%8A%A8%E7%89%A9%E7%96%AB%E7%97%85%E9%A2%84%E9%98%B2%E6%8E%A7%E5%88%B6%E4%B8%AD%E5%BF%83&src=vetmap&coordinate=gaode&callnative=1","route_id":"r1","route_name":"第1段","global_order":8},{"name":"关爱宠物诊所","address":"龙州镇章武路第一运输公司楼下2-3号","phone":"13803347289","category":"医疗保健服务;动物医疗场所;宠物诊所","area":"","lng":114.542806,"lat":38.435257,"amap_id":"B0FFH27PFX","order":9,"prev_distance_km":0.074,"cumulative_distance_km":1.621,"amap_marker_url":"https://uri.amap.com/marker?position=114.542806,38.435257&name=%E5%85%B3%E7%88%B1%E5%AE%A0%E7%89%A9%E8%AF%8A%E6%89%80&src=vetmap&coordinate=gaode&callnative=1","route_id":"r1","route_name":"第1段","global_order":9},{"name":"智农牧联畜牧服务中心","address":"行唐县公安局交通管理大队事故处理科东侧150米","phone":"","category":"医疗保健服务;动物医疗场所;兽医站","area":"","lng":114.534995,"lat":38.433047,"amap_id":"B0K63HR3KQ","order":10,"prev_distance_km":0.723,"cumulative_distance_km":2.345,"amap_marker_url":"https://uri.amap.com/marker?position=114.534995,38.433047&name=%E6%99%BA%E5%86%9C%E7%89%A7%E8%81%94%E7%95%9C%E7%89%A7%E6%9C%8D%E5%8A%A1%E4%B8%AD%E5%BF%83&src=vetmap&coordinate=gaode&callnative=1","route_id":"r1","route_name":"第1段","global_order":10},{"name":"源奕兽药门诊部","address":"启智小学北侧90米","phone":"","category":"医疗保健服务;动物医疗场所;兽医站","area":"","lng":114.458725,"lat":38.432125,"amap_id":"B0LRCHFKTG","order":11,"prev_distance_km":6.644,"cumulative_distance_km":8.989,"amap_marker_url":"https://uri.amap.com/marker?position=114.458725,38.432125&name=%E6%BA%90%E5%A5%95%E5%85%BD%E8%8D%AF%E9%97%A8%E8%AF%8A%E9%83%A8&src=vetmap&coordinate=gaode&callnative=1","route_id":"r1","route_name":"第1段","global_order":11},{"name":"行唐县禽畜防治处","address":"启智小学西北侧200米","phone":"13833152241;19933049667","category":"医疗保健服务;动物医疗场所;兽医站","area":"","lng":114.456678,"lat":38.432341,"amap_id":"B0G0LOL9CI","order":12,"prev_distance_km":0.18,"cumulative_distance_km":9.169,"amap_marker_url":"https://uri.amap.com/marker?position=114.456678,38.432341&name=%E8%A1%8C%E5%94%90%E5%8E%BF%E7%A6%BD%E7%95%9C%E9%98%B2%E6%B2%BB%E5%A4%84&src=vetmap&coordinate=gaode&callnative=1","route_id":"r1","route_name":"第1段","global_order":12},{"name":"志刚畜牧店","address":"320县道与临镇街交叉口西300米","phone":"","category":"医疗保健服务;动物医疗场所;动物医疗场所","area":"","lng":114.455425,"lat":38.485275,"amap_id":"B0LBLLPUVZ","order":13,"prev_distance_km":5.887,"cumulative_distance_km":15.056,"amap_marker_url":"https://uri.amap.com/marker?position=114.455425,38.485275&name=%E5%BF%97%E5%88%9A%E7%95%9C%E7%89%A7%E5%BA%97&src=vetmap&coordinate=gaode&callnative=1","route_id":"r1","route_name":"第1段","global_order":13},{"name":"玉亭乡兽医站","address":"009县道与西南路交叉口北60米","phone":"13513371812","category":"医疗保健服务;动物医疗场所;兽医站","area":"","lng":114.517684,"lat":38.533412,"amap_id":"B0FFJGDUPW","order":14,"prev_distance_km":7.616,"cumulative_distance_km":22.671,"amap_marker_url":"https://uri.amap.com/marker?position=114.517684,38.533412&name=%E7%8E%89%E4%BA%AD%E4%B9%A1%E5%85%BD%E5%8C%BB%E7%AB%99&src=vetmap&coordinate=gaode&callnative=1","route_id":"r1","route_name":"第1段","global_order":14},{"name":"南桥镇兽医站","address":"南桥村向阳街","phone":"13930133681","category":"医疗保健服务;动物医疗场所;兽医站","area":"","lng":114.570633,"lat":38.518575,"amap_id":"B0FFJH9L1T","order":15,"prev_distance_km":4.893,"cumulative_distance_km":27.564,"amap_marker_url":"https://uri.amap.com/marker?position=114.570633,38.518575&name=%E5%8D%97%E6%A1%A5%E9%95%87%E5%85%BD%E5%8C%BB%E7%AB%99&src=vetmap&coordinate=gaode&callnative=1","route_id":"r1","route_name":"第1段","global_order":15},{"name":"贾庄畜牧兽医站","address":"602乡道与幸福大街交叉口东40米","phone":"15933628298","category":"医疗保健服务;动物医疗场所;兽医站","area":"","lng":114.625405,"lat":38.478239,"amap_id":"B0FFHFEV50","order":16,"prev_distance_km":6.545,"cumulative_distance_km":34.109,"amap_marker_url":"https://uri.amap.com/marker?position=114.625405,38.478239&name=%E8%B4%BE%E5%BA%84%E7%95%9C%E7%89%A7%E5%85%BD%E5%8C%BB%E7%AB%99&src=vetmap&coordinate=gaode&callnative=1","route_id":"r1","route_name":"第1段","global_order":16}]}