{"summary":{"id":"d01004","province":"河北省","city":"唐山市","district":"迁安市","count":24,"route_count":1,"max_route_clinics":24,"total_distance_km":85.507,"coordinate_system":"GCJ-02 / Amap","generated_at":"2026-05-07 21:29:18"},"routes":[{"id":"r1","name":"第1段","count":24,"total_distance_km":85.507,"rows":[{"name":"宠物家畜门诊","address":"杨店子街道滨河大街路北金水湾翠芝宠物家畜门诊","phone":"13171510566","category":"医疗保健服务;动物医疗场所;宠物诊所","area":"","lng":118.565287,"lat":39.99332,"amap_id":"B0FFHM14DU","order":1,"prev_distance_km":0.0,"cumulative_distance_km":0.0,"amap_marker_url":"https://uri.amap.com/marker?position=118.565287,39.993320&name=%E5%AE%A0%E7%89%A9%E5%AE%B6%E7%95%9C%E9%97%A8%E8%AF%8A&src=vetmap&coordinate=gaode&callnative=1","route_id":"r1","route_name":"第1段"},{"name":"开心宠物诊所(世茂广场店)","address":"世茂广场建行西行拐弯德邦快递隔壁","phone":"15333257289","category":"医疗保健服务;动物医疗场所;宠物诊所","area":"","lng":118.585996,"lat":39.991741,"amap_id":"B0FFFZJSSZ","order":2,"prev_distance_km":1.773,"cumulative_distance_km":1.773,"amap_marker_url":"https://uri.amap.com/marker?position=118.585996,39.991741&name=%E5%BC%80%E5%BF%83%E5%AE%A0%E7%89%A9%E8%AF%8A%E6%89%80%28%E4%B8%96%E8%8C%82%E5%B9%BF%E5%9C%BA%E5%BA%97%29&src=vetmap&coordinate=gaode&callnative=1","route_id":"r1","route_name":"第1段"},{"name":"亲亲宝贝宠物诊所","address":"兴安大街安顺家园(永顺街)","phone":"15231596392","category":"医疗保健服务;动物医疗场所;宠物诊所","area":"","lng":118.688532,"lat":40.014,"amap_id":"B0FFGA1WHA","order":3,"prev_distance_km":9.078,"cumulative_distance_km":10.851,"amap_marker_url":"https://uri.amap.com/marker?position=118.688532,40.014000&name=%E4%BA%B2%E4%BA%B2%E5%AE%9D%E8%B4%9D%E5%AE%A0%E7%89%A9%E8%AF%8A%E6%89%80&src=vetmap&coordinate=gaode&callnative=1","route_id":"r1","route_name":"第1段"},{"name":"宠贝康动物诊所","address":"永顺街与阜安大路交叉口东80米","phone":"15175507122","category":"医疗保健服务;动物医疗场所;宠物诊所","area":"","lng":118.691005,"lat":40.011306,"amap_id":"B0FFIS4AVS","order":4,"prev_distance_km":0.366,"cumulative_distance_km":11.217,"amap_marker_url":"https://uri.amap.com/marker?position=118.691005,40.011306&name=%E5%AE%A0%E8%B4%9D%E5%BA%B7%E5%8A%A8%E7%89%A9%E8%AF%8A%E6%89%80&src=vetmap&coordinate=gaode&callnative=1","route_id":"r1","route_name":"第1段"},{"name":"叮当猫宠物医院","address":"阜安大路与惠宁大街交叉口北180米","phone":"13315577878;18332667776","category":"医疗保健服务;动物医疗场所;宠物诊所","area":"","lng":118.689346,"lat":40.009462,"amap_id":"B0JDAZ2W12","order":5,"prev_distance_km":0.249,"cumulative_distance_km":11.466,"amap_marker_url":"https://uri.amap.com/marker?position=118.689346,40.009462&name=%E5%8F%AE%E5%BD%93%E7%8C%AB%E5%AE%A0%E7%89%A9%E5%8C%BB%E9%99%A2&src=vetmap&coordinate=gaode&callnative=1","route_id":"r1","route_name":"第1段"},{"name":"小精灵宠物诊所(惠泉大街)","address":"惠泉大街198号","phone":"13623150290","category":"医疗保健服务;动物医疗场所;宠物诊所","area":"","lng":118.694105,"lat":40.00161,"amap_id":"B0FFHU9JXR","order":6,"prev_distance_km":0.963,"cumulative_distance_km":12.428,"amap_marker_url":"https://uri.amap.com/marker?position=118.694105,40.001610&name=%E5%B0%8F%E7%B2%BE%E7%81%B5%E5%AE%A0%E7%89%A9%E8%AF%8A%E6%89%80%28%E6%83%A0%E6%B3%89%E5%A4%A7%E8%A1%97%29&src=vetmap&coordinate=gaode&callnative=1","route_id":"r1","route_name":"第1段"},{"name":"友爱宠物美容部","address":"迁安镇大三元街9号","phone":"0315-5356250;15903256377","category":"医疗保健服务;动物医疗场所;宠物诊所","area":"","lng":118.699555,"lat":40.00299,"amap_id":"B0FFHU9N5E","order":7,"prev_distance_km":0.489,"cumulative_distance_km":12.917,"amap_marker_url":"https://uri.amap.com/marker?position=118.699555,40.002990&name=%E5%8F%8B%E7%88%B1%E5%AE%A0%E7%89%A9%E7%BE%8E%E5%AE%B9%E9%83%A8&src=vetmap&coordinate=gaode&callnative=1","route_id":"r1","route_name":"第1段"},{"name":"迁安市宠物医院","address":"丰喜路539号","phone":"13315577878","category":"医疗保健服务;动物医疗场所;宠物诊所","area":"","lng":118.709362,"lat":39.995776,"amap_id":"B0FFM88CJF","order":8,"prev_distance_km":1.158,"cumulative_distance_km":14.075,"amap_marker_url":"https://uri.amap.com/marker?position=118.709362,39.995776&name=%E8%BF%81%E5%AE%89%E5%B8%82%E5%AE%A0%E7%89%A9%E5%8C%BB%E9%99%A2&src=vetmap&coordinate=gaode&callnative=1","route_id":"r1","route_name":"第1段"},{"name":"众宠动物诊所","address":"永固油井住宅小区南门旁","phone":"15075538793;18032528120","category":"医疗保健服务;动物医疗场所;宠物诊所","area":"","lng":118.70205,"lat":40.008203,"amap_id":"B013B0S17L","order":9,"prev_distance_km":1.516,"cumulative_distance_km":15.591,"amap_marker_url":"https://uri.amap.com/marker?position=118.702050,40.008203&name=%E4%BC%97%E5%AE%A0%E5%8A%A8%E7%89%A9%E8%AF%8A%E6%89%80&src=vetmap&coordinate=gaode&callnative=1","route_id":"r1","route_name":"第1段"},{"name":"私房猫宠宠物诊所(猫专科)","address":"丰乐大路与明珠街交叉口南80米","phone":"17796990520","category":"医疗保健服务;动物医疗场所;宠物诊所","area":"","lng":118.712061,"lat":40.010864,"amap_id":"B0I6LR5SE6","order":10,"prev_distance_km":0.903,"cumulative_distance_km":16.494,"amap_marker_url":"https://uri.amap.com/marker?position=118.712061,40.010864&name=%E7%A7%81%E6%88%BF%E7%8C%AB%E5%AE%A0%E5%AE%A0%E7%89%A9%E8%AF%8A%E6%89%80%28%E7%8C%AB%E4%B8%93%E7%A7%91%29&src=vetmap&coordinate=gaode&callnative=1","route_id":"r1","route_name":"第1段"},{"name":"迁安市畜牧兽医技术服务中心","address":"丰乐大路与兴安大街交叉口北120米","phone":"","category":"医疗保健服务;动物医疗场所;动物医疗场所","area":"","lng":118.711543,"lat":40.016321,"amap_id":"B0FFH1WQP8","order":11,"prev_distance_km":0.608,"cumulative_distance_km":17.102,"amap_marker_url":"https://uri.amap.com/marker?position=118.711543,40.016321&name=%E8%BF%81%E5%AE%89%E5%B8%82%E7%95%9C%E7%89%A7%E5%85%BD%E5%8C%BB%E6%8A%80%E6%9C%AF%E6%9C%8D%E5%8A%A1%E4%B8%AD%E5%BF%83&src=vetmap&coordinate=gaode&callnative=1","route_id":"r1","route_name":"第1段"},{"name":"迁安市宠物医院","address":"丰乐路465号","phone":"0315-5672160;15075597839","category":"医疗保健服务;动物医疗场所;宠物诊所","area":"","lng":118.711662,"lat":40.016449,"amap_id":"B0FFIRTT2Q","order":12,"prev_distance_km":0.017,"cumulative_distance_km":17.119,"amap_marker_url":"https://uri.amap.com/marker?position=118.711662,40.016449&name=%E8%BF%81%E5%AE%89%E5%B8%82%E5%AE%A0%E7%89%A9%E5%8C%BB%E9%99%A2&src=vetmap&coordinate=gaode&callnative=1","route_id":"r1","route_name":"第1段"},{"name":"北关村动物防疫站","address":"花园街与燕山大路交叉口西260米","phone":"","category":"医疗保健服务;动物医疗场所;动物医疗场所","area":"","lng":118.701575,"lat":40.018325,"amap_id":"B0L16ZR6AH","order":13,"prev_distance_km":0.884,"cumulative_distance_km":18.003,"amap_marker_url":"https://uri.amap.com/marker?position=118.701575,40.018325&name=%E5%8C%97%E5%85%B3%E6%9D%91%E5%8A%A8%E7%89%A9%E9%98%B2%E7%96%AB%E7%AB%99&src=vetmap&coordinate=gaode&callnative=1","route_id":"r1","route_name":"第1段"},{"name":"翰林阁宠物医院·24H·骨科·危重症(迁安分院)","address":"长城大路149号","phone":"13191752120","category":"医疗保健服务;动物医疗场所;宠物诊所","area":"","lng":118.723156,"lat":40.026828,"amap_id":"B0LDH1JXGJ","order":14,"prev_distance_km":2.067,"cumulative_distance_km":20.07,"amap_marker_url":"https://uri.amap.com/marker?position=118.723156,40.026828&name=%E7%BF%B0%E6%9E%97%E9%98%81%E5%AE%A0%E7%89%A9%E5%8C%BB%E9%99%A2%C2%B724H%C2%B7%E9%AA%A8%E7%A7%91%C2%B7%E5%8D%B1%E9%87%8D%E7%97%87%28%E8%BF%81%E5%AE%89%E5%88%86%E9%99%A2%29&src=vetmap&coordinate=gaode&callnative=1","route_id":"r1","route_name":"第1段"},{"name":"潘营畜牧兽医站","address":"潘营村240号","phone":"","category":"医疗保健服务;动物医疗场所;兽医站","area":"","lng":118.667726,"lat":40.07709,"amap_id":"B0LGBM0X79","order":15,"prev_distance_km":7.314,"cumulative_distance_km":27.384,"amap_marker_url":"https://uri.amap.com/marker?position=118.667726,40.077090&name=%E6%BD%98%E8%90%A5%E7%95%9C%E7%89%A7%E5%85%BD%E5%8C%BB%E7%AB%99&src=vetmap&coordinate=gaode&callnative=1","route_id":"r1","route_name":"第1段"},{"name":"迁安市潘营动物防疫站","address":"博帆口腔东侧160米","phone":"13180429555","category":"医疗保健服务;动物医疗场所;兽医站","area":"","lng":118.667764,"lat":40.077195,"amap_id":"B0LGNXW1J6","order":16,"prev_distance_km":0.012,"cumulative_distance_km":27.396,"amap_marker_url":"https://uri.amap.com/marker?position=118.667764,40.077195&name=%E8%BF%81%E5%AE%89%E5%B8%82%E6%BD%98%E8%90%A5%E5%8A%A8%E7%89%A9%E9%98%B2%E7%96%AB%E7%AB%99&src=vetmap&coordinate=gaode&callnative=1","route_id":"r1","route_name":"第1段"},{"name":"迁安市闫家店乡畜牧兽医中心站","address":"闫家店乡","phone":"","category":"医疗保健服务;动物医疗场所;兽医站","area":"","lng":118.696064,"lat":40.115774,"amap_id":"B013B0QNK6","order":17,"prev_distance_km":4.919,"cumulative_distance_km":32.315,"amap_marker_url":"https://uri.amap.com/marker?position=118.696064,40.115774&name=%E8%BF%81%E5%AE%89%E5%B8%82%E9%97%AB%E5%AE%B6%E5%BA%97%E4%B9%A1%E7%95%9C%E7%89%A7%E5%85%BD%E5%8C%BB%E4%B8%AD%E5%BF%83%E7%AB%99&src=vetmap&coordinate=gaode&callnative=1","route_id":"r1","route_name":"第1段"},{"name":"迁安市上庄乡上庄兽医站","address":"252省道附近","phone":"","category":"医疗保健服务;动物医疗场所;兽医站","area":"","lng":118.754258,"lat":40.087329,"amap_id":"B0H335SHN6","order":18,"prev_distance_km":5.874,"cumulative_distance_km":38.189,"amap_marker_url":"https://uri.amap.com/marker?position=118.754258,40.087329&name=%E8%BF%81%E5%AE%89%E5%B8%82%E4%B8%8A%E5%BA%84%E4%B9%A1%E4%B8%8A%E5%BA%84%E5%85%BD%E5%8C%BB%E7%AB%99&src=vetmap&coordinate=gaode&callnative=1","route_id":"r1","route_name":"第1段"},{"name":"建昌营镇兽医站","address":"建昌营镇","phone":"","category":"医疗保健服务;动物医疗场所;兽医站","area":"","lng":118.795506,"lat":40.145579,"amap_id":"B0FFHE8THA","order":19,"prev_distance_km":7.366,"cumulative_distance_km":45.555,"amap_marker_url":"https://uri.amap.com/marker?position=118.795506,40.145579&name=%E5%BB%BA%E6%98%8C%E8%90%A5%E9%95%87%E5%85%BD%E5%8C%BB%E7%AB%99&src=vetmap&coordinate=gaode&callnative=1","route_id":"r1","route_name":"第1段"},{"name":"三宝兽药店","address":"平青乐线与福田街交叉口西南100米","phone":"13014320368","category":"医疗保健服务;动物医疗场所;动物医疗场所","area":"","lng":118.817999,"lat":40.143115,"amap_id":"B0H3ON1IHQ","order":20,"prev_distance_km":1.931,"cumulative_distance_km":47.486,"amap_marker_url":"https://uri.amap.com/marker?position=118.817999,40.143115&name=%E4%B8%89%E5%AE%9D%E5%85%BD%E8%8D%AF%E5%BA%97&src=vetmap&coordinate=gaode&callnative=1","route_id":"r1","route_name":"第1段"},{"name":"杨各庄镇畜牧兽医站","address":"杨各庄镇人民政府南门西南60米","phone":"15033465254;18712809606","category":"医疗保健服务;动物医疗场所;兽医站","area":"","lng":118.871135,"lat":40.089923,"amap_id":"B013B0QAJS","order":21,"prev_distance_km":7.443,"cumulative_distance_km":54.93,"amap_marker_url":"https://uri.amap.com/marker?position=118.871135,40.089923&name=%E6%9D%A8%E5%90%84%E5%BA%84%E9%95%87%E7%95%9C%E7%89%A7%E5%85%BD%E5%8C%BB%E7%AB%99&src=vetmap&coordinate=gaode&callnative=1","route_id":"r1","route_name":"第1段"},{"name":"迁安市动物卫生监督所杨各庄分所","address":"迁徐线杨各庄镇政府西南","phone":"","category":"医疗保健服务;动物医疗场所;动物医疗场所","area":"","lng":118.871105,"lat":40.089877,"amap_id":"B013B04JHV","order":22,"prev_distance_km":0.006,"cumulative_distance_km":54.935,"amap_marker_url":"https://uri.amap.com/marker?position=118.871105,40.089877&name=%E8%BF%81%E5%AE%89%E5%B8%82%E5%8A%A8%E7%89%A9%E5%8D%AB%E7%94%9F%E7%9B%91%E7%9D%A3%E6%89%80%E6%9D%A8%E5%90%84%E5%BA%84%E5%88%86%E6%89%80&src=vetmap&coordinate=gaode&callnative=1","route_id":"r1","route_name":"第1段"},{"name":"夏官营镇畜牧兽医站","address":"夏官营中心卫生院西北侧160米","phone":"","category":"医疗保健服务;动物医疗场所;兽医站","area":"","lng":118.80846,"lat":39.975282,"amap_id":"B0J211H884","order":23,"prev_distance_km":13.814,"cumulative_distance_km":68.749,"amap_marker_url":"https://uri.amap.com/marker?position=118.808460,39.975282&name=%E5%A4%8F%E5%AE%98%E8%90%A5%E9%95%87%E7%95%9C%E7%89%A7%E5%85%BD%E5%8C%BB%E7%AB%99&src=vetmap&coordinate=gaode&callnative=1","route_id":"r1","route_name":"第1段"},{"name":"中国动物防疫","address":"102国道与617县道交叉口东140米","phone":"","category":"医疗保健服务;动物医疗场所;动物医疗场所","area":"","lng":118.673559,"lat":39.865695,"amap_id":"B0FFFZ390K","order":24,"prev_distance_km":16.758,"cumulative_distance_km":85.507,"amap_marker_url":"https://uri.amap.com/marker?position=118.673559,39.865695&name=%E4%B8%AD%E5%9B%BD%E5%8A%A8%E7%89%A9%E9%98%B2%E7%96%AB&src=vetmap&coordinate=gaode&callnative=1","route_id":"r1","route_name":"第1段"}]}],"rows":[{"name":"宠物家畜门诊","address":"杨店子街道滨河大街路北金水湾翠芝宠物家畜门诊","phone":"13171510566","category":"医疗保健服务;动物医疗场所;宠物诊所","area":"","lng":118.565287,"lat":39.99332,"amap_id":"B0FFHM14DU","order":1,"prev_distance_km":0.0,"cumulative_distance_km":0.0,"amap_marker_url":"https://uri.amap.com/marker?position=118.565287,39.993320&name=%E5%AE%A0%E7%89%A9%E5%AE%B6%E7%95%9C%E9%97%A8%E8%AF%8A&src=vetmap&coordinate=gaode&callnative=1","route_id":"r1","route_name":"第1段","global_order":1},{"name":"开心宠物诊所(世茂广场店)","address":"世茂广场建行西行拐弯德邦快递隔壁","phone":"15333257289","category":"医疗保健服务;动物医疗场所;宠物诊所","area":"","lng":118.585996,"lat":39.991741,"amap_id":"B0FFFZJSSZ","order":2,"prev_distance_km":1.773,"cumulative_distance_km":1.773,"amap_marker_url":"https://uri.amap.com/marker?position=118.585996,39.991741&name=%E5%BC%80%E5%BF%83%E5%AE%A0%E7%89%A9%E8%AF%8A%E6%89%80%28%E4%B8%96%E8%8C%82%E5%B9%BF%E5%9C%BA%E5%BA%97%29&src=vetmap&coordinate=gaode&callnative=1","route_id":"r1","route_name":"第1段","global_order":2},{"name":"亲亲宝贝宠物诊所","address":"兴安大街安顺家园(永顺街)","phone":"15231596392","category":"医疗保健服务;动物医疗场所;宠物诊所","area":"","lng":118.688532,"lat":40.014,"amap_id":"B0FFGA1WHA","order":3,"prev_distance_km":9.078,"cumulative_distance_km":10.851,"amap_marker_url":"https://uri.amap.com/marker?position=118.688532,40.014000&name=%E4%BA%B2%E4%BA%B2%E5%AE%9D%E8%B4%9D%E5%AE%A0%E7%89%A9%E8%AF%8A%E6%89%80&src=vetmap&coordinate=gaode&callnative=1","route_id":"r1","route_name":"第1段","global_order":3},{"name":"宠贝康动物诊所","address":"永顺街与阜安大路交叉口东80米","phone":"15175507122","category":"医疗保健服务;动物医疗场所;宠物诊所","area":"","lng":118.691005,"lat":40.011306,"amap_id":"B0FFIS4AVS","order":4,"prev_distance_km":0.366,"cumulative_distance_km":11.217,"amap_marker_url":"https://uri.amap.com/marker?position=118.691005,40.011306&name=%E5%AE%A0%E8%B4%9D%E5%BA%B7%E5%8A%A8%E7%89%A9%E8%AF%8A%E6%89%80&src=vetmap&coordinate=gaode&callnative=1","route_id":"r1","route_name":"第1段","global_order":4},{"name":"叮当猫宠物医院","address":"阜安大路与惠宁大街交叉口北180米","phone":"13315577878;18332667776","category":"医疗保健服务;动物医疗场所;宠物诊所","area":"","lng":118.689346,"lat":40.009462,"amap_id":"B0JDAZ2W12","order":5,"prev_distance_km":0.249,"cumulative_distance_km":11.466,"amap_marker_url":"https://uri.amap.com/marker?position=118.689346,40.009462&name=%E5%8F%AE%E5%BD%93%E7%8C%AB%E5%AE%A0%E7%89%A9%E5%8C%BB%E9%99%A2&src=vetmap&coordinate=gaode&callnative=1","route_id":"r1","route_name":"第1段","global_order":5},{"name":"小精灵宠物诊所(惠泉大街)","address":"惠泉大街198号","phone":"13623150290","category":"医疗保健服务;动物医疗场所;宠物诊所","area":"","lng":118.694105,"lat":40.00161,"amap_id":"B0FFHU9JXR","order":6,"prev_distance_km":0.963,"cumulative_distance_km":12.428,"amap_marker_url":"https://uri.amap.com/marker?position=118.694105,40.001610&name=%E5%B0%8F%E7%B2%BE%E7%81%B5%E5%AE%A0%E7%89%A9%E8%AF%8A%E6%89%80%28%E6%83%A0%E6%B3%89%E5%A4%A7%E8%A1%97%29&src=vetmap&coordinate=gaode&callnative=1","route_id":"r1","route_name":"第1段","global_order":6},{"name":"友爱宠物美容部","address":"迁安镇大三元街9号","phone":"0315-5356250;15903256377","category":"医疗保健服务;动物医疗场所;宠物诊所","area":"","lng":118.699555,"lat":40.00299,"amap_id":"B0FFHU9N5E","order":7,"prev_distance_km":0.489,"cumulative_distance_km":12.917,"amap_marker_url":"https://uri.amap.com/marker?position=118.699555,40.002990&name=%E5%8F%8B%E7%88%B1%E5%AE%A0%E7%89%A9%E7%BE%8E%E5%AE%B9%E9%83%A8&src=vetmap&coordinate=gaode&callnative=1","route_id":"r1","route_name":"第1段","global_order":7},{"name":"迁安市宠物医院","address":"丰喜路539号","phone":"13315577878","category":"医疗保健服务;动物医疗场所;宠物诊所","area":"","lng":118.709362,"lat":39.995776,"amap_id":"B0FFM88CJF","order":8,"prev_distance_km":1.158,"cumulative_distance_km":14.075,"amap_marker_url":"https://uri.amap.com/marker?position=118.709362,39.995776&name=%E8%BF%81%E5%AE%89%E5%B8%82%E5%AE%A0%E7%89%A9%E5%8C%BB%E9%99%A2&src=vetmap&coordinate=gaode&callnative=1","route_id":"r1","route_name":"第1段","global_order":8},{"name":"众宠动物诊所","address":"永固油井住宅小区南门旁","phone":"15075538793;18032528120","category":"医疗保健服务;动物医疗场所;宠物诊所","area":"","lng":118.70205,"lat":40.008203,"amap_id":"B013B0S17L","order":9,"prev_distance_km":1.516,"cumulative_distance_km":15.591,"amap_marker_url":"https://uri.amap.com/marker?position=118.702050,40.008203&name=%E4%BC%97%E5%AE%A0%E5%8A%A8%E7%89%A9%E8%AF%8A%E6%89%80&src=vetmap&coordinate=gaode&callnative=1","route_id":"r1","route_name":"第1段","global_order":9},{"name":"私房猫宠宠物诊所(猫专科)","address":"丰乐大路与明珠街交叉口南80米","phone":"17796990520","category":"医疗保健服务;动物医疗场所;宠物诊所","area":"","lng":118.712061,"lat":40.010864,"amap_id":"B0I6LR5SE6","order":10,"prev_distance_km":0.903,"cumulative_distance_km":16.494,"amap_marker_url":"https://uri.amap.com/marker?position=118.712061,40.010864&name=%E7%A7%81%E6%88%BF%E7%8C%AB%E5%AE%A0%E5%AE%A0%E7%89%A9%E8%AF%8A%E6%89%80%28%E7%8C%AB%E4%B8%93%E7%A7%91%29&src=vetmap&coordinate=gaode&callnative=1","route_id":"r1","route_name":"第1段","global_order":10},{"name":"迁安市畜牧兽医技术服务中心","address":"丰乐大路与兴安大街交叉口北120米","phone":"","category":"医疗保健服务;动物医疗场所;动物医疗场所","area":"","lng":118.711543,"lat":40.016321,"amap_id":"B0FFH1WQP8","order":11,"prev_distance_km":0.608,"cumulative_distance_km":17.102,"amap_marker_url":"https://uri.amap.com/marker?position=118.711543,40.016321&name=%E8%BF%81%E5%AE%89%E5%B8%82%E7%95%9C%E7%89%A7%E5%85%BD%E5%8C%BB%E6%8A%80%E6%9C%AF%E6%9C%8D%E5%8A%A1%E4%B8%AD%E5%BF%83&src=vetmap&coordinate=gaode&callnative=1","route_id":"r1","route_name":"第1段","global_order":11},{"name":"迁安市宠物医院","address":"丰乐路465号","phone":"0315-5672160;15075597839","category":"医疗保健服务;动物医疗场所;宠物诊所","area":"","lng":118.711662,"lat":40.016449,"amap_id":"B0FFIRTT2Q","order":12,"prev_distance_km":0.017,"cumulative_distance_km":17.119,"amap_marker_url":"https://uri.amap.com/marker?position=118.711662,40.016449&name=%E8%BF%81%E5%AE%89%E5%B8%82%E5%AE%A0%E7%89%A9%E5%8C%BB%E9%99%A2&src=vetmap&coordinate=gaode&callnative=1","route_id":"r1","route_name":"第1段","global_order":12},{"name":"北关村动物防疫站","address":"花园街与燕山大路交叉口西260米","phone":"","category":"医疗保健服务;动物医疗场所;动物医疗场所","area":"","lng":118.701575,"lat":40.018325,"amap_id":"B0L16ZR6AH","order":13,"prev_distance_km":0.884,"cumulative_distance_km":18.003,"amap_marker_url":"https://uri.amap.com/marker?position=118.701575,40.018325&name=%E5%8C%97%E5%85%B3%E6%9D%91%E5%8A%A8%E7%89%A9%E9%98%B2%E7%96%AB%E7%AB%99&src=vetmap&coordinate=gaode&callnative=1","route_id":"r1","route_name":"第1段","global_order":13},{"name":"翰林阁宠物医院·24H·骨科·危重症(迁安分院)","address":"长城大路149号","phone":"13191752120","category":"医疗保健服务;动物医疗场所;宠物诊所","area":"","lng":118.723156,"lat":40.026828,"amap_id":"B0LDH1JXGJ","order":14,"prev_distance_km":2.067,"cumulative_distance_km":20.07,"amap_marker_url":"https://uri.amap.com/marker?position=118.723156,40.026828&name=%E7%BF%B0%E6%9E%97%E9%98%81%E5%AE%A0%E7%89%A9%E5%8C%BB%E9%99%A2%C2%B724H%C2%B7%E9%AA%A8%E7%A7%91%C2%B7%E5%8D%B1%E9%87%8D%E7%97%87%28%E8%BF%81%E5%AE%89%E5%88%86%E9%99%A2%29&src=vetmap&coordinate=gaode&callnative=1","route_id":"r1","route_name":"第1段","global_order":14},{"name":"潘营畜牧兽医站","address":"潘营村240号","phone":"","category":"医疗保健服务;动物医疗场所;兽医站","area":"","lng":118.667726,"lat":40.07709,"amap_id":"B0LGBM0X79","order":15,"prev_distance_km":7.314,"cumulative_distance_km":27.384,"amap_marker_url":"https://uri.amap.com/marker?position=118.667726,40.077090&name=%E6%BD%98%E8%90%A5%E7%95%9C%E7%89%A7%E5%85%BD%E5%8C%BB%E7%AB%99&src=vetmap&coordinate=gaode&callnative=1","route_id":"r1","route_name":"第1段","global_order":15},{"name":"迁安市潘营动物防疫站","address":"博帆口腔东侧160米","phone":"13180429555","category":"医疗保健服务;动物医疗场所;兽医站","area":"","lng":118.667764,"lat":40.077195,"amap_id":"B0LGNXW1J6","order":16,"prev_distance_km":0.012,"cumulative_distance_km":27.396,"amap_marker_url":"https://uri.amap.com/marker?position=118.667764,40.077195&name=%E8%BF%81%E5%AE%89%E5%B8%82%E6%BD%98%E8%90%A5%E5%8A%A8%E7%89%A9%E9%98%B2%E7%96%AB%E7%AB%99&src=vetmap&coordinate=gaode&callnative=1","route_id":"r1","route_name":"第1段","global_order":16},{"name":"迁安市闫家店乡畜牧兽医中心站","address":"闫家店乡","phone":"","category":"医疗保健服务;动物医疗场所;兽医站","area":"","lng":118.696064,"lat":40.115774,"amap_id":"B013B0QNK6","order":17,"prev_distance_km":4.919,"cumulative_distance_km":32.315,"amap_marker_url":"https://uri.amap.com/marker?position=118.696064,40.115774&name=%E8%BF%81%E5%AE%89%E5%B8%82%E9%97%AB%E5%AE%B6%E5%BA%97%E4%B9%A1%E7%95%9C%E7%89%A7%E5%85%BD%E5%8C%BB%E4%B8%AD%E5%BF%83%E7%AB%99&src=vetmap&coordinate=gaode&callnative=1","route_id":"r1","route_name":"第1段","global_order":17},{"name":"迁安市上庄乡上庄兽医站","address":"252省道附近","phone":"","category":"医疗保健服务;动物医疗场所;兽医站","area":"","lng":118.754258,"lat":40.087329,"amap_id":"B0H335SHN6","order":18,"prev_distance_km":5.874,"cumulative_distance_km":38.189,"amap_marker_url":"https://uri.amap.com/marker?position=118.754258,40.087329&name=%E8%BF%81%E5%AE%89%E5%B8%82%E4%B8%8A%E5%BA%84%E4%B9%A1%E4%B8%8A%E5%BA%84%E5%85%BD%E5%8C%BB%E7%AB%99&src=vetmap&coordinate=gaode&callnative=1","route_id":"r1","route_name":"第1段","global_order":18},{"name":"建昌营镇兽医站","address":"建昌营镇","phone":"","category":"医疗保健服务;动物医疗场所;兽医站","area":"","lng":118.795506,"lat":40.145579,"amap_id":"B0FFHE8THA","order":19,"prev_distance_km":7.366,"cumulative_distance_km":45.555,"amap_marker_url":"https://uri.amap.com/marker?position=118.795506,40.145579&name=%E5%BB%BA%E6%98%8C%E8%90%A5%E9%95%87%E5%85%BD%E5%8C%BB%E7%AB%99&src=vetmap&coordinate=gaode&callnative=1","route_id":"r1","route_name":"第1段","global_order":19},{"name":"三宝兽药店","address":"平青乐线与福田街交叉口西南100米","phone":"13014320368","category":"医疗保健服务;动物医疗场所;动物医疗场所","area":"","lng":118.817999,"lat":40.143115,"amap_id":"B0H3ON1IHQ","order":20,"prev_distance_km":1.931,"cumulative_distance_km":47.486,"amap_marker_url":"https://uri.amap.com/marker?position=118.817999,40.143115&name=%E4%B8%89%E5%AE%9D%E5%85%BD%E8%8D%AF%E5%BA%97&src=vetmap&coordinate=gaode&callnative=1","route_id":"r1","route_name":"第1段","global_order":20},{"name":"杨各庄镇畜牧兽医站","address":"杨各庄镇人民政府南门西南60米","phone":"15033465254;18712809606","category":"医疗保健服务;动物医疗场所;兽医站","area":"","lng":118.871135,"lat":40.089923,"amap_id":"B013B0QAJS","order":21,"prev_distance_km":7.443,"cumulative_distance_km":54.93,"amap_marker_url":"https://uri.amap.com/marker?position=118.871135,40.089923&name=%E6%9D%A8%E5%90%84%E5%BA%84%E9%95%87%E7%95%9C%E7%89%A7%E5%85%BD%E5%8C%BB%E7%AB%99&src=vetmap&coordinate=gaode&callnative=1","route_id":"r1","route_name":"第1段","global_order":21},{"name":"迁安市动物卫生监督所杨各庄分所","address":"迁徐线杨各庄镇政府西南","phone":"","category":"医疗保健服务;动物医疗场所;动物医疗场所","area":"","lng":118.871105,"lat":40.089877,"amap_id":"B013B04JHV","order":22,"prev_distance_km":0.006,"cumulative_distance_km":54.935,"amap_marker_url":"https://uri.amap.com/marker?position=118.871105,40.089877&name=%E8%BF%81%E5%AE%89%E5%B8%82%E5%8A%A8%E7%89%A9%E5%8D%AB%E7%94%9F%E7%9B%91%E7%9D%A3%E6%89%80%E6%9D%A8%E5%90%84%E5%BA%84%E5%88%86%E6%89%80&src=vetmap&coordinate=gaode&callnative=1","route_id":"r1","route_name":"第1段","global_order":22},{"name":"夏官营镇畜牧兽医站","address":"夏官营中心卫生院西北侧160米","phone":"","category":"医疗保健服务;动物医疗场所;兽医站","area":"","lng":118.80846,"lat":39.975282,"amap_id":"B0J211H884","order":23,"prev_distance_km":13.814,"cumulative_distance_km":68.749,"amap_marker_url":"https://uri.amap.com/marker?position=118.808460,39.975282&name=%E5%A4%8F%E5%AE%98%E8%90%A5%E9%95%87%E7%95%9C%E7%89%A7%E5%85%BD%E5%8C%BB%E7%AB%99&src=vetmap&coordinate=gaode&callnative=1","route_id":"r1","route_name":"第1段","global_order":23},{"name":"中国动物防疫","address":"102国道与617县道交叉口东140米","phone":"","category":"医疗保健服务;动物医疗场所;动物医疗场所","area":"","lng":118.673559,"lat":39.865695,"amap_id":"B0FFFZ390K","order":24,"prev_distance_km":16.758,"cumulative_distance_km":85.507,"amap_marker_url":"https://uri.amap.com/marker?position=118.673559,39.865695&name=%E4%B8%AD%E5%9B%BD%E5%8A%A8%E7%89%A9%E9%98%B2%E7%96%AB&src=vetmap&coordinate=gaode&callnative=1","route_id":"r1","route_name":"第1段","global_order":24}]}