{"summary":{"id":"d01081","province":"河北省","city":"秦皇岛市","district":"北戴河区","count":9,"route_count":1,"max_route_clinics":9,"total_distance_km":13.674,"coordinate_system":"GCJ-02 / Amap","generated_at":"2026-05-08 19:46:42"},"routes":[{"id":"r1","name":"第1段","count":9,"total_distance_km":13.674,"rows":[{"name":"中国野生动物保护协会秦皇岛野生动物救护中心","address":"滨海大道62号西南方向140米","phone":"","category":"医疗保健服务;动物医疗场所;动物医疗场所","area":"","lng":119.523754,"lat":39.855273,"amap_id":"B014F06WSM","order":1,"prev_distance_km":0.0,"cumulative_distance_km":0.0,"amap_marker_url":"https://uri.amap.com/marker?position=119.523754,39.855273&name=%E4%B8%AD%E5%9B%BD%E9%87%8E%E7%94%9F%E5%8A%A8%E7%89%A9%E4%BF%9D%E6%8A%A4%E5%8D%8F%E4%BC%9A%E7%A7%A6%E7%9A%87%E5%B2%9B%E9%87%8E%E7%94%9F%E5%8A%A8%E7%89%A9%E6%95%91%E6%8A%A4%E4%B8%AD%E5%BF%83&src=vetmap&coordinate=gaode&callnative=1","route_id":"r1","route_name":"第1段"},{"name":"小岛宠物医院","address":"联峰路227号","phone":"18068500037","category":"医疗保健服务;动物医疗场所;宠物诊所","area":"","lng":119.484951,"lat":39.824759,"amap_id":"B0LRT7AS1Y","order":2,"prev_distance_km":4.742,"cumulative_distance_km":4.742,"amap_marker_url":"https://uri.amap.com/marker?position=119.484951,39.824759&name=%E5%B0%8F%E5%B2%9B%E5%AE%A0%E7%89%A9%E5%8C%BB%E9%99%A2&src=vetmap&coordinate=gaode&callnative=1","route_id":"r1","route_name":"第1段"},{"name":"魏巍宠物诊所","address":"杨各庄新城商业街9-3号","phone":"16603361081","category":"医疗保健服务;动物医疗场所;宠物诊所","area":"","lng":119.43219,"lat":39.852222,"amap_id":"B0L0RD59LC","order":3,"prev_distance_km":5.442,"cumulative_distance_km":10.184,"amap_marker_url":"https://uri.amap.com/marker?position=119.432190,39.852222&name=%E9%AD%8F%E5%B7%8D%E5%AE%A0%E7%89%A9%E8%AF%8A%E6%89%80&src=vetmap&coordinate=gaode&callnative=1","route_id":"r1","route_name":"第1段"},{"name":"宠医堂动物诊疗中心","address":"北戴河区火车站站西商业楼2号楼6号门市","phone":"15303353339","category":"医疗保健服务;动物医疗场所;宠物诊所","area":"","lng":119.415832,"lat":39.847045,"amap_id":"B0LAZAR8B5","order":4,"prev_distance_km":1.51,"cumulative_distance_km":11.695,"amap_marker_url":"https://uri.amap.com/marker?position=119.415832,39.847045&name=%E5%AE%A0%E5%8C%BB%E5%A0%82%E5%8A%A8%E7%89%A9%E8%AF%8A%E7%96%97%E4%B8%AD%E5%BF%83&src=vetmap&coordinate=gaode&callnative=1","route_id":"r1","route_name":"第1段"},{"name":"王威动物诊所","address":"牛头崖镇","phone":"13780383980","category":"医疗保健服务;动物医疗场所;宠物诊所","area":"","lng":119.408592,"lat":39.840752,"amap_id":"B0FFIV808I","order":5,"prev_distance_km":0.934,"cumulative_distance_km":12.629,"amap_marker_url":"https://uri.amap.com/marker?position=119.408592,39.840752&name=%E7%8E%8B%E5%A8%81%E5%8A%A8%E7%89%A9%E8%AF%8A%E6%89%80&src=vetmap&coordinate=gaode&callnative=1","route_id":"r1","route_name":"第1段"},{"name":"志华兽药","address":"牛头崖镇国道205号旁","phone":"13785073259","category":"医疗保健服务;动物医疗场所;动物医疗场所","area":"","lng":119.407027,"lat":39.837999,"amap_id":"B014F06YAJ","order":6,"prev_distance_km":0.334,"cumulative_distance_km":12.963,"amap_marker_url":"https://uri.amap.com/marker?position=119.407027,39.837999&name=%E5%BF%97%E5%8D%8E%E5%85%BD%E8%8D%AF&src=vetmap&coordinate=gaode&callnative=1","route_id":"r1","route_name":"第1段"},{"name":"吉业动物诊所","address":"牛头崖村友谊路54号(国家电网对面)","phone":"13930387744","category":"医疗保健服务;动物医疗场所;宠物诊所","area":"","lng":119.405412,"lat":39.836688,"amap_id":"B0FFH29FQ3","order":7,"prev_distance_km":0.201,"cumulative_distance_km":13.163,"amap_marker_url":"https://uri.amap.com/marker?position=119.405412,39.836688&name=%E5%90%89%E4%B8%9A%E5%8A%A8%E7%89%A9%E8%AF%8A%E6%89%80&src=vetmap&coordinate=gaode&callnative=1","route_id":"r1","route_name":"第1段"},{"name":"康康宠物医院","address":"宁海道碧海雅园北侧约60米","phone":"13333322490","category":"医疗保健服务;动物医疗场所;宠物诊所","area":"","lng":119.404385,"lat":39.835501,"amap_id":"B0H36CYZ46","order":8,"prev_distance_km":0.158,"cumulative_distance_km":13.322,"amap_marker_url":"https://uri.amap.com/marker?position=119.404385,39.835501&name=%E5%BA%B7%E5%BA%B7%E5%AE%A0%E7%89%A9%E5%8C%BB%E9%99%A2&src=vetmap&coordinate=gaode&callnative=1","route_id":"r1","route_name":"第1段"},{"name":"康贝宠物医院","address":"牛头崖镇戴河新城A区11号门市","phone":"13031888120","category":"医疗保健服务;动物医疗场所;宠物诊所","area":"","lng":119.405179,"lat":39.832388,"amap_id":"B0FFG5QCVB","order":9,"prev_distance_km":0.353,"cumulative_distance_km":13.674,"amap_marker_url":"https://uri.amap.com/marker?position=119.405179,39.832388&name=%E5%BA%B7%E8%B4%9D%E5%AE%A0%E7%89%A9%E5%8C%BB%E9%99%A2&src=vetmap&coordinate=gaode&callnative=1","route_id":"r1","route_name":"第1段"}]}],"rows":[{"name":"中国野生动物保护协会秦皇岛野生动物救护中心","address":"滨海大道62号西南方向140米","phone":"","category":"医疗保健服务;动物医疗场所;动物医疗场所","area":"","lng":119.523754,"lat":39.855273,"amap_id":"B014F06WSM","order":1,"prev_distance_km":0.0,"cumulative_distance_km":0.0,"amap_marker_url":"https://uri.amap.com/marker?position=119.523754,39.855273&name=%E4%B8%AD%E5%9B%BD%E9%87%8E%E7%94%9F%E5%8A%A8%E7%89%A9%E4%BF%9D%E6%8A%A4%E5%8D%8F%E4%BC%9A%E7%A7%A6%E7%9A%87%E5%B2%9B%E9%87%8E%E7%94%9F%E5%8A%A8%E7%89%A9%E6%95%91%E6%8A%A4%E4%B8%AD%E5%BF%83&src=vetmap&coordinate=gaode&callnative=1","route_id":"r1","route_name":"第1段","global_order":1},{"name":"小岛宠物医院","address":"联峰路227号","phone":"18068500037","category":"医疗保健服务;动物医疗场所;宠物诊所","area":"","lng":119.484951,"lat":39.824759,"amap_id":"B0LRT7AS1Y","order":2,"prev_distance_km":4.742,"cumulative_distance_km":4.742,"amap_marker_url":"https://uri.amap.com/marker?position=119.484951,39.824759&name=%E5%B0%8F%E5%B2%9B%E5%AE%A0%E7%89%A9%E5%8C%BB%E9%99%A2&src=vetmap&coordinate=gaode&callnative=1","route_id":"r1","route_name":"第1段","global_order":2},{"name":"魏巍宠物诊所","address":"杨各庄新城商业街9-3号","phone":"16603361081","category":"医疗保健服务;动物医疗场所;宠物诊所","area":"","lng":119.43219,"lat":39.852222,"amap_id":"B0L0RD59LC","order":3,"prev_distance_km":5.442,"cumulative_distance_km":10.184,"amap_marker_url":"https://uri.amap.com/marker?position=119.432190,39.852222&name=%E9%AD%8F%E5%B7%8D%E5%AE%A0%E7%89%A9%E8%AF%8A%E6%89%80&src=vetmap&coordinate=gaode&callnative=1","route_id":"r1","route_name":"第1段","global_order":3},{"name":"宠医堂动物诊疗中心","address":"北戴河区火车站站西商业楼2号楼6号门市","phone":"15303353339","category":"医疗保健服务;动物医疗场所;宠物诊所","area":"","lng":119.415832,"lat":39.847045,"amap_id":"B0LAZAR8B5","order":4,"prev_distance_km":1.51,"cumulative_distance_km":11.695,"amap_marker_url":"https://uri.amap.com/marker?position=119.415832,39.847045&name=%E5%AE%A0%E5%8C%BB%E5%A0%82%E5%8A%A8%E7%89%A9%E8%AF%8A%E7%96%97%E4%B8%AD%E5%BF%83&src=vetmap&coordinate=gaode&callnative=1","route_id":"r1","route_name":"第1段","global_order":4},{"name":"王威动物诊所","address":"牛头崖镇","phone":"13780383980","category":"医疗保健服务;动物医疗场所;宠物诊所","area":"","lng":119.408592,"lat":39.840752,"amap_id":"B0FFIV808I","order":5,"prev_distance_km":0.934,"cumulative_distance_km":12.629,"amap_marker_url":"https://uri.amap.com/marker?position=119.408592,39.840752&name=%E7%8E%8B%E5%A8%81%E5%8A%A8%E7%89%A9%E8%AF%8A%E6%89%80&src=vetmap&coordinate=gaode&callnative=1","route_id":"r1","route_name":"第1段","global_order":5},{"name":"志华兽药","address":"牛头崖镇国道205号旁","phone":"13785073259","category":"医疗保健服务;动物医疗场所;动物医疗场所","area":"","lng":119.407027,"lat":39.837999,"amap_id":"B014F06YAJ","order":6,"prev_distance_km":0.334,"cumulative_distance_km":12.963,"amap_marker_url":"https://uri.amap.com/marker?position=119.407027,39.837999&name=%E5%BF%97%E5%8D%8E%E5%85%BD%E8%8D%AF&src=vetmap&coordinate=gaode&callnative=1","route_id":"r1","route_name":"第1段","global_order":6},{"name":"吉业动物诊所","address":"牛头崖村友谊路54号(国家电网对面)","phone":"13930387744","category":"医疗保健服务;动物医疗场所;宠物诊所","area":"","lng":119.405412,"lat":39.836688,"amap_id":"B0FFH29FQ3","order":7,"prev_distance_km":0.201,"cumulative_distance_km":13.163,"amap_marker_url":"https://uri.amap.com/marker?position=119.405412,39.836688&name=%E5%90%89%E4%B8%9A%E5%8A%A8%E7%89%A9%E8%AF%8A%E6%89%80&src=vetmap&coordinate=gaode&callnative=1","route_id":"r1","route_name":"第1段","global_order":7},{"name":"康康宠物医院","address":"宁海道碧海雅园北侧约60米","phone":"13333322490","category":"医疗保健服务;动物医疗场所;宠物诊所","area":"","lng":119.404385,"lat":39.835501,"amap_id":"B0H36CYZ46","order":8,"prev_distance_km":0.158,"cumulative_distance_km":13.322,"amap_marker_url":"https://uri.amap.com/marker?position=119.404385,39.835501&name=%E5%BA%B7%E5%BA%B7%E5%AE%A0%E7%89%A9%E5%8C%BB%E9%99%A2&src=vetmap&coordinate=gaode&callnative=1","route_id":"r1","route_name":"第1段","global_order":8},{"name":"康贝宠物医院","address":"牛头崖镇戴河新城A区11号门市","phone":"13031888120","category":"医疗保健服务;动物医疗场所;宠物诊所","area":"","lng":119.405179,"lat":39.832388,"amap_id":"B0FFG5QCVB","order":9,"prev_distance_km":0.353,"cumulative_distance_km":13.674,"amap_marker_url":"https://uri.amap.com/marker?position=119.405179,39.832388&name=%E5%BA%B7%E8%B4%9D%E5%AE%A0%E7%89%A9%E5%8C%BB%E9%99%A2&src=vetmap&coordinate=gaode&callnative=1","route_id":"r1","route_name":"第1段","global_order":9}]}