{"summary":{"id":"d01080","province":"河北省","city":"石家庄市","district":"鹿泉区","count":22,"total_distance_km":49.248,"coordinate_system":"GCJ-02 / Amap","generated_at":"2026-05-07 20:23:16"},"rows":[{"name":"兽医站","address":"205省道与向阳街交叉口西60米","phone":"","category":"医疗保健服务;动物医疗场所;兽医站","area":"","lng":114.282104,"lat":38.191727,"amap_id":"B0J24ZVRAV","order":1,"prev_distance_km":0.0,"cumulative_distance_km":0.0,"amap_marker_url":"https://uri.amap.com/marker?position=114.282104,38.191727&name=%E5%85%BD%E5%8C%BB%E7%AB%99&src=vetmap&coordinate=gaode&callnative=1"},{"name":"科信兽医室","address":"齿皓口腔南侧50米","phone":"","category":"医疗保健服务;动物医疗场所;兽医站","area":"","lng":114.347872,"lat":38.196494,"amap_id":"B0FFG4X4I0","order":2,"prev_distance_km":5.772,"cumulative_distance_km":5.772,"amap_marker_url":"https://uri.amap.com/marker?position=114.347872,38.196494&name=%E7%A7%91%E4%BF%A1%E5%85%BD%E5%8C%BB%E5%AE%A4&src=vetmap&coordinate=gaode&callnative=1"},{"name":"鹿泉区李村畜牧兽医站","address":"石清路南200米","phone":"15032860633","category":"医疗保健服务;动物医疗场所;兽医站","area":"","lng":114.347506,"lat":38.195947,"amap_id":"B0FFJIH4VJ","order":3,"prev_distance_km":0.069,"cumulative_distance_km":5.841,"amap_marker_url":"https://uri.amap.com/marker?position=114.347506,38.195947&name=%E9%B9%BF%E6%B3%89%E5%8C%BA%E6%9D%8E%E6%9D%91%E7%95%9C%E7%89%A7%E5%85%BD%E5%8C%BB%E7%AB%99&src=vetmap&coordinate=gaode&callnative=1"},{"name":"邵营兽医室","address":"邵营村庆丰街小康巷3号(东北角)","phone":"13451491768;13803394308","category":"医疗保健服务;动物医疗场所;兽医站","area":"","lng":114.363489,"lat":38.132681,"amap_id":"B0FFIQC1GY","order":4,"prev_distance_km":7.172,"cumulative_distance_km":13.013,"amap_marker_url":"https://uri.amap.com/marker?position=114.363489,38.132681&name=%E9%82%B5%E8%90%A5%E5%85%BD%E5%8C%BB%E5%AE%A4&src=vetmap&coordinate=gaode&callnative=1"},{"name":"萌兽宠物诊所","address":"福顺街与事业东路交叉口南280米","phone":"15833938624","category":"医疗保健服务;动物医疗场所;宠物诊所","area":"","lng":114.367566,"lat":38.104778,"amap_id":"B0HD1Z2YSD","order":5,"prev_distance_km":3.123,"cumulative_distance_km":16.136,"amap_marker_url":"https://uri.amap.com/marker?position=114.367566,38.104778&name=%E8%90%8C%E5%85%BD%E5%AE%A0%E7%89%A9%E8%AF%8A%E6%89%80&src=vetmap&coordinate=gaode&callnative=1"},{"name":"宠卫来伴侣动物诊所","address":"获鹿镇北斗路建行宿舍1号楼底商1-1-103","phone":"13522115107;15511189114","category":"医疗保健服务;动物医疗场所;宠物诊所","area":"","lng":114.323046,"lat":38.091357,"amap_id":"B0KAA43L4M","order":6,"prev_distance_km":4.172,"cumulative_distance_km":20.308,"amap_marker_url":"https://uri.amap.com/marker?position=114.323046,38.091357&name=%E5%AE%A0%E5%8D%AB%E6%9D%A5%E4%BC%B4%E4%BE%A3%E5%8A%A8%E7%89%A9%E8%AF%8A%E6%89%80&src=vetmap&coordinate=gaode&callnative=1"},{"name":"鹿泉区动物疫病预防控制中心","address":"北沟街河北省农广校鹿泉分校附近","phone":"","category":"医疗保健服务;动物医疗场所;动物医疗场所","area":"","lng":114.317931,"lat":38.089051,"amap_id":"B0FFFE230W","order":7,"prev_distance_km":0.516,"cumulative_distance_km":20.824,"amap_marker_url":"https://uri.amap.com/marker?position=114.317931,38.089051&name=%E9%B9%BF%E6%B3%89%E5%8C%BA%E5%8A%A8%E7%89%A9%E7%96%AB%E7%97%85%E9%A2%84%E9%98%B2%E6%8E%A7%E5%88%B6%E4%B8%AD%E5%BF%83&src=vetmap&coordinate=gaode&callnative=1"},{"name":"朗仕宠物诊所","address":"曹庄村恒益路东13号","phone":"15830669483","category":"医疗保健服务;动物医疗场所;宠物诊所","area":"","lng":114.314106,"lat":38.097098,"amap_id":"B0L6BRZF5X","order":8,"prev_distance_km":0.955,"cumulative_distance_km":21.779,"amap_marker_url":"https://uri.amap.com/marker?position=114.314106,38.097098&name=%E6%9C%97%E4%BB%95%E5%AE%A0%E7%89%A9%E8%AF%8A%E6%89%80&src=vetmap&coordinate=gaode&callnative=1"},{"name":"贝乐宠物服务(银山花园店)","address":"银山花园新区东南门旁","phone":"13930479817;15075159880","category":"医疗保健服务;动物医疗场所;宠物诊所","area":"","lng":114.312436,"lat":38.089566,"amap_id":"B0FFFWBWE1","order":9,"prev_distance_km":0.85,"cumulative_distance_km":22.629,"amap_marker_url":"https://uri.amap.com/marker?position=114.312436,38.089566&name=%E8%B4%9D%E4%B9%90%E5%AE%A0%E7%89%A9%E6%9C%8D%E5%8A%A1%28%E9%93%B6%E5%B1%B1%E8%8A%B1%E5%9B%AD%E5%BA%97%29&src=vetmap&coordinate=gaode&callnative=1"},{"name":"皇家宠物造型美容中心(鹿泉北国店)","address":"厚德福城南门东南200米","phone":"13403217787","category":"医疗保健服务;动物医疗场所;宠物诊所","area":"","lng":114.30647,"lat":38.08767,"amap_id":"B0GRDSFZDS","order":10,"prev_distance_km":0.563,"cumulative_distance_km":23.192,"amap_marker_url":"https://uri.amap.com/marker?position=114.306470,38.087670&name=%E7%9A%87%E5%AE%B6%E5%AE%A0%E7%89%A9%E9%80%A0%E5%9E%8B%E7%BE%8E%E5%AE%B9%E4%B8%AD%E5%BF%83%28%E9%B9%BF%E6%B3%89%E5%8C%97%E5%9B%BD%E5%BA%97%29&src=vetmap&coordinate=gaode&callnative=1"},{"name":"宠缘宠物诊所(太平河南路东段)","address":"向阳大街与太平河南岸东行150米宠缘宠物诊所","phone":"13393213383","category":"医疗保健服务;动物医疗场所;宠物诊所","area":"","lng":114.319569,"lat":38.079116,"amap_id":"B0FFG37OE5","order":11,"prev_distance_km":1.49,"cumulative_distance_km":24.682,"amap_marker_url":"https://uri.amap.com/marker?position=114.319569,38.079116&name=%E5%AE%A0%E7%BC%98%E5%AE%A0%E7%89%A9%E8%AF%8A%E6%89%80%28%E5%A4%AA%E5%B9%B3%E6%B2%B3%E5%8D%97%E8%B7%AF%E4%B8%9C%E6%AE%B5%29&src=vetmap&coordinate=gaode&callnative=1"},{"name":"华天动物诊所(太平河南路东段)","address":"向阳南大街与太平河南路东段交叉口东260米","phone":"13780511412","category":"医疗保健服务;动物医疗场所;宠物诊所","area":"","lng":114.319585,"lat":38.079114,"amap_id":"B0FFFRA3QC","order":12,"prev_distance_km":0.001,"cumulative_distance_km":24.683,"amap_marker_url":"https://uri.amap.com/marker?position=114.319585,38.079114&name=%E5%8D%8E%E5%A4%A9%E5%8A%A8%E7%89%A9%E8%AF%8A%E6%89%80%28%E5%A4%AA%E5%B9%B3%E6%B2%B3%E5%8D%97%E8%B7%AF%E4%B8%9C%E6%AE%B5%29&src=vetmap&coordinate=gaode&callnative=1"},{"name":"永仁宠物诊所","address":"华丰苑北侧底商9号门市","phone":"15533935695","category":"医疗保健服务;动物医疗场所;宠物诊所","area":"","lng":114.323302,"lat":38.078897,"amap_id":"B0FFF2C6HX","order":13,"prev_distance_km":0.326,"cumulative_distance_km":25.01,"amap_marker_url":"https://uri.amap.com/marker?position=114.323302,38.078897&name=%E6%B0%B8%E4%BB%81%E5%AE%A0%E7%89%A9%E8%AF%8A%E6%89%80&src=vetmap&coordinate=gaode&callnative=1"},{"name":"青鸾宠物","address":"龙海北苑西南门北60米","phone":"19930601998","category":"医疗保健服务;动物医疗场所;宠物诊所","area":"","lng":114.329711,"lat":38.08135,"amap_id":"B0LUFH1Y49","order":14,"prev_distance_km":0.624,"cumulative_distance_km":25.633,"amap_marker_url":"https://uri.amap.com/marker?position=114.329711,38.081350&name=%E9%9D%92%E9%B8%BE%E5%AE%A0%E7%89%A9&src=vetmap&coordinate=gaode&callnative=1"},{"name":"周计动物诊所","address":"果岭湾小区16号楼底商","phone":"15831978786","category":"医疗保健服务;动物医疗场所;宠物诊所","area":"","lng":114.358151,"lat":38.065858,"amap_id":"B0JRDDTGTA","order":15,"prev_distance_km":3.027,"cumulative_distance_km":28.661,"amap_marker_url":"https://uri.amap.com/marker?position=114.358151,38.065858&name=%E5%91%A8%E8%AE%A1%E5%8A%A8%E7%89%A9%E8%AF%8A%E6%89%80&src=vetmap&coordinate=gaode&callnative=1"},{"name":"尚庄动物医院","address":"西山花园公交站","phone":"15632100100","category":"医疗保健服务;动物医疗场所;宠物诊所","area":"","lng":114.37481,"lat":38.041143,"amap_id":"B0FFMDZTPE","order":16,"prev_distance_km":3.111,"cumulative_distance_km":31.772,"amap_marker_url":"https://uri.amap.com/marker?position=114.374810,38.041143&name=%E5%B0%9A%E5%BA%84%E5%8A%A8%E7%89%A9%E5%8C%BB%E9%99%A2&src=vetmap&coordinate=gaode&callnative=1"},{"name":"铭宇动物医院","address":"顺铜大街与富裕路交叉口南80米","phone":"0311-82230120;13111593758","category":"医疗保健服务;动物医疗场所;宠物诊所","area":"","lng":114.384268,"lat":37.972308,"amap_id":"B0JRHDL3RG","order":17,"prev_distance_km":7.699,"cumulative_distance_km":39.471,"amap_marker_url":"https://uri.amap.com/marker?position=114.384268,37.972308&name=%E9%93%AD%E5%AE%87%E5%8A%A8%E7%89%A9%E5%8C%BB%E9%99%A2&src=vetmap&coordinate=gaode&callnative=1"},{"name":"铜冶镇万达兽医室","address":"康庄大路(富康小区)","phone":"","category":"医疗保健服务;动物医疗场所;兽医站","area":"","lng":114.380972,"lat":37.968876,"amap_id":"B0FFKHNA9T","order":18,"prev_distance_km":0.479,"cumulative_distance_km":39.95,"amap_marker_url":"https://uri.amap.com/marker?position=114.380972,37.968876&name=%E9%93%9C%E5%86%B6%E9%95%87%E4%B8%87%E8%BE%BE%E5%85%BD%E5%8C%BB%E5%AE%A4&src=vetmap&coordinate=gaode&callnative=1"},{"name":"恒爱动物诊所","address":"铜冶镇和山悦府底商1-105","phone":"18735426608;19131166886","category":"医疗保健服务;动物医疗场所;宠物诊所","area":"","lng":114.38983,"lat":37.968545,"amap_id":"B0LDZRU9YD","order":19,"prev_distance_km":0.777,"cumulative_distance_km":40.727,"amap_marker_url":"https://uri.amap.com/marker?position=114.389830,37.968545&name=%E6%81%92%E7%88%B1%E5%8A%A8%E7%89%A9%E8%AF%8A%E6%89%80&src=vetmap&coordinate=gaode&callnative=1"},{"name":"宠物门诊","address":"天宁路与俱乐街交叉口东20米","phone":"","category":"医疗保健服务;动物医疗场所;宠物诊所","area":"","lng":114.451882,"lat":37.942209,"amap_id":"B0ID5LXK49","order":20,"prev_distance_km":6.179,"cumulative_distance_km":46.905,"amap_marker_url":"https://uri.amap.com/marker?position=114.451882,37.942209&name=%E5%AE%A0%E7%89%A9%E9%97%A8%E8%AF%8A&src=vetmap&coordinate=gaode&callnative=1"},{"name":"红旗宠物医院24小时转诊中心","address":"红旗大街11号","phone":"15832183197","category":"医疗保健服务;动物医疗场所;宠物诊所","area":"","lng":114.466971,"lat":37.947058,"amap_id":"B0G3UZ1N1H","order":21,"prev_distance_km":1.429,"cumulative_distance_km":48.334,"amap_marker_url":"https://uri.amap.com/marker?position=114.466971,37.947058&name=%E7%BA%A2%E6%97%97%E5%AE%A0%E7%89%A9%E5%8C%BB%E9%99%A224%E5%B0%8F%E6%97%B6%E8%BD%AC%E8%AF%8A%E4%B8%AD%E5%BF%83&src=vetmap&coordinate=gaode&callnative=1"},{"name":"爱宠世家宠物美容","address":"红旗大街与沿河南路交叉口南80米","phone":"","category":"医疗保健服务;动物医疗场所;动物医疗场所","area":"","lng":114.46923,"lat":37.939032,"amap_id":"B0L3HU84CK","order":22,"prev_distance_km":0.914,"cumulative_distance_km":49.248,"amap_marker_url":"https://uri.amap.com/marker?position=114.469230,37.939032&name=%E7%88%B1%E5%AE%A0%E4%B8%96%E5%AE%B6%E5%AE%A0%E7%89%A9%E7%BE%8E%E5%AE%B9&src=vetmap&coordinate=gaode&callnative=1"}]}