{"summary":{"id":"d01128","province":"河北省","city":"邯郸市","district":"磁县","count":8,"route_count":1,"max_route_clinics":8,"total_distance_km":11.938,"coordinate_system":"GCJ-02 / Amap","generated_at":"2026-05-07 21:29:29"},"routes":[{"id":"r1","name":"第1段","count":8,"total_distance_km":11.938,"rows":[{"name":"磁县水生动物疫病防治站","address":"107国道附近","phone":"","category":"医疗保健服务;动物医疗场所;兽医站","area":"","lng":114.352292,"lat":36.309417,"amap_id":"B013601NFK","order":1,"prev_distance_km":0.0,"cumulative_distance_km":0.0,"amap_marker_url":"https://uri.amap.com/marker?position=114.352292,36.309417&name=%E7%A3%81%E5%8E%BF%E6%B0%B4%E7%94%9F%E5%8A%A8%E7%89%A9%E7%96%AB%E7%97%85%E9%98%B2%E6%B2%BB%E7%AB%99&src=vetmap&coordinate=gaode&callnative=1","route_id":"r1","route_name":"第1段"},{"name":"康乐宠物医院(建设东路)","address":"滏阳南大街16号西南方向70米","phone":"15031079892","category":"医疗保健服务;动物医疗场所;宠物诊所","area":"","lng":114.389851,"lat":36.355947,"amap_id":"B01360NRQK","order":2,"prev_distance_km":6.172,"cumulative_distance_km":6.172,"amap_marker_url":"https://uri.amap.com/marker?position=114.389851,36.355947&name=%E5%BA%B7%E4%B9%90%E5%AE%A0%E7%89%A9%E5%8C%BB%E9%99%A2%28%E5%BB%BA%E8%AE%BE%E4%B8%9C%E8%B7%AF%29&src=vetmap&coordinate=gaode&callnative=1","route_id":"r1","route_name":"第1段"},{"name":"康信宠物诊所","address":"幸福城南门东60米","phone":"13651174159","category":"医疗保健服务;动物医疗场所;宠物诊所","area":"","lng":114.397773,"lat":36.368635,"amap_id":"B0FFMDBTFU","order":3,"prev_distance_km":1.579,"cumulative_distance_km":7.751,"amap_marker_url":"https://uri.amap.com/marker?position=114.397773,36.368635&name=%E5%BA%B7%E4%BF%A1%E5%AE%A0%E7%89%A9%E8%AF%8A%E6%89%80&src=vetmap&coordinate=gaode&callnative=1","route_id":"r1","route_name":"第1段"},{"name":"磁州宠物诊所","address":"振兴路168号","phone":"","category":"医疗保健服务;动物医疗场所;宠物诊所","area":"","lng":114.390146,"lat":36.369062,"amap_id":"B0KAL4H2B9","order":4,"prev_distance_km":0.685,"cumulative_distance_km":8.435,"amap_marker_url":"https://uri.amap.com/marker?position=114.390146,36.369062&name=%E7%A3%81%E5%B7%9E%E5%AE%A0%E7%89%A9%E8%AF%8A%E6%89%80&src=vetmap&coordinate=gaode&callnative=1","route_id":"r1","route_name":"第1段"},{"name":"磁州宠物诊所","address":"振兴路119号","phone":"15132041638;15350516871","category":"医疗保健服务;动物医疗场所;宠物诊所","area":"","lng":114.388413,"lat":36.369657,"amap_id":"B01360NRG1","order":5,"prev_distance_km":0.169,"cumulative_distance_km":8.604,"amap_marker_url":"https://uri.amap.com/marker?position=114.388413,36.369657&name=%E7%A3%81%E5%B7%9E%E5%AE%A0%E7%89%A9%E8%AF%8A%E6%89%80&src=vetmap&coordinate=gaode&callnative=1","route_id":"r1","route_name":"第1段"},{"name":"唯伊宠物诊所","address":"政通街41号","phone":"","category":"医疗保健服务;动物医疗场所;宠物诊所","area":"","lng":114.386272,"lat":36.381098,"amap_id":"B0K23S0WNY","order":6,"prev_distance_km":1.287,"cumulative_distance_km":9.891,"amap_marker_url":"https://uri.amap.com/marker?position=114.386272,36.381098&name=%E5%94%AF%E4%BC%8A%E5%AE%A0%E7%89%A9%E8%AF%8A%E6%89%80&src=vetmap&coordinate=gaode&callnative=1","route_id":"r1","route_name":"第1段"},{"name":"磁县博宠宠物医院","address":"荷城佳苑西门南行30米路东","phone":"13832006221","category":"医疗保健服务;动物医疗场所;宠物诊所","area":"","lng":114.381755,"lat":36.379168,"amap_id":"B0FFMGI0E7","order":7,"prev_distance_km":0.458,"cumulative_distance_km":10.348,"amap_marker_url":"https://uri.amap.com/marker?position=114.381755,36.379168&name=%E7%A3%81%E5%8E%BF%E5%8D%9A%E5%AE%A0%E5%AE%A0%E7%89%A9%E5%8C%BB%E9%99%A2&src=vetmap&coordinate=gaode&callnative=1","route_id":"r1","route_name":"第1段"},{"name":"磁县爱宠宠物诊所","address":"磁州镇安康西路162号","phone":"18003308280;18831920498","category":"医疗保健服务;动物医疗场所;宠物诊所","area":"","lng":114.37399,"lat":36.366312,"amap_id":"B0FFHQ6OCV","order":8,"prev_distance_km":1.59,"cumulative_distance_km":11.938,"amap_marker_url":"https://uri.amap.com/marker?position=114.373990,36.366312&name=%E7%A3%81%E5%8E%BF%E7%88%B1%E5%AE%A0%E5%AE%A0%E7%89%A9%E8%AF%8A%E6%89%80&src=vetmap&coordinate=gaode&callnative=1","route_id":"r1","route_name":"第1段"}]}],"rows":[{"name":"磁县水生动物疫病防治站","address":"107国道附近","phone":"","category":"医疗保健服务;动物医疗场所;兽医站","area":"","lng":114.352292,"lat":36.309417,"amap_id":"B013601NFK","order":1,"prev_distance_km":0.0,"cumulative_distance_km":0.0,"amap_marker_url":"https://uri.amap.com/marker?position=114.352292,36.309417&name=%E7%A3%81%E5%8E%BF%E6%B0%B4%E7%94%9F%E5%8A%A8%E7%89%A9%E7%96%AB%E7%97%85%E9%98%B2%E6%B2%BB%E7%AB%99&src=vetmap&coordinate=gaode&callnative=1","route_id":"r1","route_name":"第1段","global_order":1},{"name":"康乐宠物医院(建设东路)","address":"滏阳南大街16号西南方向70米","phone":"15031079892","category":"医疗保健服务;动物医疗场所;宠物诊所","area":"","lng":114.389851,"lat":36.355947,"amap_id":"B01360NRQK","order":2,"prev_distance_km":6.172,"cumulative_distance_km":6.172,"amap_marker_url":"https://uri.amap.com/marker?position=114.389851,36.355947&name=%E5%BA%B7%E4%B9%90%E5%AE%A0%E7%89%A9%E5%8C%BB%E9%99%A2%28%E5%BB%BA%E8%AE%BE%E4%B8%9C%E8%B7%AF%29&src=vetmap&coordinate=gaode&callnative=1","route_id":"r1","route_name":"第1段","global_order":2},{"name":"康信宠物诊所","address":"幸福城南门东60米","phone":"13651174159","category":"医疗保健服务;动物医疗场所;宠物诊所","area":"","lng":114.397773,"lat":36.368635,"amap_id":"B0FFMDBTFU","order":3,"prev_distance_km":1.579,"cumulative_distance_km":7.751,"amap_marker_url":"https://uri.amap.com/marker?position=114.397773,36.368635&name=%E5%BA%B7%E4%BF%A1%E5%AE%A0%E7%89%A9%E8%AF%8A%E6%89%80&src=vetmap&coordinate=gaode&callnative=1","route_id":"r1","route_name":"第1段","global_order":3},{"name":"磁州宠物诊所","address":"振兴路168号","phone":"","category":"医疗保健服务;动物医疗场所;宠物诊所","area":"","lng":114.390146,"lat":36.369062,"amap_id":"B0KAL4H2B9","order":4,"prev_distance_km":0.685,"cumulative_distance_km":8.435,"amap_marker_url":"https://uri.amap.com/marker?position=114.390146,36.369062&name=%E7%A3%81%E5%B7%9E%E5%AE%A0%E7%89%A9%E8%AF%8A%E6%89%80&src=vetmap&coordinate=gaode&callnative=1","route_id":"r1","route_name":"第1段","global_order":4},{"name":"磁州宠物诊所","address":"振兴路119号","phone":"15132041638;15350516871","category":"医疗保健服务;动物医疗场所;宠物诊所","area":"","lng":114.388413,"lat":36.369657,"amap_id":"B01360NRG1","order":5,"prev_distance_km":0.169,"cumulative_distance_km":8.604,"amap_marker_url":"https://uri.amap.com/marker?position=114.388413,36.369657&name=%E7%A3%81%E5%B7%9E%E5%AE%A0%E7%89%A9%E8%AF%8A%E6%89%80&src=vetmap&coordinate=gaode&callnative=1","route_id":"r1","route_name":"第1段","global_order":5},{"name":"唯伊宠物诊所","address":"政通街41号","phone":"","category":"医疗保健服务;动物医疗场所;宠物诊所","area":"","lng":114.386272,"lat":36.381098,"amap_id":"B0K23S0WNY","order":6,"prev_distance_km":1.287,"cumulative_distance_km":9.891,"amap_marker_url":"https://uri.amap.com/marker?position=114.386272,36.381098&name=%E5%94%AF%E4%BC%8A%E5%AE%A0%E7%89%A9%E8%AF%8A%E6%89%80&src=vetmap&coordinate=gaode&callnative=1","route_id":"r1","route_name":"第1段","global_order":6},{"name":"磁县博宠宠物医院","address":"荷城佳苑西门南行30米路东","phone":"13832006221","category":"医疗保健服务;动物医疗场所;宠物诊所","area":"","lng":114.381755,"lat":36.379168,"amap_id":"B0FFMGI0E7","order":7,"prev_distance_km":0.458,"cumulative_distance_km":10.348,"amap_marker_url":"https://uri.amap.com/marker?position=114.381755,36.379168&name=%E7%A3%81%E5%8E%BF%E5%8D%9A%E5%AE%A0%E5%AE%A0%E7%89%A9%E5%8C%BB%E9%99%A2&src=vetmap&coordinate=gaode&callnative=1","route_id":"r1","route_name":"第1段","global_order":7},{"name":"磁县爱宠宠物诊所","address":"磁州镇安康西路162号","phone":"18003308280;18831920498","category":"医疗保健服务;动物医疗场所;宠物诊所","area":"","lng":114.37399,"lat":36.366312,"amap_id":"B0FFHQ6OCV","order":8,"prev_distance_km":1.59,"cumulative_distance_km":11.938,"amap_marker_url":"https://uri.amap.com/marker?position=114.373990,36.366312&name=%E7%A3%81%E5%8E%BF%E7%88%B1%E5%AE%A0%E5%AE%A0%E7%89%A9%E8%AF%8A%E6%89%80&src=vetmap&coordinate=gaode&callnative=1","route_id":"r1","route_name":"第1段","global_order":8}]}