{"summary":{"id":"d01153","province":"河南省","city":"南阳市","district":"卧龙区","count":37,"route_count":1,"max_route_clinics":37,"total_distance_km":80.749,"coordinate_system":"GCJ-02 / Amap","generated_at":"2026-05-07 21:29:30"},"routes":[{"id":"r1","name":"第1段","count":37,"total_distance_km":80.749,"rows":[{"name":"老曾兽医","address":"中心大街与010乡道交叉口北280米","phone":"","category":"医疗保健服务;动物医疗场所;兽医站","area":"","lng":112.452175,"lat":32.832875,"amap_id":"B0LKB1UIZP","order":1,"prev_distance_km":0.0,"cumulative_distance_km":0.0,"amap_marker_url":"https://uri.amap.com/marker?position=112.452175,32.832875&name=%E8%80%81%E6%9B%BE%E5%85%BD%E5%8C%BB&src=vetmap&coordinate=gaode&callnative=1","route_id":"r1","route_name":"第1段"},{"name":"兽医站门诊","address":"赵碧诊所东侧","phone":"13937795178;18338327602","category":"医疗保健服务;动物医疗场所;兽医站","area":"","lng":112.333711,"lat":32.886107,"amap_id":"B0FFLKHK5D","order":2,"prev_distance_km":12.549,"cumulative_distance_km":12.549,"amap_marker_url":"https://uri.amap.com/marker?position=112.333711,32.886107&name=%E5%85%BD%E5%8C%BB%E7%AB%99%E9%97%A8%E8%AF%8A&src=vetmap&coordinate=gaode&callnative=1","route_id":"r1","route_name":"第1段"},{"name":"青华镇兽医站","address":"青华镇财政所东南侧70米","phone":"","category":"医疗保健服务;动物医疗场所;兽医站","area":"","lng":112.333617,"lat":32.886188,"amap_id":"B0KBFOTYVX","order":3,"prev_distance_km":0.013,"cumulative_distance_km":12.561,"amap_marker_url":"https://uri.amap.com/marker?position=112.333617,32.886188&name=%E9%9D%92%E5%8D%8E%E9%95%87%E5%85%BD%E5%8C%BB%E7%AB%99&src=vetmap&coordinate=gaode&callnative=1","route_id":"r1","route_name":"第1段"},{"name":"动物门诊","address":"312国道南100米","phone":"13037688528","category":"医疗保健服务;动物医疗场所;宠物诊所","area":"","lng":112.42032,"lat":33.014053,"amap_id":"B0FFK7JXX9","order":4,"prev_distance_km":16.359,"cumulative_distance_km":28.92,"amap_marker_url":"https://uri.amap.com/marker?position=112.420320,33.014053&name=%E5%8A%A8%E7%89%A9%E9%97%A8%E8%AF%8A&src=vetmap&coordinate=gaode&callnative=1","route_id":"r1","route_name":"第1段"},{"name":"理想动物门诊","address":"潘庄文化广场西南侧70米","phone":"","category":"医疗保健服务;动物医疗场所;宠物诊所","area":"","lng":112.484888,"lat":32.959706,"amap_id":"B0J0JAVA9F","order":5,"prev_distance_km":8.532,"cumulative_distance_km":37.451,"amap_marker_url":"https://uri.amap.com/marker?position=112.484888,32.959706&name=%E7%90%86%E6%83%B3%E5%8A%A8%E7%89%A9%E9%97%A8%E8%AF%8A&src=vetmap&coordinate=gaode&callnative=1","route_id":"r1","route_name":"第1段"},{"name":"医昇宠宠物医院(北京路店)","address":"西施兰花园北门西70米","phone":"18337735120","category":"医疗保健服务;动物医疗场所;宠物诊所","area":"南阳","lng":112.498486,"lat":32.969383,"amap_id":"B0M6F7ZK03","order":6,"prev_distance_km":1.663,"cumulative_distance_km":39.115,"amap_marker_url":"https://uri.amap.com/marker?position=112.498486,32.969383&name=%E5%8C%BB%E6%98%87%E5%AE%A0%E5%AE%A0%E7%89%A9%E5%8C%BB%E9%99%A2%28%E5%8C%97%E4%BA%AC%E8%B7%AF%E5%BA%97%29&src=vetmap&coordinate=gaode&callnative=1","route_id":"r1","route_name":"第1段"},{"name":"旺康宠物医院","address":"汉江路金河路交叉口北50米路西","phone":"15893361977","category":"医疗保健服务;动物医疗场所;宠物诊所","area":"南阳","lng":112.510763,"lat":32.963947,"amap_id":"B0FFFWTNVZ","order":7,"prev_distance_km":1.295,"cumulative_distance_km":40.41,"amap_marker_url":"https://uri.amap.com/marker?position=112.510763,32.963947&name=%E6%97%BA%E5%BA%B7%E5%AE%A0%E7%89%A9%E5%8C%BB%E9%99%A2&src=vetmap&coordinate=gaode&callnative=1","route_id":"r1","route_name":"第1段"},{"name":"健康宠物诊所","address":"汉江路健康宠物诊疗","phone":"15225636116;19562677262","category":"医疗保健服务;动物医疗场所;宠物诊所","area":"南阳","lng":112.513214,"lat":32.962729,"amap_id":"B0J23M05LG","order":8,"prev_distance_km":0.266,"cumulative_distance_km":40.676,"amap_marker_url":"https://uri.amap.com/marker?position=112.513214,32.962729&name=%E5%81%A5%E5%BA%B7%E5%AE%A0%E7%89%A9%E8%AF%8A%E6%89%80&src=vetmap&coordinate=gaode&callnative=1","route_id":"r1","route_name":"第1段"},{"name":"医直宠宠物医院(卧龙路店)","address":"卧龙路","phone":"15670299892","category":"医疗保健服务;动物医疗场所;宠物诊所","area":"南阳","lng":112.51582,"lat":32.97889,"amap_id":"B0LBXUJH51","order":9,"prev_distance_km":1.813,"cumulative_distance_km":42.489,"amap_marker_url":"https://uri.amap.com/marker?position=112.515820,32.978890&name=%E5%8C%BB%E7%9B%B4%E5%AE%A0%E5%AE%A0%E7%89%A9%E5%8C%BB%E9%99%A2%28%E5%8D%A7%E9%BE%99%E8%B7%AF%E5%BA%97%29&src=vetmap&coordinate=gaode&callnative=1","route_id":"r1","route_name":"第1段"},{"name":"博康动物医院","address":"武侯路61号","phone":"13103771217","category":"医疗保健服务;动物医疗场所;宠物诊所","area":"南阳","lng":112.51013,"lat":32.983035,"amap_id":"B0FFFGPDJW","order":10,"prev_distance_km":0.703,"cumulative_distance_km":43.192,"amap_marker_url":"https://uri.amap.com/marker?position=112.510130,32.983035&name=%E5%8D%9A%E5%BA%B7%E5%8A%A8%E7%89%A9%E5%8C%BB%E9%99%A2&src=vetmap&coordinate=gaode&callnative=1","route_id":"r1","route_name":"第1段"},{"name":"牧康宠物医院(车站路店)","address":"车站路和武侯路交叉口往北100米路西牧康宠物医院","phone":"15038785713","category":"医疗保健服务;动物医疗场所;宠物诊所","area":"南阳","lng":112.511545,"lat":32.984033,"amap_id":"B0JKRSRZLZ","order":11,"prev_distance_km":0.172,"cumulative_distance_km":43.364,"amap_marker_url":"https://uri.amap.com/marker?position=112.511545,32.984033&name=%E7%89%A7%E5%BA%B7%E5%AE%A0%E7%89%A9%E5%8C%BB%E9%99%A2%28%E8%BD%A6%E7%AB%99%E8%B7%AF%E5%BA%97%29&src=vetmap&coordinate=gaode&callnative=1","route_id":"r1","route_name":"第1段"},{"name":"博爱动物服务部","address":"副食品巷与七一路交叉口西南100米","phone":"","category":"医疗保健服务;动物医疗场所;宠物诊所","area":"七一路","lng":112.516268,"lat":32.985102,"amap_id":"B0K2M7RHOJ","order":12,"prev_distance_km":0.456,"cumulative_distance_km":43.821,"amap_marker_url":"https://uri.amap.com/marker?position=112.516268,32.985102&name=%E5%8D%9A%E7%88%B1%E5%8A%A8%E7%89%A9%E6%9C%8D%E5%8A%A1%E9%83%A8&src=vetmap&coordinate=gaode&callnative=1","route_id":"r1","route_name":"第1段"},{"name":"福源畜禽病门诊","address":"副食品巷与七一路交叉口南120米","phone":"13949363410","category":"医疗保健服务;动物医疗场所;兽医站","area":"南阳","lng":112.516455,"lat":32.984786,"amap_id":"B0FFG9DTK0","order":13,"prev_distance_km":0.039,"cumulative_distance_km":43.86,"amap_marker_url":"https://uri.amap.com/marker?position=112.516455,32.984786&name=%E7%A6%8F%E6%BA%90%E7%95%9C%E7%A6%BD%E7%97%85%E9%97%A8%E8%AF%8A&src=vetmap&coordinate=gaode&callnative=1","route_id":"r1","route_name":"第1段"},{"name":"淯阳宠物医院","address":"梅溪路与滨河路交叉口向北二百米路东","phone":"18203807885","category":"医疗保健服务;动物医疗场所;宠物诊所","area":"南阳","lng":112.532289,"lat":32.985128,"amap_id":"B0FFKCF7BZ","order":14,"prev_distance_km":1.477,"cumulative_distance_km":45.337,"amap_marker_url":"https://uri.amap.com/marker?position=112.532289,32.985128&name=%E6%B7%AF%E9%98%B3%E5%AE%A0%E7%89%A9%E5%8C%BB%E9%99%A2&src=vetmap&coordinate=gaode&callnative=1","route_id":"r1","route_name":"第1段"},{"name":"爱康宠物医院","address":"梅溪路南阳电影城南20米路西","phone":"13837193552","category":"医疗保健服务;动物医疗场所;宠物诊所","area":"梅溪路","lng":112.531219,"lat":32.993589,"amap_id":"B0FFJR0ZP1","order":15,"prev_distance_km":0.946,"cumulative_distance_km":46.283,"amap_marker_url":"https://uri.amap.com/marker?position=112.531219,32.993589&name=%E7%88%B1%E5%BA%B7%E5%AE%A0%E7%89%A9%E5%8C%BB%E9%99%A2&src=vetmap&coordinate=gaode&callnative=1","route_id":"r1","route_name":"第1段"},{"name":"初欣动物医院(中州路店)","address":"中州路与文化路口向西50米路北446号门口商铺第101.201号","phone":"15565768937;15839980576;18567155120","category":"医疗保健服务;动物医疗场所;宠物诊所","area":"新华路","lng":112.525836,"lat":32.991335,"amap_id":"B0KGZ555BD","order":16,"prev_distance_km":0.561,"cumulative_distance_km":46.845,"amap_marker_url":"https://uri.amap.com/marker?position=112.525836,32.991335&name=%E5%88%9D%E6%AC%A3%E5%8A%A8%E7%89%A9%E5%8C%BB%E9%99%A2%28%E4%B8%AD%E5%B7%9E%E8%B7%AF%E5%BA%97%29&src=vetmap&coordinate=gaode&callnative=1","route_id":"r1","route_name":"第1段"},{"name":"动物门诊","address":"百里奚南路1387附近","phone":"13673897491","category":"医疗保健服务;动物医疗场所;宠物诊所","area":"南阳","lng":112.505924,"lat":32.993946,"amap_id":"B0FFJ2VBZ8","order":17,"prev_distance_km":1.88,"cumulative_distance_km":48.724,"amap_marker_url":"https://uri.amap.com/marker?position=112.505924,32.993946&name=%E5%8A%A8%E7%89%A9%E9%97%A8%E8%AF%8A&src=vetmap&coordinate=gaode&callnative=1","route_id":"r1","route_name":"第1段"},{"name":"麦萌动物医院","address":"北京大道与京达巷交叉口南100米路西","phone":"17527707097","category":"医疗保健服务;动物医疗场所;宠物诊所","area":"中州西路","lng":112.497773,"lat":32.995674,"amap_id":"B0L0BAU3W2","order":18,"prev_distance_km":0.784,"cumulative_distance_km":49.508,"amap_marker_url":"https://uri.amap.com/marker?position=112.497773,32.995674&name=%E9%BA%A6%E8%90%8C%E5%8A%A8%E7%89%A9%E5%8C%BB%E9%99%A2&src=vetmap&coordinate=gaode&callnative=1","route_id":"r1","route_name":"第1段"},{"name":"大橘家宠物门诊","address":"百里奚南路与建设西路交叉口北60米","phone":"13938969610","category":"医疗保健服务;动物医疗场所;宠物诊所","area":"南阳","lng":112.516318,"lat":33.01043,"amap_id":"B0L0UXXO8R","order":19,"prev_distance_km":2.384,"cumulative_distance_km":51.892,"amap_marker_url":"https://uri.amap.com/marker?position=112.516318,33.010430&name=%E5%A4%A7%E6%A9%98%E5%AE%B6%E5%AE%A0%E7%89%A9%E9%97%A8%E8%AF%8A&src=vetmap&coordinate=gaode&callnative=1","route_id":"r1","route_name":"第1段"},{"name":"京旭宠物医院(车站北路店)","address":"车站北路与范蠡西路交叉口西南240米","phone":"17550333781","category":"医疗保健服务;动物医疗场所;宠物诊所","area":"南阳","lng":112.52606,"lat":33.016577,"amap_id":"B0HAYU04I1","order":20,"prev_distance_km":1.137,"cumulative_distance_km":53.029,"amap_marker_url":"https://uri.amap.com/marker?position=112.526060,33.016577&name=%E4%BA%AC%E6%97%AD%E5%AE%A0%E7%89%A9%E5%8C%BB%E9%99%A2%28%E8%BD%A6%E7%AB%99%E5%8C%97%E8%B7%AF%E5%BA%97%29&src=vetmap&coordinate=gaode&callnative=1","route_id":"r1","route_name":"第1段"},{"name":"潘玉良宠物门诊","address":"光武中路与工业北路交叉口北50米","phone":"15938461099","category":"医疗保健服务;动物医疗场所;宠物诊所","area":"南阳","lng":112.529737,"lat":33.009447,"amap_id":"B0FFK56A6N","order":21,"prev_distance_km":0.864,"cumulative_distance_km":53.893,"amap_marker_url":"https://uri.amap.com/marker?position=112.529737,33.009447&name=%E6%BD%98%E7%8E%89%E8%89%AF%E5%AE%A0%E7%89%A9%E9%97%A8%E8%AF%8A&src=vetmap&coordinate=gaode&callnative=1","route_id":"r1","route_name":"第1段"},{"name":"宠悦宠物医院","address":"盛世龙源西区东南2门北50米","phone":"18538968677","category":"医疗保健服务;动物医疗场所;宠物诊所","area":"南阳","lng":112.529008,"lat":33.005972,"amap_id":"B0J3VZ7Q0Q","order":22,"prev_distance_km":0.392,"cumulative_distance_km":54.285,"amap_marker_url":"https://uri.amap.com/marker?position=112.529008,33.005972&name=%E5%AE%A0%E6%82%A6%E5%AE%A0%E7%89%A9%E5%8C%BB%E9%99%A2&src=vetmap&coordinate=gaode&callnative=1","route_id":"r1","route_name":"第1段"},{"name":"兽医门诊","address":"丝织厂后街与大官庄街交叉口东160米","phone":"15537788612","category":"医疗保健服务;动物医疗场所;兽医站","area":"南阳","lng":112.534032,"lat":33.006937,"amap_id":"B0FFJL9FES","order":23,"prev_distance_km":0.481,"cumulative_distance_km":54.766,"amap_marker_url":"https://uri.amap.com/marker?position=112.534032,33.006937&name=%E5%85%BD%E5%8C%BB%E9%97%A8%E8%AF%8A&src=vetmap&coordinate=gaode&callnative=1","route_id":"r1","route_name":"第1段"},{"name":"常康动物门诊","address":"丝织厂后街150号","phone":"13569290252","category":"医疗保健服务;动物医疗场所;宠物诊所","area":"南阳","lng":112.53409,"lat":33.006794,"amap_id":"B0FFJL97F9","order":24,"prev_distance_km":0.017,"cumulative_distance_km":54.782,"amap_marker_url":"https://uri.amap.com/marker?position=112.534090,33.006794&name=%E5%B8%B8%E5%BA%B7%E5%8A%A8%E7%89%A9%E9%97%A8%E8%AF%8A&src=vetmap&coordinate=gaode&callnative=1","route_id":"r1","route_name":"第1段"},{"name":"南阳市疫控中心动物医院","address":"丝织厂后街129号附近(丝织厂后街179号)","phone":"13643999951;15838432229","category":"医疗保健服务;动物医疗场所;宠物诊所|医疗保健服务;动物医疗场所;兽医站","area":"南阳","lng":112.534226,"lat":33.006784,"amap_id":"B0FFGIBAIP","order":25,"prev_distance_km":0.013,"cumulative_distance_km":54.795,"amap_marker_url":"https://uri.amap.com/marker?position=112.534226,33.006784&name=%E5%8D%97%E9%98%B3%E5%B8%82%E7%96%AB%E6%8E%A7%E4%B8%AD%E5%BF%83%E5%8A%A8%E7%89%A9%E5%8C%BB%E9%99%A2&src=vetmap&coordinate=gaode&callnative=1","route_id":"r1","route_name":"第1段"},{"name":"李医生宠物诊所","address":"丝织厂后街","phone":"13938959485","category":"医疗保健服务;动物医疗场所;宠物诊所","area":"南阳","lng":112.53548,"lat":33.006717,"amap_id":"B0FFL2HQUC","order":26,"prev_distance_km":0.117,"cumulative_distance_km":54.912,"amap_marker_url":"https://uri.amap.com/marker?position=112.535480,33.006717&name=%E6%9D%8E%E5%8C%BB%E7%94%9F%E5%AE%A0%E7%89%A9%E8%AF%8A%E6%89%80&src=vetmap&coordinate=gaode&callnative=1","route_id":"r1","route_name":"第1段"},{"name":"郭长明动物疫病门诊","address":"摩天中心小区北门北50米","phone":"0377-63280365;18939223695","category":"医疗保健服务;动物医疗场所;宠物诊所|医疗保健服务;动物医疗场所;兽医站","area":"南阳","lng":112.535711,"lat":33.006671,"amap_id":"B01790258K","order":27,"prev_distance_km":0.022,"cumulative_distance_km":54.934,"amap_marker_url":"https://uri.amap.com/marker?position=112.535711,33.006671&name=%E9%83%AD%E9%95%BF%E6%98%8E%E5%8A%A8%E7%89%A9%E7%96%AB%E7%97%85%E9%97%A8%E8%AF%8A&src=vetmap&coordinate=gaode&callnative=1","route_id":"r1","route_name":"第1段"},{"name":"杜医生宠物门诊","address":"南阳市卧龙区光武街道工业路社区人大巷西头路南7-8号好的宠物医院宠物诊疗宠物洗澡宠物美容宠物寄养宠物用品","phone":"","category":"医疗保健服务;动物医疗场所;宠物诊所","area":"南阳","lng":112.535702,"lat":33.016177,"amap_id":"B0LR3XG5DB","order":28,"prev_distance_km":1.057,"cumulative_distance_km":55.992,"amap_marker_url":"https://uri.amap.com/marker?position=112.535702,33.016177&name=%E6%9D%9C%E5%8C%BB%E7%94%9F%E5%AE%A0%E7%89%A9%E9%97%A8%E8%AF%8A&src=vetmap&coordinate=gaode&callnative=1","route_id":"r1","route_name":"第1段"},{"name":"南阳市卧龙区豫宠联城宠物医院","address":"人民北路与范蠡路口向北20米路西","phone":"18625698120","category":"医疗保健服务;动物医疗场所;宠物诊所","area":"南阳","lng":112.538859,"lat":33.019488,"amap_id":"B0FFKW5BWN","order":29,"prev_distance_km":0.471,"cumulative_distance_km":56.463,"amap_marker_url":"https://uri.amap.com/marker?position=112.538859,33.019488&name=%E5%8D%97%E9%98%B3%E5%B8%82%E5%8D%A7%E9%BE%99%E5%8C%BA%E8%B1%AB%E5%AE%A0%E8%81%94%E5%9F%8E%E5%AE%A0%E7%89%A9%E5%8C%BB%E9%99%A2&src=vetmap&coordinate=gaode&callnative=1","route_id":"r1","route_name":"第1段"},{"name":"博爱宠物门诊(工业北路店)","address":"工业北路与张衡路交叉口向南200米路东","phone":"13525155375;18637727158","category":"医疗保健服务;动物医疗场所;宠物诊所","area":"人民北路","lng":112.537987,"lat":33.020813,"amap_id":"B0FFFGP18V","order":30,"prev_distance_km":0.168,"cumulative_distance_km":56.631,"amap_marker_url":"https://uri.amap.com/marker?position=112.537987,33.020813&name=%E5%8D%9A%E7%88%B1%E5%AE%A0%E7%89%A9%E9%97%A8%E8%AF%8A%28%E5%B7%A5%E4%B8%9A%E5%8C%97%E8%B7%AF%E5%BA%97%29&src=vetmap&coordinate=gaode&callnative=1","route_id":"r1","route_name":"第1段"},{"name":"福福宠物","address":"明山路与两相东路交叉口西北80米","phone":"15839531025","category":"医疗保健服务;动物医疗场所;动物医疗场所","area":"南阳","lng":112.560981,"lat":33.028262,"amap_id":"B0LDS72WQN","order":31,"prev_distance_km":2.298,"cumulative_distance_km":58.929,"amap_marker_url":"https://uri.amap.com/marker?position=112.560981,33.028262&name=%E7%A6%8F%E7%A6%8F%E5%AE%A0%E7%89%A9&src=vetmap&coordinate=gaode&callnative=1","route_id":"r1","route_name":"第1段"},{"name":"医直宠宠物医院万悦城","address":"儒林商都c区5号楼102","phone":"19139267120","category":"医疗保健服务;动物医疗场所;宠物诊所","area":"","lng":112.577473,"lat":33.011858,"amap_id":"B0LB2RS4BG","order":32,"prev_distance_km":2.386,"cumulative_distance_km":61.315,"amap_marker_url":"https://uri.amap.com/marker?position=112.577473,33.011858&name=%E5%8C%BB%E7%9B%B4%E5%AE%A0%E5%AE%A0%E7%89%A9%E5%8C%BB%E9%99%A2%E4%B8%87%E6%82%A6%E5%9F%8E&src=vetmap&coordinate=gaode&callnative=1","route_id":"r1","route_name":"第1段"},{"name":"优爱国际动物医院","address":"汉冶街道如意路金苑如意广场南门4号楼14号商铺","phone":"15539915866","category":"医疗保健服务;动物医疗场所;动物医疗场所","area":"","lng":112.579525,"lat":33.017675,"amap_id":"B0J2S7QU70","order":33,"prev_distance_km":0.675,"cumulative_distance_km":61.99,"amap_marker_url":"https://uri.amap.com/marker?position=112.579525,33.017675&name=%E4%BC%98%E7%88%B1%E5%9B%BD%E9%99%85%E5%8A%A8%E7%89%A9%E5%8C%BB%E9%99%A2&src=vetmap&coordinate=gaode&callnative=1","route_id":"r1","route_name":"第1段"},{"name":"兽医站门诊","address":"蒲山路与丰山路交叉口东北140米","phone":"","category":"医疗保健服务;动物医疗场所;兽医站","area":"","lng":112.59496,"lat":33.110967,"amap_id":"B0J2SB7OGG","order":34,"prev_distance_km":10.473,"cumulative_distance_km":72.462,"amap_marker_url":"https://uri.amap.com/marker?position=112.594960,33.110967&name=%E5%85%BD%E5%8C%BB%E7%AB%99%E9%97%A8%E8%AF%8A&src=vetmap&coordinate=gaode&callnative=1","route_id":"r1","route_name":"第1段"},{"name":"石桥镇付红兽医门诊","address":"石桥镇派出所北(231省道)","phone":"","category":"医疗保健服务;动物医疗场所;兽医站","area":"","lng":112.614455,"lat":33.174787,"amap_id":"B0KD7SVE3S","order":35,"prev_distance_km":7.325,"cumulative_distance_km":79.787,"amap_marker_url":"https://uri.amap.com/marker?position=112.614455,33.174787&name=%E7%9F%B3%E6%A1%A5%E9%95%87%E4%BB%98%E7%BA%A2%E5%85%BD%E5%8C%BB%E9%97%A8%E8%AF%8A&src=vetmap&coordinate=gaode&callnative=1","route_id":"r1","route_name":"第1段"},{"name":"周孟兽医门诊","address":"石桥镇白河街鄂城路169号","phone":"15093028265","category":"医疗保健服务;动物医疗场所;宠物诊所","area":"","lng":112.624288,"lat":33.177218,"amap_id":"B0K3KCMK3X","order":36,"prev_distance_km":0.954,"cumulative_distance_km":80.742,"amap_marker_url":"https://uri.amap.com/marker?position=112.624288,33.177218&name=%E5%91%A8%E5%AD%9F%E5%85%BD%E5%8C%BB%E9%97%A8%E8%AF%8A&src=vetmap&coordinate=gaode&callnative=1","route_id":"r1","route_name":"第1段"},{"name":"猫狗宠物美容店","address":"石桥镇白河街东段路南169号","phone":"15093028265","category":"医疗保健服务;动物医疗场所;动物医疗场所","area":"","lng":112.624267,"lat":33.177285,"amap_id":"B0K3VLNUXC","order":37,"prev_distance_km":0.008,"cumulative_distance_km":80.749,"amap_marker_url":"https://uri.amap.com/marker?position=112.624267,33.177285&name=%E7%8C%AB%E7%8B%97%E5%AE%A0%E7%89%A9%E7%BE%8E%E5%AE%B9%E5%BA%97&src=vetmap&coordinate=gaode&callnative=1","route_id":"r1","route_name":"第1段"}]}],"rows":[{"name":"老曾兽医","address":"中心大街与010乡道交叉口北280米","phone":"","category":"医疗保健服务;动物医疗场所;兽医站","area":"","lng":112.452175,"lat":32.832875,"amap_id":"B0LKB1UIZP","order":1,"prev_distance_km":0.0,"cumulative_distance_km":0.0,"amap_marker_url":"https://uri.amap.com/marker?position=112.452175,32.832875&name=%E8%80%81%E6%9B%BE%E5%85%BD%E5%8C%BB&src=vetmap&coordinate=gaode&callnative=1","route_id":"r1","route_name":"第1段","global_order":1},{"name":"兽医站门诊","address":"赵碧诊所东侧","phone":"13937795178;18338327602","category":"医疗保健服务;动物医疗场所;兽医站","area":"","lng":112.333711,"lat":32.886107,"amap_id":"B0FFLKHK5D","order":2,"prev_distance_km":12.549,"cumulative_distance_km":12.549,"amap_marker_url":"https://uri.amap.com/marker?position=112.333711,32.886107&name=%E5%85%BD%E5%8C%BB%E7%AB%99%E9%97%A8%E8%AF%8A&src=vetmap&coordinate=gaode&callnative=1","route_id":"r1","route_name":"第1段","global_order":2},{"name":"青华镇兽医站","address":"青华镇财政所东南侧70米","phone":"","category":"医疗保健服务;动物医疗场所;兽医站","area":"","lng":112.333617,"lat":32.886188,"amap_id":"B0KBFOTYVX","order":3,"prev_distance_km":0.013,"cumulative_distance_km":12.561,"amap_marker_url":"https://uri.amap.com/marker?position=112.333617,32.886188&name=%E9%9D%92%E5%8D%8E%E9%95%87%E5%85%BD%E5%8C%BB%E7%AB%99&src=vetmap&coordinate=gaode&callnative=1","route_id":"r1","route_name":"第1段","global_order":3},{"name":"动物门诊","address":"312国道南100米","phone":"13037688528","category":"医疗保健服务;动物医疗场所;宠物诊所","area":"","lng":112.42032,"lat":33.014053,"amap_id":"B0FFK7JXX9","order":4,"prev_distance_km":16.359,"cumulative_distance_km":28.92,"amap_marker_url":"https://uri.amap.com/marker?position=112.420320,33.014053&name=%E5%8A%A8%E7%89%A9%E9%97%A8%E8%AF%8A&src=vetmap&coordinate=gaode&callnative=1","route_id":"r1","route_name":"第1段","global_order":4},{"name":"理想动物门诊","address":"潘庄文化广场西南侧70米","phone":"","category":"医疗保健服务;动物医疗场所;宠物诊所","area":"","lng":112.484888,"lat":32.959706,"amap_id":"B0J0JAVA9F","order":5,"prev_distance_km":8.532,"cumulative_distance_km":37.451,"amap_marker_url":"https://uri.amap.com/marker?position=112.484888,32.959706&name=%E7%90%86%E6%83%B3%E5%8A%A8%E7%89%A9%E9%97%A8%E8%AF%8A&src=vetmap&coordinate=gaode&callnative=1","route_id":"r1","route_name":"第1段","global_order":5},{"name":"医昇宠宠物医院(北京路店)","address":"西施兰花园北门西70米","phone":"18337735120","category":"医疗保健服务;动物医疗场所;宠物诊所","area":"南阳","lng":112.498486,"lat":32.969383,"amap_id":"B0M6F7ZK03","order":6,"prev_distance_km":1.663,"cumulative_distance_km":39.115,"amap_marker_url":"https://uri.amap.com/marker?position=112.498486,32.969383&name=%E5%8C%BB%E6%98%87%E5%AE%A0%E5%AE%A0%E7%89%A9%E5%8C%BB%E9%99%A2%28%E5%8C%97%E4%BA%AC%E8%B7%AF%E5%BA%97%29&src=vetmap&coordinate=gaode&callnative=1","route_id":"r1","route_name":"第1段","global_order":6},{"name":"旺康宠物医院","address":"汉江路金河路交叉口北50米路西","phone":"15893361977","category":"医疗保健服务;动物医疗场所;宠物诊所","area":"南阳","lng":112.510763,"lat":32.963947,"amap_id":"B0FFFWTNVZ","order":7,"prev_distance_km":1.295,"cumulative_distance_km":40.41,"amap_marker_url":"https://uri.amap.com/marker?position=112.510763,32.963947&name=%E6%97%BA%E5%BA%B7%E5%AE%A0%E7%89%A9%E5%8C%BB%E9%99%A2&src=vetmap&coordinate=gaode&callnative=1","route_id":"r1","route_name":"第1段","global_order":7},{"name":"健康宠物诊所","address":"汉江路健康宠物诊疗","phone":"15225636116;19562677262","category":"医疗保健服务;动物医疗场所;宠物诊所","area":"南阳","lng":112.513214,"lat":32.962729,"amap_id":"B0J23M05LG","order":8,"prev_distance_km":0.266,"cumulative_distance_km":40.676,"amap_marker_url":"https://uri.amap.com/marker?position=112.513214,32.962729&name=%E5%81%A5%E5%BA%B7%E5%AE%A0%E7%89%A9%E8%AF%8A%E6%89%80&src=vetmap&coordinate=gaode&callnative=1","route_id":"r1","route_name":"第1段","global_order":8},{"name":"医直宠宠物医院(卧龙路店)","address":"卧龙路","phone":"15670299892","category":"医疗保健服务;动物医疗场所;宠物诊所","area":"南阳","lng":112.51582,"lat":32.97889,"amap_id":"B0LBXUJH51","order":9,"prev_distance_km":1.813,"cumulative_distance_km":42.489,"amap_marker_url":"https://uri.amap.com/marker?position=112.515820,32.978890&name=%E5%8C%BB%E7%9B%B4%E5%AE%A0%E5%AE%A0%E7%89%A9%E5%8C%BB%E9%99%A2%28%E5%8D%A7%E9%BE%99%E8%B7%AF%E5%BA%97%29&src=vetmap&coordinate=gaode&callnative=1","route_id":"r1","route_name":"第1段","global_order":9},{"name":"博康动物医院","address":"武侯路61号","phone":"13103771217","category":"医疗保健服务;动物医疗场所;宠物诊所","area":"南阳","lng":112.51013,"lat":32.983035,"amap_id":"B0FFFGPDJW","order":10,"prev_distance_km":0.703,"cumulative_distance_km":43.192,"amap_marker_url":"https://uri.amap.com/marker?position=112.510130,32.983035&name=%E5%8D%9A%E5%BA%B7%E5%8A%A8%E7%89%A9%E5%8C%BB%E9%99%A2&src=vetmap&coordinate=gaode&callnative=1","route_id":"r1","route_name":"第1段","global_order":10},{"name":"牧康宠物医院(车站路店)","address":"车站路和武侯路交叉口往北100米路西牧康宠物医院","phone":"15038785713","category":"医疗保健服务;动物医疗场所;宠物诊所","area":"南阳","lng":112.511545,"lat":32.984033,"amap_id":"B0JKRSRZLZ","order":11,"prev_distance_km":0.172,"cumulative_distance_km":43.364,"amap_marker_url":"https://uri.amap.com/marker?position=112.511545,32.984033&name=%E7%89%A7%E5%BA%B7%E5%AE%A0%E7%89%A9%E5%8C%BB%E9%99%A2%28%E8%BD%A6%E7%AB%99%E8%B7%AF%E5%BA%97%29&src=vetmap&coordinate=gaode&callnative=1","route_id":"r1","route_name":"第1段","global_order":11},{"name":"博爱动物服务部","address":"副食品巷与七一路交叉口西南100米","phone":"","category":"医疗保健服务;动物医疗场所;宠物诊所","area":"七一路","lng":112.516268,"lat":32.985102,"amap_id":"B0K2M7RHOJ","order":12,"prev_distance_km":0.456,"cumulative_distance_km":43.821,"amap_marker_url":"https://uri.amap.com/marker?position=112.516268,32.985102&name=%E5%8D%9A%E7%88%B1%E5%8A%A8%E7%89%A9%E6%9C%8D%E5%8A%A1%E9%83%A8&src=vetmap&coordinate=gaode&callnative=1","route_id":"r1","route_name":"第1段","global_order":12},{"name":"福源畜禽病门诊","address":"副食品巷与七一路交叉口南120米","phone":"13949363410","category":"医疗保健服务;动物医疗场所;兽医站","area":"南阳","lng":112.516455,"lat":32.984786,"amap_id":"B0FFG9DTK0","order":13,"prev_distance_km":0.039,"cumulative_distance_km":43.86,"amap_marker_url":"https://uri.amap.com/marker?position=112.516455,32.984786&name=%E7%A6%8F%E6%BA%90%E7%95%9C%E7%A6%BD%E7%97%85%E9%97%A8%E8%AF%8A&src=vetmap&coordinate=gaode&callnative=1","route_id":"r1","route_name":"第1段","global_order":13},{"name":"淯阳宠物医院","address":"梅溪路与滨河路交叉口向北二百米路东","phone":"18203807885","category":"医疗保健服务;动物医疗场所;宠物诊所","area":"南阳","lng":112.532289,"lat":32.985128,"amap_id":"B0FFKCF7BZ","order":14,"prev_distance_km":1.477,"cumulative_distance_km":45.337,"amap_marker_url":"https://uri.amap.com/marker?position=112.532289,32.985128&name=%E6%B7%AF%E9%98%B3%E5%AE%A0%E7%89%A9%E5%8C%BB%E9%99%A2&src=vetmap&coordinate=gaode&callnative=1","route_id":"r1","route_name":"第1段","global_order":14},{"name":"爱康宠物医院","address":"梅溪路南阳电影城南20米路西","phone":"13837193552","category":"医疗保健服务;动物医疗场所;宠物诊所","area":"梅溪路","lng":112.531219,"lat":32.993589,"amap_id":"B0FFJR0ZP1","order":15,"prev_distance_km":0.946,"cumulative_distance_km":46.283,"amap_marker_url":"https://uri.amap.com/marker?position=112.531219,32.993589&name=%E7%88%B1%E5%BA%B7%E5%AE%A0%E7%89%A9%E5%8C%BB%E9%99%A2&src=vetmap&coordinate=gaode&callnative=1","route_id":"r1","route_name":"第1段","global_order":15},{"name":"初欣动物医院(中州路店)","address":"中州路与文化路口向西50米路北446号门口商铺第101.201号","phone":"15565768937;15839980576;18567155120","category":"医疗保健服务;动物医疗场所;宠物诊所","area":"新华路","lng":112.525836,"lat":32.991335,"amap_id":"B0KGZ555BD","order":16,"prev_distance_km":0.561,"cumulative_distance_km":46.845,"amap_marker_url":"https://uri.amap.com/marker?position=112.525836,32.991335&name=%E5%88%9D%E6%AC%A3%E5%8A%A8%E7%89%A9%E5%8C%BB%E9%99%A2%28%E4%B8%AD%E5%B7%9E%E8%B7%AF%E5%BA%97%29&src=vetmap&coordinate=gaode&callnative=1","route_id":"r1","route_name":"第1段","global_order":16},{"name":"动物门诊","address":"百里奚南路1387附近","phone":"13673897491","category":"医疗保健服务;动物医疗场所;宠物诊所","area":"南阳","lng":112.505924,"lat":32.993946,"amap_id":"B0FFJ2VBZ8","order":17,"prev_distance_km":1.88,"cumulative_distance_km":48.724,"amap_marker_url":"https://uri.amap.com/marker?position=112.505924,32.993946&name=%E5%8A%A8%E7%89%A9%E9%97%A8%E8%AF%8A&src=vetmap&coordinate=gaode&callnative=1","route_id":"r1","route_name":"第1段","global_order":17},{"name":"麦萌动物医院","address":"北京大道与京达巷交叉口南100米路西","phone":"17527707097","category":"医疗保健服务;动物医疗场所;宠物诊所","area":"中州西路","lng":112.497773,"lat":32.995674,"amap_id":"B0L0BAU3W2","order":18,"prev_distance_km":0.784,"cumulative_distance_km":49.508,"amap_marker_url":"https://uri.amap.com/marker?position=112.497773,32.995674&name=%E9%BA%A6%E8%90%8C%E5%8A%A8%E7%89%A9%E5%8C%BB%E9%99%A2&src=vetmap&coordinate=gaode&callnative=1","route_id":"r1","route_name":"第1段","global_order":18},{"name":"大橘家宠物门诊","address":"百里奚南路与建设西路交叉口北60米","phone":"13938969610","category":"医疗保健服务;动物医疗场所;宠物诊所","area":"南阳","lng":112.516318,"lat":33.01043,"amap_id":"B0L0UXXO8R","order":19,"prev_distance_km":2.384,"cumulative_distance_km":51.892,"amap_marker_url":"https://uri.amap.com/marker?position=112.516318,33.010430&name=%E5%A4%A7%E6%A9%98%E5%AE%B6%E5%AE%A0%E7%89%A9%E9%97%A8%E8%AF%8A&src=vetmap&coordinate=gaode&callnative=1","route_id":"r1","route_name":"第1段","global_order":19},{"name":"京旭宠物医院(车站北路店)","address":"车站北路与范蠡西路交叉口西南240米","phone":"17550333781","category":"医疗保健服务;动物医疗场所;宠物诊所","area":"南阳","lng":112.52606,"lat":33.016577,"amap_id":"B0HAYU04I1","order":20,"prev_distance_km":1.137,"cumulative_distance_km":53.029,"amap_marker_url":"https://uri.amap.com/marker?position=112.526060,33.016577&name=%E4%BA%AC%E6%97%AD%E5%AE%A0%E7%89%A9%E5%8C%BB%E9%99%A2%28%E8%BD%A6%E7%AB%99%E5%8C%97%E8%B7%AF%E5%BA%97%29&src=vetmap&coordinate=gaode&callnative=1","route_id":"r1","route_name":"第1段","global_order":20},{"name":"潘玉良宠物门诊","address":"光武中路与工业北路交叉口北50米","phone":"15938461099","category":"医疗保健服务;动物医疗场所;宠物诊所","area":"南阳","lng":112.529737,"lat":33.009447,"amap_id":"B0FFK56A6N","order":21,"prev_distance_km":0.864,"cumulative_distance_km":53.893,"amap_marker_url":"https://uri.amap.com/marker?position=112.529737,33.009447&name=%E6%BD%98%E7%8E%89%E8%89%AF%E5%AE%A0%E7%89%A9%E9%97%A8%E8%AF%8A&src=vetmap&coordinate=gaode&callnative=1","route_id":"r1","route_name":"第1段","global_order":21},{"name":"宠悦宠物医院","address":"盛世龙源西区东南2门北50米","phone":"18538968677","category":"医疗保健服务;动物医疗场所;宠物诊所","area":"南阳","lng":112.529008,"lat":33.005972,"amap_id":"B0J3VZ7Q0Q","order":22,"prev_distance_km":0.392,"cumulative_distance_km":54.285,"amap_marker_url":"https://uri.amap.com/marker?position=112.529008,33.005972&name=%E5%AE%A0%E6%82%A6%E5%AE%A0%E7%89%A9%E5%8C%BB%E9%99%A2&src=vetmap&coordinate=gaode&callnative=1","route_id":"r1","route_name":"第1段","global_order":22},{"name":"兽医门诊","address":"丝织厂后街与大官庄街交叉口东160米","phone":"15537788612","category":"医疗保健服务;动物医疗场所;兽医站","area":"南阳","lng":112.534032,"lat":33.006937,"amap_id":"B0FFJL9FES","order":23,"prev_distance_km":0.481,"cumulative_distance_km":54.766,"amap_marker_url":"https://uri.amap.com/marker?position=112.534032,33.006937&name=%E5%85%BD%E5%8C%BB%E9%97%A8%E8%AF%8A&src=vetmap&coordinate=gaode&callnative=1","route_id":"r1","route_name":"第1段","global_order":23},{"name":"常康动物门诊","address":"丝织厂后街150号","phone":"13569290252","category":"医疗保健服务;动物医疗场所;宠物诊所","area":"南阳","lng":112.53409,"lat":33.006794,"amap_id":"B0FFJL97F9","order":24,"prev_distance_km":0.017,"cumulative_distance_km":54.782,"amap_marker_url":"https://uri.amap.com/marker?position=112.534090,33.006794&name=%E5%B8%B8%E5%BA%B7%E5%8A%A8%E7%89%A9%E9%97%A8%E8%AF%8A&src=vetmap&coordinate=gaode&callnative=1","route_id":"r1","route_name":"第1段","global_order":24},{"name":"南阳市疫控中心动物医院","address":"丝织厂后街129号附近(丝织厂后街179号)","phone":"13643999951;15838432229","category":"医疗保健服务;动物医疗场所;宠物诊所|医疗保健服务;动物医疗场所;兽医站","area":"南阳","lng":112.534226,"lat":33.006784,"amap_id":"B0FFGIBAIP","order":25,"prev_distance_km":0.013,"cumulative_distance_km":54.795,"amap_marker_url":"https://uri.amap.com/marker?position=112.534226,33.006784&name=%E5%8D%97%E9%98%B3%E5%B8%82%E7%96%AB%E6%8E%A7%E4%B8%AD%E5%BF%83%E5%8A%A8%E7%89%A9%E5%8C%BB%E9%99%A2&src=vetmap&coordinate=gaode&callnative=1","route_id":"r1","route_name":"第1段","global_order":25},{"name":"李医生宠物诊所","address":"丝织厂后街","phone":"13938959485","category":"医疗保健服务;动物医疗场所;宠物诊所","area":"南阳","lng":112.53548,"lat":33.006717,"amap_id":"B0FFL2HQUC","order":26,"prev_distance_km":0.117,"cumulative_distance_km":54.912,"amap_marker_url":"https://uri.amap.com/marker?position=112.535480,33.006717&name=%E6%9D%8E%E5%8C%BB%E7%94%9F%E5%AE%A0%E7%89%A9%E8%AF%8A%E6%89%80&src=vetmap&coordinate=gaode&callnative=1","route_id":"r1","route_name":"第1段","global_order":26},{"name":"郭长明动物疫病门诊","address":"摩天中心小区北门北50米","phone":"0377-63280365;18939223695","category":"医疗保健服务;动物医疗场所;宠物诊所|医疗保健服务;动物医疗场所;兽医站","area":"南阳","lng":112.535711,"lat":33.006671,"amap_id":"B01790258K","order":27,"prev_distance_km":0.022,"cumulative_distance_km":54.934,"amap_marker_url":"https://uri.amap.com/marker?position=112.535711,33.006671&name=%E9%83%AD%E9%95%BF%E6%98%8E%E5%8A%A8%E7%89%A9%E7%96%AB%E7%97%85%E9%97%A8%E8%AF%8A&src=vetmap&coordinate=gaode&callnative=1","route_id":"r1","route_name":"第1段","global_order":27},{"name":"杜医生宠物门诊","address":"南阳市卧龙区光武街道工业路社区人大巷西头路南7-8号好的宠物医院宠物诊疗宠物洗澡宠物美容宠物寄养宠物用品","phone":"","category":"医疗保健服务;动物医疗场所;宠物诊所","area":"南阳","lng":112.535702,"lat":33.016177,"amap_id":"B0LR3XG5DB","order":28,"prev_distance_km":1.057,"cumulative_distance_km":55.992,"amap_marker_url":"https://uri.amap.com/marker?position=112.535702,33.016177&name=%E6%9D%9C%E5%8C%BB%E7%94%9F%E5%AE%A0%E7%89%A9%E9%97%A8%E8%AF%8A&src=vetmap&coordinate=gaode&callnative=1","route_id":"r1","route_name":"第1段","global_order":28},{"name":"南阳市卧龙区豫宠联城宠物医院","address":"人民北路与范蠡路口向北20米路西","phone":"18625698120","category":"医疗保健服务;动物医疗场所;宠物诊所","area":"南阳","lng":112.538859,"lat":33.019488,"amap_id":"B0FFKW5BWN","order":29,"prev_distance_km":0.471,"cumulative_distance_km":56.463,"amap_marker_url":"https://uri.amap.com/marker?position=112.538859,33.019488&name=%E5%8D%97%E9%98%B3%E5%B8%82%E5%8D%A7%E9%BE%99%E5%8C%BA%E8%B1%AB%E5%AE%A0%E8%81%94%E5%9F%8E%E5%AE%A0%E7%89%A9%E5%8C%BB%E9%99%A2&src=vetmap&coordinate=gaode&callnative=1","route_id":"r1","route_name":"第1段","global_order":29},{"name":"博爱宠物门诊(工业北路店)","address":"工业北路与张衡路交叉口向南200米路东","phone":"13525155375;18637727158","category":"医疗保健服务;动物医疗场所;宠物诊所","area":"人民北路","lng":112.537987,"lat":33.020813,"amap_id":"B0FFFGP18V","order":30,"prev_distance_km":0.168,"cumulative_distance_km":56.631,"amap_marker_url":"https://uri.amap.com/marker?position=112.537987,33.020813&name=%E5%8D%9A%E7%88%B1%E5%AE%A0%E7%89%A9%E9%97%A8%E8%AF%8A%28%E5%B7%A5%E4%B8%9A%E5%8C%97%E8%B7%AF%E5%BA%97%29&src=vetmap&coordinate=gaode&callnative=1","route_id":"r1","route_name":"第1段","global_order":30},{"name":"福福宠物","address":"明山路与两相东路交叉口西北80米","phone":"15839531025","category":"医疗保健服务;动物医疗场所;动物医疗场所","area":"南阳","lng":112.560981,"lat":33.028262,"amap_id":"B0LDS72WQN","order":31,"prev_distance_km":2.298,"cumulative_distance_km":58.929,"amap_marker_url":"https://uri.amap.com/marker?position=112.560981,33.028262&name=%E7%A6%8F%E7%A6%8F%E5%AE%A0%E7%89%A9&src=vetmap&coordinate=gaode&callnative=1","route_id":"r1","route_name":"第1段","global_order":31},{"name":"医直宠宠物医院万悦城","address":"儒林商都c区5号楼102","phone":"19139267120","category":"医疗保健服务;动物医疗场所;宠物诊所","area":"","lng":112.577473,"lat":33.011858,"amap_id":"B0LB2RS4BG","order":32,"prev_distance_km":2.386,"cumulative_distance_km":61.315,"amap_marker_url":"https://uri.amap.com/marker?position=112.577473,33.011858&name=%E5%8C%BB%E7%9B%B4%E5%AE%A0%E5%AE%A0%E7%89%A9%E5%8C%BB%E9%99%A2%E4%B8%87%E6%82%A6%E5%9F%8E&src=vetmap&coordinate=gaode&callnative=1","route_id":"r1","route_name":"第1段","global_order":32},{"name":"优爱国际动物医院","address":"汉冶街道如意路金苑如意广场南门4号楼14号商铺","phone":"15539915866","category":"医疗保健服务;动物医疗场所;动物医疗场所","area":"","lng":112.579525,"lat":33.017675,"amap_id":"B0J2S7QU70","order":33,"prev_distance_km":0.675,"cumulative_distance_km":61.99,"amap_marker_url":"https://uri.amap.com/marker?position=112.579525,33.017675&name=%E4%BC%98%E7%88%B1%E5%9B%BD%E9%99%85%E5%8A%A8%E7%89%A9%E5%8C%BB%E9%99%A2&src=vetmap&coordinate=gaode&callnative=1","route_id":"r1","route_name":"第1段","global_order":33},{"name":"兽医站门诊","address":"蒲山路与丰山路交叉口东北140米","phone":"","category":"医疗保健服务;动物医疗场所;兽医站","area":"","lng":112.59496,"lat":33.110967,"amap_id":"B0J2SB7OGG","order":34,"prev_distance_km":10.473,"cumulative_distance_km":72.462,"amap_marker_url":"https://uri.amap.com/marker?position=112.594960,33.110967&name=%E5%85%BD%E5%8C%BB%E7%AB%99%E9%97%A8%E8%AF%8A&src=vetmap&coordinate=gaode&callnative=1","route_id":"r1","route_name":"第1段","global_order":34},{"name":"石桥镇付红兽医门诊","address":"石桥镇派出所北(231省道)","phone":"","category":"医疗保健服务;动物医疗场所;兽医站","area":"","lng":112.614455,"lat":33.174787,"amap_id":"B0KD7SVE3S","order":35,"prev_distance_km":7.325,"cumulative_distance_km":79.787,"amap_marker_url":"https://uri.amap.com/marker?position=112.614455,33.174787&name=%E7%9F%B3%E6%A1%A5%E9%95%87%E4%BB%98%E7%BA%A2%E5%85%BD%E5%8C%BB%E9%97%A8%E8%AF%8A&src=vetmap&coordinate=gaode&callnative=1","route_id":"r1","route_name":"第1段","global_order":35},{"name":"周孟兽医门诊","address":"石桥镇白河街鄂城路169号","phone":"15093028265","category":"医疗保健服务;动物医疗场所;宠物诊所","area":"","lng":112.624288,"lat":33.177218,"amap_id":"B0K3KCMK3X","order":36,"prev_distance_km":0.954,"cumulative_distance_km":80.742,"amap_marker_url":"https://uri.amap.com/marker?position=112.624288,33.177218&name=%E5%91%A8%E5%AD%9F%E5%85%BD%E5%8C%BB%E9%97%A8%E8%AF%8A&src=vetmap&coordinate=gaode&callnative=1","route_id":"r1","route_name":"第1段","global_order":36},{"name":"猫狗宠物美容店","address":"石桥镇白河街东段路南169号","phone":"15093028265","category":"医疗保健服务;动物医疗场所;动物医疗场所","area":"","lng":112.624267,"lat":33.177285,"amap_id":"B0K3VLNUXC","order":37,"prev_distance_km":0.008,"cumulative_distance_km":80.749,"amap_marker_url":"https://uri.amap.com/marker?position=112.624267,33.177285&name=%E7%8C%AB%E7%8B%97%E5%AE%A0%E7%89%A9%E7%BE%8E%E5%AE%B9%E5%BA%97&src=vetmap&coordinate=gaode&callnative=1","route_id":"r1","route_name":"第1段","global_order":37}]}