{"summary":{"id":"d01137","province":"河南省","city":"三门峡市","district":"渑池县","count":10,"total_distance_km":26.026,"coordinate_system":"GCJ-02 / Amap","generated_at":"2026-05-07 19:57:33"},"rows":[{"name":"朝锋动物医院","address":"昌泰花园西南门旁","phone":"0398-4822630;13939852501","category":"医疗保健服务;动物医疗场所;宠物诊所","area":"仰韶大街","lng":111.745251,"lat":34.762821,"amap_id":"B0FFHM17MD","order":1,"prev_distance_km":0.0,"cumulative_distance_km":0.0,"amap_marker_url":"https://uri.amap.com/marker?position=111.745251,34.762821&name=%E6%9C%9D%E9%94%8B%E5%8A%A8%E7%89%A9%E5%8C%BB%E9%99%A2&src=vetmap&coordinate=gaode&callnative=1"},{"name":"宠乐爱动物医院","address":"仰韶大道与文明路交叉口向南50米","phone":"15729021120","category":"医疗保健服务;动物医疗场所;宠物诊所","area":"仰韶大街","lng":111.755977,"lat":34.759595,"amap_id":"B0K0CABT09","order":2,"prev_distance_km":1.043,"cumulative_distance_km":1.043,"amap_marker_url":"https://uri.amap.com/marker?position=111.755977,34.759595&name=%E5%AE%A0%E4%B9%90%E7%88%B1%E5%8A%A8%E7%89%A9%E5%8C%BB%E9%99%A2&src=vetmap&coordinate=gaode&callnative=1"},{"name":"动安堂宠物诊所","address":"双拥路中段","phone":"18538887456","category":"医疗保健服务;动物医疗场所;宠物诊所","area":"","lng":111.758694,"lat":34.765076,"amap_id":"B0GKZM6RVS","order":3,"prev_distance_km":0.658,"cumulative_distance_km":1.701,"amap_marker_url":"https://uri.amap.com/marker?position=111.758694,34.765076&name=%E5%8A%A8%E5%AE%89%E5%A0%82%E5%AE%A0%E7%89%A9%E8%AF%8A%E6%89%80&src=vetmap&coordinate=gaode&callnative=1"},{"name":"动安堂动宠动物保健服务","address":"宜致大药房隔壁","phone":"18538887456","category":"医疗保健服务;动物医疗场所;宠物诊所","area":"","lng":111.758737,"lat":34.765394,"amap_id":"B0KG3HO9E2","order":4,"prev_distance_km":0.036,"cumulative_distance_km":1.737,"amap_marker_url":"https://uri.amap.com/marker?position=111.758737,34.765394&name=%E5%8A%A8%E5%AE%89%E5%A0%82%E5%8A%A8%E5%AE%A0%E5%8A%A8%E7%89%A9%E4%BF%9D%E5%81%A5%E6%9C%8D%E5%8A%A1&src=vetmap&coordinate=gaode&callnative=1"},{"name":"渑池优康畜禽技术服务部","address":"桥东路与黄河路交叉路口往南约50米(怡苑小区)","phone":"18039920717","category":"医疗保健服务;动物医疗场所;兽医站","area":"黄河路","lng":111.755465,"lat":34.772986,"amap_id":"B0HA2YNJPK","order":5,"prev_distance_km":0.896,"cumulative_distance_km":2.633,"amap_marker_url":"https://uri.amap.com/marker?position=111.755465,34.772986&name=%E6%B8%91%E6%B1%A0%E4%BC%98%E5%BA%B7%E7%95%9C%E7%A6%BD%E6%8A%80%E6%9C%AF%E6%9C%8D%E5%8A%A1%E9%83%A8&src=vetmap&coordinate=gaode&callnative=1"},{"name":"宠爱有家动物诊所","address":"城关镇中州国际大酒店后","phone":"15138161746","category":"医疗保健服务;动物医疗场所;宠物诊所","area":"黄河路","lng":111.763916,"lat":34.771033,"amap_id":"B0FFIV8U0A","order":6,"prev_distance_km":0.802,"cumulative_distance_km":3.434,"amap_marker_url":"https://uri.amap.com/marker?position=111.763916,34.771033&name=%E5%AE%A0%E7%88%B1%E6%9C%89%E5%AE%B6%E5%8A%A8%E7%89%A9%E8%AF%8A%E6%89%80&src=vetmap&coordinate=gaode&callnative=1"},{"name":"晓波宠物会所","address":"国诚广场东门南80米","phone":"15303756970","category":"医疗保健服务;动物医疗场所;动物医疗场所","area":"黄河路","lng":111.771898,"lat":34.767749,"amap_id":"B0K0PSU2SW","order":7,"prev_distance_km":0.815,"cumulative_distance_km":4.25,"amap_marker_url":"https://uri.amap.com/marker?position=111.771898,34.767749&name=%E6%99%93%E6%B3%A2%E5%AE%A0%E7%89%A9%E4%BC%9A%E6%89%80&src=vetmap&coordinate=gaode&callnative=1"},{"name":"安心动物医院","address":"韶山雅居竹园九号楼2号商铺","phone":"15539856622","category":"医疗保健服务;动物医疗场所;宠物诊所","area":"","lng":111.784589,"lat":34.776889,"amap_id":"B0L6YCKKUR","order":8,"prev_distance_km":1.542,"cumulative_distance_km":5.792,"amap_marker_url":"https://uri.amap.com/marker?position=111.784589,34.776889&name=%E5%AE%89%E5%BF%83%E5%8A%A8%E7%89%A9%E5%8C%BB%E9%99%A2&src=vetmap&coordinate=gaode&callnative=1"},{"name":"渑池县康泽宠物诊所","address":"新市场源海国际南150米","phone":"13653972620","category":"医疗保健服务;动物医疗场所;宠物诊所","area":"仰韶大街","lng":111.7812,"lat":34.761167,"amap_id":"B0H0L5IFUR","order":9,"prev_distance_km":1.775,"cumulative_distance_km":7.567,"amap_marker_url":"https://uri.amap.com/marker?position=111.781200,34.761167&name=%E6%B8%91%E6%B1%A0%E5%8E%BF%E5%BA%B7%E6%B3%BD%E5%AE%A0%E7%89%A9%E8%AF%8A%E6%89%80&src=vetmap&coordinate=gaode&callnative=1"},{"name":"庄稼动物医院","address":"天池镇西天池村村委会西侧270米","phone":"","category":"医疗保健服务;动物医疗场所;宠物诊所","area":"","lng":111.942689,"lat":34.661489,"amap_id":"B0I2HSZCPF","order":10,"prev_distance_km":18.459,"cumulative_distance_km":26.026,"amap_marker_url":"https://uri.amap.com/marker?position=111.942689,34.661489&name=%E5%BA%84%E7%A8%BC%E5%8A%A8%E7%89%A9%E5%8C%BB%E9%99%A2&src=vetmap&coordinate=gaode&callnative=1"}]}