{"summary":{"id":"d01194","province":"河南省","city":"平顶山市","district":"宝丰县","count":12,"route_count":1,"max_route_clinics":12,"total_distance_km":29.429,"coordinate_system":"GCJ-02 / Amap","generated_at":"2026-05-07 21:29:34"},"routes":[{"id":"r1","name":"第1段","count":12,"total_distance_km":29.429,"rows":[{"name":"佑安宠物医院","address":"中兴路与宝州路交叉口北100米","phone":"17637563803","category":"医疗保健服务;动物医疗场所;宠物诊所","area":"","lng":113.078825,"lat":33.875025,"amap_id":"B0L14R21GV","order":1,"prev_distance_km":0.0,"cumulative_distance_km":0.0,"amap_marker_url":"https://uri.amap.com/marker?position=113.078825,33.875025&name=%E4%BD%91%E5%AE%89%E5%AE%A0%E7%89%A9%E5%8C%BB%E9%99%A2&src=vetmap&coordinate=gaode&callnative=1","route_id":"r1","route_name":"第1段"},{"name":"康宠宠物药房","address":"人民路东段法院西300米路北(陈营新村牌坊正对面)","phone":"17537521008","category":"医疗保健服务;动物医疗场所;动物医疗场所","area":"","lng":113.080674,"lat":33.866056,"amap_id":"B0LROHWBNZ","order":2,"prev_distance_km":1.012,"cumulative_distance_km":1.012,"amap_marker_url":"https://uri.amap.com/marker?position=113.080674,33.866056&name=%E5%BA%B7%E5%AE%A0%E5%AE%A0%E7%89%A9%E8%8D%AF%E6%88%BF&src=vetmap&coordinate=gaode&callnative=1","route_id":"r1","route_name":"第1段"},{"name":"瑞汐宠物诊所","address":"东城国际门口向南66米","phone":"13017555021","category":"医疗保健服务;动物医疗场所;宠物诊所","area":"","lng":113.076561,"lat":33.863868,"amap_id":"B0IURAL6J3","order":3,"prev_distance_km":0.451,"cumulative_distance_km":1.463,"amap_marker_url":"https://uri.amap.com/marker?position=113.076561,33.863868&name=%E7%91%9E%E6%B1%90%E5%AE%A0%E7%89%A9%E8%AF%8A%E6%89%80&src=vetmap&coordinate=gaode&callnative=1","route_id":"r1","route_name":"第1段"},{"name":"霍德宠物中心医院","address":"迎宾大道博文世家北门2栋110铺","phone":"18537573555","category":"医疗保健服务;动物医疗场所;宠物诊所","area":"","lng":113.077269,"lat":33.858665,"amap_id":"B0L0TXBOQG","order":4,"prev_distance_km":0.582,"cumulative_distance_km":2.045,"amap_marker_url":"https://uri.amap.com/marker?position=113.077269,33.858665&name=%E9%9C%8D%E5%BE%B7%E5%AE%A0%E7%89%A9%E4%B8%AD%E5%BF%83%E5%8C%BB%E9%99%A2&src=vetmap&coordinate=gaode&callnative=1","route_id":"r1","route_name":"第1段"},{"name":"阳阳宠物医院医疗美容","address":"新世纪广场东排","phone":"15903758689;18613759016","category":"医疗保健服务;动物医疗场所;宠物诊所","area":"","lng":113.068885,"lat":33.858649,"amap_id":"B0FFFZTEGX","order":5,"prev_distance_km":0.774,"cumulative_distance_km":2.819,"amap_marker_url":"https://uri.amap.com/marker?position=113.068885,33.858649&name=%E9%98%B3%E9%98%B3%E5%AE%A0%E7%89%A9%E5%8C%BB%E9%99%A2%E5%8C%BB%E7%96%97%E7%BE%8E%E5%AE%B9&src=vetmap&coordinate=gaode&callnative=1","route_id":"r1","route_name":"第1段"},{"name":"梁晓辉兽药店","address":"迎宾大道188号","phone":"13592195297","category":"医疗保健服务;动物医疗场所;兽医站","area":"","lng":113.062056,"lat":33.861486,"amap_id":"B0FFF4IF48","order":6,"prev_distance_km":0.705,"cumulative_distance_km":3.524,"amap_marker_url":"https://uri.amap.com/marker?position=113.062056,33.861486&name=%E6%A2%81%E6%99%93%E8%BE%89%E5%85%BD%E8%8D%AF%E5%BA%97&src=vetmap&coordinate=gaode&callnative=1","route_id":"r1","route_name":"第1段"},{"name":"宝丰县兽医院","address":"龙兴北路与集贤巷交叉口东南20米","phone":"","category":"医疗保健服务;动物医疗场所;兽医站","area":"","lng":113.061949,"lat":33.864941,"amap_id":"B0FFITQQ7C","order":7,"prev_distance_km":0.384,"cumulative_distance_km":3.909,"amap_marker_url":"https://uri.amap.com/marker?position=113.061949,33.864941&name=%E5%AE%9D%E4%B8%B0%E5%8E%BF%E5%85%BD%E5%8C%BB%E9%99%A2&src=vetmap&coordinate=gaode&callnative=1","route_id":"r1","route_name":"第1段"},{"name":"众宠宠物医院","address":"龙兴北路与玉带河南路交叉口南60米","phone":"","category":"医疗保健服务;动物医疗场所;宠物诊所","area":"","lng":113.062575,"lat":33.873725,"amap_id":"B0LKXCOZ38","order":8,"prev_distance_km":0.978,"cumulative_distance_km":4.887,"amap_marker_url":"https://uri.amap.com/marker?position=113.062575,33.873725&name=%E4%BC%97%E5%AE%A0%E5%AE%A0%E7%89%A9%E5%8C%BB%E9%99%A2&src=vetmap&coordinate=gaode&callnative=1","route_id":"r1","route_name":"第1段"},{"name":"李广畜牧服务站","address":"焦新线东30米","phone":"13592175713","category":"医疗保健服务;动物医疗场所;兽医站","area":"","lng":112.968363,"lat":33.866336,"amap_id":"B0H2CZS64W","order":9,"prev_distance_km":8.737,"cumulative_distance_km":13.624,"amap_marker_url":"https://uri.amap.com/marker?position=112.968363,33.866336&name=%E6%9D%8E%E5%B9%BF%E7%95%9C%E7%89%A7%E6%9C%8D%E5%8A%A1%E7%AB%99&src=vetmap&coordinate=gaode&callnative=1","route_id":"r1","route_name":"第1段"},{"name":"宠乐多宠物医疗","address":"大营镇兴宝路西段路南","phone":"15603758893","category":"医疗保健服务;动物医疗场所;宠物诊所","area":"","lng":112.886642,"lat":33.935984,"amap_id":"B0LR7AH4BJ","order":10,"prev_distance_km":10.81,"cumulative_distance_km":24.434,"amap_marker_url":"https://uri.amap.com/marker?position=112.886642,33.935984&name=%E5%AE%A0%E4%B9%90%E5%A4%9A%E5%AE%A0%E7%89%A9%E5%8C%BB%E7%96%97&src=vetmap&coordinate=gaode&callnative=1","route_id":"r1","route_name":"第1段"},{"name":"大富豪兽药城","address":"大营镇兴宝路西段","phone":"0375-6229689;13837545840","category":"医疗保健服务;动物医疗场所;动物医疗场所","area":"","lng":112.886436,"lat":33.936303,"amap_id":"B0FFFQ73JR","order":11,"prev_distance_km":0.04,"cumulative_distance_km":24.474,"amap_marker_url":"https://uri.amap.com/marker?position=112.886436,33.936303&name=%E5%A4%A7%E5%AF%8C%E8%B1%AA%E5%85%BD%E8%8D%AF%E5%9F%8E&src=vetmap&coordinate=gaode&callnative=1","route_id":"r1","route_name":"第1段"},{"name":"畜康动保中心","address":"何寨村村委会东侧120米","phone":"","category":"医疗保健服务;动物医疗场所;兽医站","area":"","lng":112.902975,"lat":33.978695,"amap_id":"B0KRTZXOO5","order":12,"prev_distance_km":4.954,"cumulative_distance_km":29.429,"amap_marker_url":"https://uri.amap.com/marker?position=112.902975,33.978695&name=%E7%95%9C%E5%BA%B7%E5%8A%A8%E4%BF%9D%E4%B8%AD%E5%BF%83&src=vetmap&coordinate=gaode&callnative=1","route_id":"r1","route_name":"第1段"}]}],"rows":[{"name":"佑安宠物医院","address":"中兴路与宝州路交叉口北100米","phone":"17637563803","category":"医疗保健服务;动物医疗场所;宠物诊所","area":"","lng":113.078825,"lat":33.875025,"amap_id":"B0L14R21GV","order":1,"prev_distance_km":0.0,"cumulative_distance_km":0.0,"amap_marker_url":"https://uri.amap.com/marker?position=113.078825,33.875025&name=%E4%BD%91%E5%AE%89%E5%AE%A0%E7%89%A9%E5%8C%BB%E9%99%A2&src=vetmap&coordinate=gaode&callnative=1","route_id":"r1","route_name":"第1段","global_order":1},{"name":"康宠宠物药房","address":"人民路东段法院西300米路北(陈营新村牌坊正对面)","phone":"17537521008","category":"医疗保健服务;动物医疗场所;动物医疗场所","area":"","lng":113.080674,"lat":33.866056,"amap_id":"B0LROHWBNZ","order":2,"prev_distance_km":1.012,"cumulative_distance_km":1.012,"amap_marker_url":"https://uri.amap.com/marker?position=113.080674,33.866056&name=%E5%BA%B7%E5%AE%A0%E5%AE%A0%E7%89%A9%E8%8D%AF%E6%88%BF&src=vetmap&coordinate=gaode&callnative=1","route_id":"r1","route_name":"第1段","global_order":2},{"name":"瑞汐宠物诊所","address":"东城国际门口向南66米","phone":"13017555021","category":"医疗保健服务;动物医疗场所;宠物诊所","area":"","lng":113.076561,"lat":33.863868,"amap_id":"B0IURAL6J3","order":3,"prev_distance_km":0.451,"cumulative_distance_km":1.463,"amap_marker_url":"https://uri.amap.com/marker?position=113.076561,33.863868&name=%E7%91%9E%E6%B1%90%E5%AE%A0%E7%89%A9%E8%AF%8A%E6%89%80&src=vetmap&coordinate=gaode&callnative=1","route_id":"r1","route_name":"第1段","global_order":3},{"name":"霍德宠物中心医院","address":"迎宾大道博文世家北门2栋110铺","phone":"18537573555","category":"医疗保健服务;动物医疗场所;宠物诊所","area":"","lng":113.077269,"lat":33.858665,"amap_id":"B0L0TXBOQG","order":4,"prev_distance_km":0.582,"cumulative_distance_km":2.045,"amap_marker_url":"https://uri.amap.com/marker?position=113.077269,33.858665&name=%E9%9C%8D%E5%BE%B7%E5%AE%A0%E7%89%A9%E4%B8%AD%E5%BF%83%E5%8C%BB%E9%99%A2&src=vetmap&coordinate=gaode&callnative=1","route_id":"r1","route_name":"第1段","global_order":4},{"name":"阳阳宠物医院医疗美容","address":"新世纪广场东排","phone":"15903758689;18613759016","category":"医疗保健服务;动物医疗场所;宠物诊所","area":"","lng":113.068885,"lat":33.858649,"amap_id":"B0FFFZTEGX","order":5,"prev_distance_km":0.774,"cumulative_distance_km":2.819,"amap_marker_url":"https://uri.amap.com/marker?position=113.068885,33.858649&name=%E9%98%B3%E9%98%B3%E5%AE%A0%E7%89%A9%E5%8C%BB%E9%99%A2%E5%8C%BB%E7%96%97%E7%BE%8E%E5%AE%B9&src=vetmap&coordinate=gaode&callnative=1","route_id":"r1","route_name":"第1段","global_order":5},{"name":"梁晓辉兽药店","address":"迎宾大道188号","phone":"13592195297","category":"医疗保健服务;动物医疗场所;兽医站","area":"","lng":113.062056,"lat":33.861486,"amap_id":"B0FFF4IF48","order":6,"prev_distance_km":0.705,"cumulative_distance_km":3.524,"amap_marker_url":"https://uri.amap.com/marker?position=113.062056,33.861486&name=%E6%A2%81%E6%99%93%E8%BE%89%E5%85%BD%E8%8D%AF%E5%BA%97&src=vetmap&coordinate=gaode&callnative=1","route_id":"r1","route_name":"第1段","global_order":6},{"name":"宝丰县兽医院","address":"龙兴北路与集贤巷交叉口东南20米","phone":"","category":"医疗保健服务;动物医疗场所;兽医站","area":"","lng":113.061949,"lat":33.864941,"amap_id":"B0FFITQQ7C","order":7,"prev_distance_km":0.384,"cumulative_distance_km":3.909,"amap_marker_url":"https://uri.amap.com/marker?position=113.061949,33.864941&name=%E5%AE%9D%E4%B8%B0%E5%8E%BF%E5%85%BD%E5%8C%BB%E9%99%A2&src=vetmap&coordinate=gaode&callnative=1","route_id":"r1","route_name":"第1段","global_order":7},{"name":"众宠宠物医院","address":"龙兴北路与玉带河南路交叉口南60米","phone":"","category":"医疗保健服务;动物医疗场所;宠物诊所","area":"","lng":113.062575,"lat":33.873725,"amap_id":"B0LKXCOZ38","order":8,"prev_distance_km":0.978,"cumulative_distance_km":4.887,"amap_marker_url":"https://uri.amap.com/marker?position=113.062575,33.873725&name=%E4%BC%97%E5%AE%A0%E5%AE%A0%E7%89%A9%E5%8C%BB%E9%99%A2&src=vetmap&coordinate=gaode&callnative=1","route_id":"r1","route_name":"第1段","global_order":8},{"name":"李广畜牧服务站","address":"焦新线东30米","phone":"13592175713","category":"医疗保健服务;动物医疗场所;兽医站","area":"","lng":112.968363,"lat":33.866336,"amap_id":"B0H2CZS64W","order":9,"prev_distance_km":8.737,"cumulative_distance_km":13.624,"amap_marker_url":"https://uri.amap.com/marker?position=112.968363,33.866336&name=%E6%9D%8E%E5%B9%BF%E7%95%9C%E7%89%A7%E6%9C%8D%E5%8A%A1%E7%AB%99&src=vetmap&coordinate=gaode&callnative=1","route_id":"r1","route_name":"第1段","global_order":9},{"name":"宠乐多宠物医疗","address":"大营镇兴宝路西段路南","phone":"15603758893","category":"医疗保健服务;动物医疗场所;宠物诊所","area":"","lng":112.886642,"lat":33.935984,"amap_id":"B0LR7AH4BJ","order":10,"prev_distance_km":10.81,"cumulative_distance_km":24.434,"amap_marker_url":"https://uri.amap.com/marker?position=112.886642,33.935984&name=%E5%AE%A0%E4%B9%90%E5%A4%9A%E5%AE%A0%E7%89%A9%E5%8C%BB%E7%96%97&src=vetmap&coordinate=gaode&callnative=1","route_id":"r1","route_name":"第1段","global_order":10},{"name":"大富豪兽药城","address":"大营镇兴宝路西段","phone":"0375-6229689;13837545840","category":"医疗保健服务;动物医疗场所;动物医疗场所","area":"","lng":112.886436,"lat":33.936303,"amap_id":"B0FFFQ73JR","order":11,"prev_distance_km":0.04,"cumulative_distance_km":24.474,"amap_marker_url":"https://uri.amap.com/marker?position=112.886436,33.936303&name=%E5%A4%A7%E5%AF%8C%E8%B1%AA%E5%85%BD%E8%8D%AF%E5%9F%8E&src=vetmap&coordinate=gaode&callnative=1","route_id":"r1","route_name":"第1段","global_order":11},{"name":"畜康动保中心","address":"何寨村村委会东侧120米","phone":"","category":"医疗保健服务;动物医疗场所;兽医站","area":"","lng":112.902975,"lat":33.978695,"amap_id":"B0KRTZXOO5","order":12,"prev_distance_km":4.954,"cumulative_distance_km":29.429,"amap_marker_url":"https://uri.amap.com/marker?position=112.902975,33.978695&name=%E7%95%9C%E5%BA%B7%E5%8A%A8%E4%BF%9D%E4%B8%AD%E5%BF%83&src=vetmap&coordinate=gaode&callnative=1","route_id":"r1","route_name":"第1段","global_order":12}]}