{"summary":{"id":"d01182","province":"河南省","city":"商丘市","district":"虞城县","count":16,"route_count":1,"max_route_clinics":16,"total_distance_km":111.43,"coordinate_system":"GCJ-02 / Amap","generated_at":"2026-05-08 19:46:50"},"routes":[{"id":"r1","name":"第1段","count":16,"total_distance_km":111.43,"rows":[{"name":"界沟镇禽病门诊","address":"界沟镇北街","phone":"15938385517","category":"医疗保健服务;动物医疗场所;兽医站","area":"","lng":115.862085,"lat":34.04068,"amap_id":"B0FFL0YLJW","order":1,"prev_distance_km":0.0,"cumulative_distance_km":0.0,"amap_marker_url":"https://uri.amap.com/marker?position=115.862085,34.040680&name=%E7%95%8C%E6%B2%9F%E9%95%87%E7%A6%BD%E7%97%85%E9%97%A8%E8%AF%8A&src=vetmap&coordinate=gaode&callnative=1","route_id":"r1","route_name":"第1段"},{"name":"广栋牧业宠物医院犬粮","address":"虞亳路与府前路交叉口东南320米","phone":"","category":"医疗保健服务;动物医疗场所;宠物诊所","area":"","lng":115.869828,"lat":34.101237,"amap_id":"B0K3M7RQQT","order":2,"prev_distance_km":6.771,"cumulative_distance_km":6.771,"amap_marker_url":"https://uri.amap.com/marker?position=115.869828,34.101237&name=%E5%B9%BF%E6%A0%8B%E7%89%A7%E4%B8%9A%E5%AE%A0%E7%89%A9%E5%8C%BB%E9%99%A2%E7%8A%AC%E7%B2%AE&src=vetmap&coordinate=gaode&callnative=1","route_id":"r1","route_name":"第1段"},{"name":"宠乐康宠物诊疗(诊所)","address":"杜集镇步行街二区向里50米","phone":"15637053412","category":"医疗保健服务;动物医疗场所;宠物诊所","area":"","lng":115.823747,"lat":34.180264,"amap_id":"B0L3OZXY6Z","order":3,"prev_distance_km":9.757,"cumulative_distance_km":16.529,"amap_marker_url":"https://uri.amap.com/marker?position=115.823747,34.180264&name=%E5%AE%A0%E4%B9%90%E5%BA%B7%E5%AE%A0%E7%89%A9%E8%AF%8A%E7%96%97%28%E8%AF%8A%E6%89%80%29&src=vetmap&coordinate=gaode&callnative=1","route_id":"r1","route_name":"第1段"},{"name":"沙集兽医站饲料部","address":"沙集乡","phone":"18238087066","category":"医疗保健服务;动物医疗场所;兽医站","area":"","lng":115.769348,"lat":34.192059,"amap_id":"B0FFHNQ6ZP","order":4,"prev_distance_km":5.173,"cumulative_distance_km":21.701,"amap_marker_url":"https://uri.amap.com/marker?position=115.769348,34.192059&name=%E6%B2%99%E9%9B%86%E5%85%BD%E5%8C%BB%E7%AB%99%E9%A5%B2%E6%96%99%E9%83%A8&src=vetmap&coordinate=gaode&callnative=1","route_id":"r1","route_name":"第1段"},{"name":"宠物医院","address":"芒种桥乡北街","phone":"13037576189","category":"医疗保健服务;动物医疗场所;宠物诊所","area":"","lng":115.731321,"lat":34.300476,"amap_id":"B0FFKYKYHQ","order":5,"prev_distance_km":12.552,"cumulative_distance_km":34.253,"amap_marker_url":"https://uri.amap.com/marker?position=115.731321,34.300476&name=%E5%AE%A0%E7%89%A9%E5%8C%BB%E9%99%A2&src=vetmap&coordinate=gaode&callnative=1","route_id":"r1","route_name":"第1段"},{"name":"兽医站","address":"014县道与西南街交叉口东北240米","phone":"","category":"医疗保健服务;动物医疗场所;兽医站","area":"","lng":115.867214,"lat":34.227352,"amap_id":"B0L0Z6DJIX","order":6,"prev_distance_km":14.902,"cumulative_distance_km":49.155,"amap_marker_url":"https://uri.amap.com/marker?position=115.867214,34.227352&name=%E5%85%BD%E5%8C%BB%E7%AB%99&src=vetmap&coordinate=gaode&callnative=1","route_id":"r1","route_name":"第1段"},{"name":"胜利庄稼果树蔬菜宠物医院","address":"刘店集东街信用社银行东路北100米路北","phone":"13949949668;16740959888","category":"医疗保健服务;动物医疗场所;宠物诊所","area":"","lng":115.85867,"lat":34.28438,"amap_id":"B0I21SOY3N","order":7,"prev_distance_km":6.39,"cumulative_distance_km":55.545,"amap_marker_url":"https://uri.amap.com/marker?position=115.858670,34.284380&name=%E8%83%9C%E5%88%A9%E5%BA%84%E7%A8%BC%E6%9E%9C%E6%A0%91%E8%94%AC%E8%8F%9C%E5%AE%A0%E7%89%A9%E5%8C%BB%E9%99%A2&src=vetmap&coordinate=gaode&callnative=1","route_id":"r1","route_name":"第1段"},{"name":"大侯乡兽医站","address":"林闻路","phone":"0370-4855828;13271023588","category":"医疗保健服务;动物医疗场所;兽医站","area":"","lng":115.896685,"lat":34.302505,"amap_id":"B0GKS4FJ4T","order":8,"prev_distance_km":4.032,"cumulative_distance_km":59.577,"amap_marker_url":"https://uri.amap.com/marker?position=115.896685,34.302505&name=%E5%A4%A7%E4%BE%AF%E4%B9%A1%E5%85%BD%E5%8C%BB%E7%AB%99&src=vetmap&coordinate=gaode&callnative=1","route_id":"r1","route_name":"第1段"},{"name":"乐宠园宠物医疗中心","address":"商永路木兰新区大门东04号","phone":"15517093866","category":"医疗保健服务;动物医疗场所;宠物诊所","area":"","lng":115.855975,"lat":34.386841,"amap_id":"B0FFMCLJVK","order":9,"prev_distance_km":10.095,"cumulative_distance_km":69.672,"amap_marker_url":"https://uri.amap.com/marker?position=115.855975,34.386841&name=%E4%B9%90%E5%AE%A0%E5%9B%AD%E5%AE%A0%E7%89%A9%E5%8C%BB%E7%96%97%E4%B8%AD%E5%BF%83&src=vetmap&coordinate=gaode&callnative=1","route_id":"r1","route_name":"第1段"},{"name":"嘉宠动物医院犬猫专科急重症微创绝育中心(虞城店)","address":"和谐北大花园北门东110米","phone":"15037078580","category":"医疗保健服务;动物医疗场所;宠物诊所","area":"","lng":115.817984,"lat":34.398324,"amap_id":"B0L1CL64CU","order":10,"prev_distance_km":3.712,"cumulative_distance_km":73.385,"amap_marker_url":"https://uri.amap.com/marker?position=115.817984,34.398324&name=%E5%98%89%E5%AE%A0%E5%8A%A8%E7%89%A9%E5%8C%BB%E9%99%A2%E7%8A%AC%E7%8C%AB%E4%B8%93%E7%A7%91%E6%80%A5%E9%87%8D%E7%97%87%E5%BE%AE%E5%88%9B%E7%BB%9D%E8%82%B2%E4%B8%AD%E5%BF%83%28%E8%99%9E%E5%9F%8E%E5%BA%97%29&src=vetmap&coordinate=gaode&callnative=1","route_id":"r1","route_name":"第1段"},{"name":"灵动宠物门诊","address":"和谐北大北门10-11商铺","phone":"18736878759","category":"医疗保健服务;动物医疗场所;宠物诊所","area":"","lng":115.816487,"lat":34.398417,"amap_id":"B0G0DA70ZR","order":11,"prev_distance_km":0.138,"cumulative_distance_km":73.522,"amap_marker_url":"https://uri.amap.com/marker?position=115.816487,34.398417&name=%E7%81%B5%E5%8A%A8%E5%AE%A0%E7%89%A9%E9%97%A8%E8%AF%8A&src=vetmap&coordinate=gaode&callnative=1","route_id":"r1","route_name":"第1段"},{"name":"友佳宠物医院(异宠专科)","address":"嵩山大道与仓颉大道交叉建邺城西门","phone":"15237093509","category":"医疗保健服务;动物医疗场所;宠物诊所","area":"","lng":115.812251,"lat":34.402078,"amap_id":"B0K0X5UO4O","order":12,"prev_distance_km":0.563,"cumulative_distance_km":74.085,"amap_marker_url":"https://uri.amap.com/marker?position=115.812251,34.402078&name=%E5%8F%8B%E4%BD%B3%E5%AE%A0%E7%89%A9%E5%8C%BB%E9%99%A2%28%E5%BC%82%E5%AE%A0%E4%B8%93%E7%A7%91%29&src=vetmap&coordinate=gaode&callnative=1","route_id":"r1","route_name":"第1段"},{"name":"宠康宠物诊疗中心","address":"文明路与团结巷交叉口东140米","phone":"17719976070","category":"医疗保健服务;动物医疗场所;宠物诊所","area":"","lng":115.856446,"lat":34.398547,"amap_id":"B0IKRUMEEI","order":13,"prev_distance_km":4.074,"cumulative_distance_km":78.159,"amap_marker_url":"https://uri.amap.com/marker?position=115.856446,34.398547&name=%E5%AE%A0%E5%BA%B7%E5%AE%A0%E7%89%A9%E8%AF%8A%E7%96%97%E4%B8%AD%E5%BF%83&src=vetmap&coordinate=gaode&callnative=1","route_id":"r1","route_name":"第1段"},{"name":"力狼宠物畜禽救治处","address":"金玲口腔东侧150米","phone":"0370-4121001;13569354376","category":"医疗保健服务;动物医疗场所;宠物诊所","area":"","lng":115.880118,"lat":34.402032,"amap_id":"B0FFM37AF9","order":14,"prev_distance_km":2.206,"cumulative_distance_km":80.365,"amap_marker_url":"https://uri.amap.com/marker?position=115.880118,34.402032&name=%E5%8A%9B%E7%8B%BC%E5%AE%A0%E7%89%A9%E7%95%9C%E7%A6%BD%E6%95%91%E6%B2%BB%E5%A4%84&src=vetmap&coordinate=gaode&callnative=1","route_id":"r1","route_name":"第1段"},{"name":"宠物医院","address":"208省道与310国道交叉口西南360米","phone":"18803701198","category":"医疗保健服务;动物医疗场所;宠物诊所","area":"","lng":115.886009,"lat":34.455752,"amap_id":"B0GKV751TV","order":15,"prev_distance_km":5.998,"cumulative_distance_km":86.363,"amap_marker_url":"https://uri.amap.com/marker?position=115.886009,34.455752&name=%E5%AE%A0%E7%89%A9%E5%8C%BB%E9%99%A2&src=vetmap&coordinate=gaode&callnative=1","route_id":"r1","route_name":"第1段"},{"name":"张集畜牧兽医站","address":"005乡道与利张路交叉口东北80米","phone":"13703423338;18637061669","category":"医疗保健服务;动物医疗场所;兽医站","area":"","lng":116.142021,"lat":34.535128,"amap_id":"B0FFG882UY","order":16,"prev_distance_km":25.067,"cumulative_distance_km":111.43,"amap_marker_url":"https://uri.amap.com/marker?position=116.142021,34.535128&name=%E5%BC%A0%E9%9B%86%E7%95%9C%E7%89%A7%E5%85%BD%E5%8C%BB%E7%AB%99&src=vetmap&coordinate=gaode&callnative=1","route_id":"r1","route_name":"第1段"}]}],"rows":[{"name":"界沟镇禽病门诊","address":"界沟镇北街","phone":"15938385517","category":"医疗保健服务;动物医疗场所;兽医站","area":"","lng":115.862085,"lat":34.04068,"amap_id":"B0FFL0YLJW","order":1,"prev_distance_km":0.0,"cumulative_distance_km":0.0,"amap_marker_url":"https://uri.amap.com/marker?position=115.862085,34.040680&name=%E7%95%8C%E6%B2%9F%E9%95%87%E7%A6%BD%E7%97%85%E9%97%A8%E8%AF%8A&src=vetmap&coordinate=gaode&callnative=1","route_id":"r1","route_name":"第1段","global_order":1},{"name":"广栋牧业宠物医院犬粮","address":"虞亳路与府前路交叉口东南320米","phone":"","category":"医疗保健服务;动物医疗场所;宠物诊所","area":"","lng":115.869828,"lat":34.101237,"amap_id":"B0K3M7RQQT","order":2,"prev_distance_km":6.771,"cumulative_distance_km":6.771,"amap_marker_url":"https://uri.amap.com/marker?position=115.869828,34.101237&name=%E5%B9%BF%E6%A0%8B%E7%89%A7%E4%B8%9A%E5%AE%A0%E7%89%A9%E5%8C%BB%E9%99%A2%E7%8A%AC%E7%B2%AE&src=vetmap&coordinate=gaode&callnative=1","route_id":"r1","route_name":"第1段","global_order":2},{"name":"宠乐康宠物诊疗(诊所)","address":"杜集镇步行街二区向里50米","phone":"15637053412","category":"医疗保健服务;动物医疗场所;宠物诊所","area":"","lng":115.823747,"lat":34.180264,"amap_id":"B0L3OZXY6Z","order":3,"prev_distance_km":9.757,"cumulative_distance_km":16.529,"amap_marker_url":"https://uri.amap.com/marker?position=115.823747,34.180264&name=%E5%AE%A0%E4%B9%90%E5%BA%B7%E5%AE%A0%E7%89%A9%E8%AF%8A%E7%96%97%28%E8%AF%8A%E6%89%80%29&src=vetmap&coordinate=gaode&callnative=1","route_id":"r1","route_name":"第1段","global_order":3},{"name":"沙集兽医站饲料部","address":"沙集乡","phone":"18238087066","category":"医疗保健服务;动物医疗场所;兽医站","area":"","lng":115.769348,"lat":34.192059,"amap_id":"B0FFHNQ6ZP","order":4,"prev_distance_km":5.173,"cumulative_distance_km":21.701,"amap_marker_url":"https://uri.amap.com/marker?position=115.769348,34.192059&name=%E6%B2%99%E9%9B%86%E5%85%BD%E5%8C%BB%E7%AB%99%E9%A5%B2%E6%96%99%E9%83%A8&src=vetmap&coordinate=gaode&callnative=1","route_id":"r1","route_name":"第1段","global_order":4},{"name":"宠物医院","address":"芒种桥乡北街","phone":"13037576189","category":"医疗保健服务;动物医疗场所;宠物诊所","area":"","lng":115.731321,"lat":34.300476,"amap_id":"B0FFKYKYHQ","order":5,"prev_distance_km":12.552,"cumulative_distance_km":34.253,"amap_marker_url":"https://uri.amap.com/marker?position=115.731321,34.300476&name=%E5%AE%A0%E7%89%A9%E5%8C%BB%E9%99%A2&src=vetmap&coordinate=gaode&callnative=1","route_id":"r1","route_name":"第1段","global_order":5},{"name":"兽医站","address":"014县道与西南街交叉口东北240米","phone":"","category":"医疗保健服务;动物医疗场所;兽医站","area":"","lng":115.867214,"lat":34.227352,"amap_id":"B0L0Z6DJIX","order":6,"prev_distance_km":14.902,"cumulative_distance_km":49.155,"amap_marker_url":"https://uri.amap.com/marker?position=115.867214,34.227352&name=%E5%85%BD%E5%8C%BB%E7%AB%99&src=vetmap&coordinate=gaode&callnative=1","route_id":"r1","route_name":"第1段","global_order":6},{"name":"胜利庄稼果树蔬菜宠物医院","address":"刘店集东街信用社银行东路北100米路北","phone":"13949949668;16740959888","category":"医疗保健服务;动物医疗场所;宠物诊所","area":"","lng":115.85867,"lat":34.28438,"amap_id":"B0I21SOY3N","order":7,"prev_distance_km":6.39,"cumulative_distance_km":55.545,"amap_marker_url":"https://uri.amap.com/marker?position=115.858670,34.284380&name=%E8%83%9C%E5%88%A9%E5%BA%84%E7%A8%BC%E6%9E%9C%E6%A0%91%E8%94%AC%E8%8F%9C%E5%AE%A0%E7%89%A9%E5%8C%BB%E9%99%A2&src=vetmap&coordinate=gaode&callnative=1","route_id":"r1","route_name":"第1段","global_order":7},{"name":"大侯乡兽医站","address":"林闻路","phone":"0370-4855828;13271023588","category":"医疗保健服务;动物医疗场所;兽医站","area":"","lng":115.896685,"lat":34.302505,"amap_id":"B0GKS4FJ4T","order":8,"prev_distance_km":4.032,"cumulative_distance_km":59.577,"amap_marker_url":"https://uri.amap.com/marker?position=115.896685,34.302505&name=%E5%A4%A7%E4%BE%AF%E4%B9%A1%E5%85%BD%E5%8C%BB%E7%AB%99&src=vetmap&coordinate=gaode&callnative=1","route_id":"r1","route_name":"第1段","global_order":8},{"name":"乐宠园宠物医疗中心","address":"商永路木兰新区大门东04号","phone":"15517093866","category":"医疗保健服务;动物医疗场所;宠物诊所","area":"","lng":115.855975,"lat":34.386841,"amap_id":"B0FFMCLJVK","order":9,"prev_distance_km":10.095,"cumulative_distance_km":69.672,"amap_marker_url":"https://uri.amap.com/marker?position=115.855975,34.386841&name=%E4%B9%90%E5%AE%A0%E5%9B%AD%E5%AE%A0%E7%89%A9%E5%8C%BB%E7%96%97%E4%B8%AD%E5%BF%83&src=vetmap&coordinate=gaode&callnative=1","route_id":"r1","route_name":"第1段","global_order":9},{"name":"嘉宠动物医院犬猫专科急重症微创绝育中心(虞城店)","address":"和谐北大花园北门东110米","phone":"15037078580","category":"医疗保健服务;动物医疗场所;宠物诊所","area":"","lng":115.817984,"lat":34.398324,"amap_id":"B0L1CL64CU","order":10,"prev_distance_km":3.712,"cumulative_distance_km":73.385,"amap_marker_url":"https://uri.amap.com/marker?position=115.817984,34.398324&name=%E5%98%89%E5%AE%A0%E5%8A%A8%E7%89%A9%E5%8C%BB%E9%99%A2%E7%8A%AC%E7%8C%AB%E4%B8%93%E7%A7%91%E6%80%A5%E9%87%8D%E7%97%87%E5%BE%AE%E5%88%9B%E7%BB%9D%E8%82%B2%E4%B8%AD%E5%BF%83%28%E8%99%9E%E5%9F%8E%E5%BA%97%29&src=vetmap&coordinate=gaode&callnative=1","route_id":"r1","route_name":"第1段","global_order":10},{"name":"灵动宠物门诊","address":"和谐北大北门10-11商铺","phone":"18736878759","category":"医疗保健服务;动物医疗场所;宠物诊所","area":"","lng":115.816487,"lat":34.398417,"amap_id":"B0G0DA70ZR","order":11,"prev_distance_km":0.138,"cumulative_distance_km":73.522,"amap_marker_url":"https://uri.amap.com/marker?position=115.816487,34.398417&name=%E7%81%B5%E5%8A%A8%E5%AE%A0%E7%89%A9%E9%97%A8%E8%AF%8A&src=vetmap&coordinate=gaode&callnative=1","route_id":"r1","route_name":"第1段","global_order":11},{"name":"友佳宠物医院(异宠专科)","address":"嵩山大道与仓颉大道交叉建邺城西门","phone":"15237093509","category":"医疗保健服务;动物医疗场所;宠物诊所","area":"","lng":115.812251,"lat":34.402078,"amap_id":"B0K0X5UO4O","order":12,"prev_distance_km":0.563,"cumulative_distance_km":74.085,"amap_marker_url":"https://uri.amap.com/marker?position=115.812251,34.402078&name=%E5%8F%8B%E4%BD%B3%E5%AE%A0%E7%89%A9%E5%8C%BB%E9%99%A2%28%E5%BC%82%E5%AE%A0%E4%B8%93%E7%A7%91%29&src=vetmap&coordinate=gaode&callnative=1","route_id":"r1","route_name":"第1段","global_order":12},{"name":"宠康宠物诊疗中心","address":"文明路与团结巷交叉口东140米","phone":"17719976070","category":"医疗保健服务;动物医疗场所;宠物诊所","area":"","lng":115.856446,"lat":34.398547,"amap_id":"B0IKRUMEEI","order":13,"prev_distance_km":4.074,"cumulative_distance_km":78.159,"amap_marker_url":"https://uri.amap.com/marker?position=115.856446,34.398547&name=%E5%AE%A0%E5%BA%B7%E5%AE%A0%E7%89%A9%E8%AF%8A%E7%96%97%E4%B8%AD%E5%BF%83&src=vetmap&coordinate=gaode&callnative=1","route_id":"r1","route_name":"第1段","global_order":13},{"name":"力狼宠物畜禽救治处","address":"金玲口腔东侧150米","phone":"0370-4121001;13569354376","category":"医疗保健服务;动物医疗场所;宠物诊所","area":"","lng":115.880118,"lat":34.402032,"amap_id":"B0FFM37AF9","order":14,"prev_distance_km":2.206,"cumulative_distance_km":80.365,"amap_marker_url":"https://uri.amap.com/marker?position=115.880118,34.402032&name=%E5%8A%9B%E7%8B%BC%E5%AE%A0%E7%89%A9%E7%95%9C%E7%A6%BD%E6%95%91%E6%B2%BB%E5%A4%84&src=vetmap&coordinate=gaode&callnative=1","route_id":"r1","route_name":"第1段","global_order":14},{"name":"宠物医院","address":"208省道与310国道交叉口西南360米","phone":"18803701198","category":"医疗保健服务;动物医疗场所;宠物诊所","area":"","lng":115.886009,"lat":34.455752,"amap_id":"B0GKV751TV","order":15,"prev_distance_km":5.998,"cumulative_distance_km":86.363,"amap_marker_url":"https://uri.amap.com/marker?position=115.886009,34.455752&name=%E5%AE%A0%E7%89%A9%E5%8C%BB%E9%99%A2&src=vetmap&coordinate=gaode&callnative=1","route_id":"r1","route_name":"第1段","global_order":15},{"name":"张集畜牧兽医站","address":"005乡道与利张路交叉口东北80米","phone":"13703423338;18637061669","category":"医疗保健服务;动物医疗场所;兽医站","area":"","lng":116.142021,"lat":34.535128,"amap_id":"B0FFG882UY","order":16,"prev_distance_km":25.067,"cumulative_distance_km":111.43,"amap_marker_url":"https://uri.amap.com/marker?position=116.142021,34.535128&name=%E5%BC%A0%E9%9B%86%E7%95%9C%E7%89%A7%E5%85%BD%E5%8C%BB%E7%AB%99&src=vetmap&coordinate=gaode&callnative=1","route_id":"r1","route_name":"第1段","global_order":16}]}