{"summary":{"id":"d01150","province":"河南省","city":"信阳市","district":"罗山县","count":13,"total_distance_km":81.975,"coordinate_system":"GCJ-02 / Amap","generated_at":"2026-05-07 19:57:33"},"rows":[{"name":"兽医门诊","address":"033乡道","phone":"13782975385","category":"医疗保健服务;动物医疗场所;兽医站","area":"","lng":114.512499,"lat":31.793696,"amap_id":"B0J675PR9O","order":1,"prev_distance_km":0.0,"cumulative_distance_km":0.0,"amap_marker_url":"https://uri.amap.com/marker?position=114.512499,31.793696&name=%E5%85%BD%E5%8C%BB%E9%97%A8%E8%AF%8A&src=vetmap&coordinate=gaode&callnative=1"},{"name":"兽医门诊","address":"行政路与018乡道交叉口西南260米","phone":"","category":"医疗保健服务;动物医疗场所;兽医站","area":"","lng":114.50782,"lat":32.055515,"amap_id":"B0FFKSQGMA","order":2,"prev_distance_km":29.116,"cumulative_distance_km":29.116,"amap_marker_url":"https://uri.amap.com/marker?position=114.507820,32.055515&name=%E5%85%BD%E5%8C%BB%E9%97%A8%E8%AF%8A&src=vetmap&coordinate=gaode&callnative=1"},{"name":"汪强动物医院","address":"津水路与018乡道交叉口东北340米","phone":"13949192258","category":"医疗保健服务;动物医疗场所;宠物诊所","area":"","lng":114.461303,"lat":32.09304,"amap_id":"B0G3JU6J13","order":3,"prev_distance_km":6.052,"cumulative_distance_km":35.168,"amap_marker_url":"https://uri.amap.com/marker?position=114.461303,32.093040&name=%E6%B1%AA%E5%BC%BA%E5%8A%A8%E7%89%A9%E5%8C%BB%E9%99%A2&src=vetmap&coordinate=gaode&callnative=1"},{"name":"畜禽养殖技术服务部","address":"申奚路与勤政路交叉口北40米","phone":"18790168299","category":"医疗保健服务;动物医疗场所;兽医站","area":"","lng":114.380664,"lat":32.230329,"amap_id":"B0H63A9GC7","order":4,"prev_distance_km":17.049,"cumulative_distance_km":52.217,"amap_marker_url":"https://uri.amap.com/marker?position=114.380664,32.230329&name=%E7%95%9C%E7%A6%BD%E5%85%BB%E6%AE%96%E6%8A%80%E6%9C%AF%E6%9C%8D%E5%8A%A1%E9%83%A8&src=vetmap&coordinate=gaode&callnative=1"},{"name":"爱诺宠物诊所(灵山大道店)","address":"灵山大道水立方大酒店斜对面522号金珠名苑小区东门右手边","phone":"17839756578","category":"医疗保健服务;动物医疗场所;宠物诊所","area":"","lng":114.516995,"lat":32.207028,"amap_id":"B0FFIUV9UM","order":5,"prev_distance_km":13.084,"cumulative_distance_km":65.301,"amap_marker_url":"https://uri.amap.com/marker?position=114.516995,32.207028&name=%E7%88%B1%E8%AF%BA%E5%AE%A0%E7%89%A9%E8%AF%8A%E6%89%80%28%E7%81%B5%E5%B1%B1%E5%A4%A7%E9%81%93%E5%BA%97%29&src=vetmap&coordinate=gaode&callnative=1"},{"name":"罗山县畜牧兽医技术服务中心","address":"民政中路与行政中路交叉口西北140米","phone":"","category":"医疗保健服务;动物医疗场所;兽医站","area":"","lng":114.524298,"lat":32.20476,"amap_id":"B0L6GYC9B9","order":6,"prev_distance_km":0.732,"cumulative_distance_km":66.033,"amap_marker_url":"https://uri.amap.com/marker?position=114.524298,32.204760&name=%E7%BD%97%E5%B1%B1%E5%8E%BF%E7%95%9C%E7%89%A7%E5%85%BD%E5%8C%BB%E6%8A%80%E6%9C%AF%E6%9C%8D%E5%8A%A1%E4%B8%AD%E5%BF%83&src=vetmap&coordinate=gaode&callnative=1"},{"name":"华锋宠物诊所","address":"水岸国际花园东南门旁","phone":"15083473021;15981838667","category":"医疗保健服务;动物医疗场所;宠物诊所","area":"","lng":114.523369,"lat":32.195892,"amap_id":"B0FFIXZSBD","order":7,"prev_distance_km":0.99,"cumulative_distance_km":67.023,"amap_marker_url":"https://uri.amap.com/marker?position=114.523369,32.195892&name=%E5%8D%8E%E9%94%8B%E5%AE%A0%E7%89%A9%E8%AF%8A%E6%89%80&src=vetmap&coordinate=gaode&callnative=1"},{"name":"杨老妈宠物诊所","address":"城关镇老城东路土地局对面","phone":"18348455189","category":"医疗保健服务;动物医疗场所;宠物诊所","area":"","lng":114.537947,"lat":32.205108,"amap_id":"B0FFGA03US","order":8,"prev_distance_km":1.712,"cumulative_distance_km":68.735,"amap_marker_url":"https://uri.amap.com/marker?position=114.537947,32.205108&name=%E6%9D%A8%E8%80%81%E5%A6%88%E5%AE%A0%E7%89%A9%E8%AF%8A%E6%89%80&src=vetmap&coordinate=gaode&callnative=1"},{"name":"同济动物医院","address":"江淮中路与花园路交叉口西北40米","phone":"13939705493","category":"医疗保健服务;动物医疗场所;宠物诊所","area":"","lng":114.539815,"lat":32.20413,"amap_id":"B0G0ADTR7L","order":9,"prev_distance_km":0.207,"cumulative_distance_km":68.942,"amap_marker_url":"https://uri.amap.com/marker?position=114.539815,32.204130&name=%E5%90%8C%E6%B5%8E%E5%8A%A8%E7%89%A9%E5%8C%BB%E9%99%A2&src=vetmap&coordinate=gaode&callnative=1"},{"name":"老方兽医门诊部","address":"江淮中路与花园路交叉口东50米路南","phone":"13849728635","category":"医疗保健服务;动物医疗场所;兽医站","area":"","lng":114.540379,"lat":32.203909,"amap_id":"B0G3ZSROVH","order":10,"prev_distance_km":0.058,"cumulative_distance_km":69.0,"amap_marker_url":"https://uri.amap.com/marker?position=114.540379,32.203909&name=%E8%80%81%E6%96%B9%E5%85%BD%E5%8C%BB%E9%97%A8%E8%AF%8A%E9%83%A8&src=vetmap&coordinate=gaode&callnative=1"},{"name":"动物疫苗","address":"滨河北路与江淮中路交叉口东240米","phone":"","category":"医疗保健服务;动物医疗场所;动物医疗场所","area":"","lng":114.542522,"lat":32.198145,"amap_id":"B0IAD7W4A5","order":11,"prev_distance_km":0.672,"cumulative_distance_km":69.672,"amap_marker_url":"https://uri.amap.com/marker?position=114.542522,32.198145&name=%E5%8A%A8%E7%89%A9%E7%96%AB%E8%8B%97&src=vetmap&coordinate=gaode&callnative=1"},{"name":"动物医院","address":"龙山大道与江淮中路交叉口东120米","phone":"13937602399","category":"医疗保健服务;动物医疗场所;兽医站","area":"","lng":114.540767,"lat":32.192439,"amap_id":"B0H13AL63I","order":12,"prev_distance_km":0.656,"cumulative_distance_km":70.328,"amap_marker_url":"https://uri.amap.com/marker?position=114.540767,32.192439&name=%E5%8A%A8%E7%89%A9%E5%8C%BB%E9%99%A2&src=vetmap&coordinate=gaode&callnative=1"},{"name":"文利兽医门诊","address":"002乡道与312国道交叉口北60米","phone":"","category":"医疗保健服务;动物医疗场所;兽医站","area":"","lng":114.661532,"lat":32.169544,"amap_id":"B0K6YZ8LB3","order":13,"prev_distance_km":11.647,"cumulative_distance_km":81.975,"amap_marker_url":"https://uri.amap.com/marker?position=114.661532,32.169544&name=%E6%96%87%E5%88%A9%E5%85%BD%E5%8C%BB%E9%97%A8%E8%AF%8A&src=vetmap&coordinate=gaode&callnative=1"}]}