{"summary":{"id":"d01161","province":"河南省","city":"南阳市","district":"西峡县","count":9,"total_distance_km":5.86,"coordinate_system":"GCJ-02 / Amap","generated_at":"2026-05-07 19:57:35"},"rows":[{"name":"宠逸生宠物医院","address":"建设路中医院东一百米","phone":"15688103787","category":"医疗保健服务;动物医疗场所;宠物诊所","area":"","lng":111.496096,"lat":33.297181,"amap_id":"B0K2DLG14E","order":1,"prev_distance_km":0.0,"cumulative_distance_km":0.0,"amap_marker_url":"https://uri.amap.com/marker?position=111.496096,33.297181&name=%E5%AE%A0%E9%80%B8%E7%94%9F%E5%AE%A0%E7%89%A9%E5%8C%BB%E9%99%A2&src=vetmap&coordinate=gaode&callnative=1"},{"name":"优宠宠物诊所(建设东路店)","address":"建设东路与卫校路交叉路口往东约150米","phone":"15688103787","category":"医疗保健服务;动物医疗场所;宠物诊所","area":"","lng":111.49606,"lat":33.29716,"amap_id":"B0H6GL3P83","order":2,"prev_distance_km":0.004,"cumulative_distance_km":0.004,"amap_marker_url":"https://uri.amap.com/marker?position=111.496060,33.297160&name=%E4%BC%98%E5%AE%A0%E5%AE%A0%E7%89%A9%E8%AF%8A%E6%89%80%28%E5%BB%BA%E8%AE%BE%E4%B8%9C%E8%B7%AF%E5%BA%97%29&src=vetmap&coordinate=gaode&callnative=1"},{"name":"派多格宠物诊所(时代广场店)","address":"紫金街道时代广场106号","phone":"17613666017","category":"医疗保健服务;动物医疗场所;宠物诊所","area":"","lng":111.476407,"lat":33.302475,"amap_id":"B0HRGZ8WJX","order":3,"prev_distance_km":1.92,"cumulative_distance_km":1.924,"amap_marker_url":"https://uri.amap.com/marker?position=111.476407,33.302475&name=%E6%B4%BE%E5%A4%9A%E6%A0%BC%E5%AE%A0%E7%89%A9%E8%AF%8A%E6%89%80%28%E6%97%B6%E4%BB%A3%E5%B9%BF%E5%9C%BA%E5%BA%97%29&src=vetmap&coordinate=gaode&callnative=1"},{"name":"优妮宠物","address":"五里桥街与伏牛西路交叉口南160米","phone":"19561588101","category":"医疗保健服务;动物医疗场所;动物医疗场所","area":"","lng":111.479621,"lat":33.308567,"amap_id":"B0LUD5ABFO","order":4,"prev_distance_km":0.74,"cumulative_distance_km":2.664,"amap_marker_url":"https://uri.amap.com/marker?position=111.479621,33.308567&name=%E4%BC%98%E5%A6%AE%E5%AE%A0%E7%89%A9&src=vetmap&coordinate=gaode&callnative=1"},{"name":"医直宠宠物医院(西峡店)","address":"世纪大道与礼堂路交叉口路南","phone":"17613366120","category":"医疗保健服务;动物医疗场所;宠物诊所","area":"","lng":111.482974,"lat":33.312195,"amap_id":"B0LBFZRX9L","order":5,"prev_distance_km":0.51,"cumulative_distance_km":3.174,"amap_marker_url":"https://uri.amap.com/marker?position=111.482974,33.312195&name=%E5%8C%BB%E7%9B%B4%E5%AE%A0%E5%AE%A0%E7%89%A9%E5%8C%BB%E9%99%A2%28%E8%A5%BF%E5%B3%A1%E5%BA%97%29&src=vetmap&coordinate=gaode&callnative=1"},{"name":"宠康宠物医疗","address":"白羽路花鸟市场门口","phone":"13782129717","category":"医疗保健服务;动物医疗场所;宠物诊所","area":"","lng":111.485813,"lat":33.314325,"amap_id":"B0JR6YH32O","order":6,"prev_distance_km":0.355,"cumulative_distance_km":3.528,"amap_marker_url":"https://uri.amap.com/marker?position=111.485813,33.314325&name=%E5%AE%A0%E5%BA%B7%E5%AE%A0%E7%89%A9%E5%8C%BB%E7%96%97&src=vetmap&coordinate=gaode&callnative=1"},{"name":"仁爱宠物医疗","address":"五里桥镇葛营村黄家营组卧龙居4号楼","phone":"18211803891","category":"医疗保健服务;动物医疗场所;宠物诊所","area":"","lng":111.483788,"lat":33.318604,"amap_id":"B0LAV774X5","order":7,"prev_distance_km":0.512,"cumulative_distance_km":4.04,"amap_marker_url":"https://uri.amap.com/marker?position=111.483788,33.318604&name=%E4%BB%81%E7%88%B1%E5%AE%A0%E7%89%A9%E5%8C%BB%E7%96%97&src=vetmap&coordinate=gaode&callnative=1"},{"name":"乐宠宠物诊所","address":"五里桥镇紫金北路学府铭城1号楼104号","phone":"","category":"医疗保健服务;动物医疗场所;宠物诊所","area":"","lng":111.478513,"lat":33.319747,"amap_id":"B0K2KZTA9S","order":8,"prev_distance_km":0.506,"cumulative_distance_km":4.546,"amap_marker_url":"https://uri.amap.com/marker?position=111.478513,33.319747&name=%E4%B9%90%E5%AE%A0%E5%AE%A0%E7%89%A9%E8%AF%8A%E6%89%80&src=vetmap&coordinate=gaode&callnative=1"},{"name":"西峡县宠乐爱宠物医院","address":"五里桥镇葛营社区雅园路与白羽路交叉口东五十米2号","phone":"18837789120","category":"医疗保健服务;动物医疗场所;宠物诊所","area":"","lng":111.49166,"lat":33.324081,"amap_id":"B0L0SAJ45D","order":9,"prev_distance_km":1.313,"cumulative_distance_km":5.86,"amap_marker_url":"https://uri.amap.com/marker?position=111.491660,33.324081&name=%E8%A5%BF%E5%B3%A1%E5%8E%BF%E5%AE%A0%E4%B9%90%E7%88%B1%E5%AE%A0%E7%89%A9%E5%8C%BB%E9%99%A2&src=vetmap&coordinate=gaode&callnative=1"}]}