{"summary":{"id":"d01176","province":"河南省","city":"商丘市","district":"柘城县","count":15,"total_distance_km":70.186,"coordinate_system":"GCJ-02 / Amap","generated_at":"2026-05-07 20:23:22"},"rows":[{"name":"福利兽医站","address":"振兴路与府前街交叉口北280米","phone":"13193413957","category":"医疗保健服务;动物医疗场所;兽医站","area":"","lng":115.508978,"lat":34.119656,"amap_id":"B0FFMCT7FM","order":1,"prev_distance_km":0.0,"cumulative_distance_km":0.0,"amap_marker_url":"https://uri.amap.com/marker?position=115.508978,34.119656&name=%E7%A6%8F%E5%88%A9%E5%85%BD%E5%8C%BB%E7%AB%99&src=vetmap&coordinate=gaode&callnative=1"},{"name":"兽医门诊","address":"326省道与陈胡公路交叉口西40米","phone":"","category":"医疗保健服务;动物医疗场所;兽医站","area":"","lng":115.487232,"lat":34.060356,"amap_id":"B0G0B4ZRT6","order":2,"prev_distance_km":6.891,"cumulative_distance_km":6.891,"amap_marker_url":"https://uri.amap.com/marker?position=115.487232,34.060356&name=%E5%85%BD%E5%8C%BB%E9%97%A8%E8%AF%8A&src=vetmap&coordinate=gaode&callnative=1"},{"name":"宠尚宠物医院","address":"凤凰街道上海路东侧上海公馆15幢104号","phone":"15638633859;18848881073;19837012766","category":"医疗保健服务;动物医疗场所;宠物诊所","area":"","lng":115.324305,"lat":34.095393,"amap_id":"B0L277J9S9","order":3,"prev_distance_km":15.503,"cumulative_distance_km":22.394,"amap_marker_url":"https://uri.amap.com/marker?position=115.324305,34.095393&name=%E5%AE%A0%E5%B0%9A%E5%AE%A0%E7%89%A9%E5%8C%BB%E9%99%A2&src=vetmap&coordinate=gaode&callnative=1"},{"name":"兽医门诊","address":"黄山路与未来大道交叉口南200米","phone":"13592383979","category":"医疗保健服务;动物医疗场所;兽医站","area":"","lng":115.3156,"lat":34.089481,"amap_id":"B0FFGL3UDK","order":4,"prev_distance_km":1.037,"cumulative_distance_km":23.431,"amap_marker_url":"https://uri.amap.com/marker?position=115.315600,34.089481&name=%E5%85%BD%E5%8C%BB%E9%97%A8%E8%AF%8A&src=vetmap&coordinate=gaode&callnative=1"},{"name":"挚爱宠物医疗","address":"华景雅苑·东岸春天西门北110米","phone":"18838585820","category":"医疗保健服务;动物医疗场所;宠物诊所","area":"","lng":115.313604,"lat":34.087549,"amap_id":"B0L6YHHZ3K","order":5,"prev_distance_km":0.283,"cumulative_distance_km":23.714,"amap_marker_url":"https://uri.amap.com/marker?position=115.313604,34.087549&name=%E6%8C%9A%E7%88%B1%E5%AE%A0%E7%89%A9%E5%8C%BB%E7%96%97&src=vetmap&coordinate=gaode&callnative=1"},{"name":"佳和宠物医院","address":"湖南路佳和宠物医院","phone":"13523176628","category":"医疗保健服务;动物医疗场所;宠物诊所","area":"华景路","lng":115.310902,"lat":34.085293,"amap_id":"B0GK6HPH57","order":6,"prev_distance_km":0.353,"cumulative_distance_km":24.067,"amap_marker_url":"https://uri.amap.com/marker?position=115.310902,34.085293&name=%E4%BD%B3%E5%92%8C%E5%AE%A0%E7%89%A9%E5%8C%BB%E9%99%A2&src=vetmap&coordinate=gaode&callnative=1"},{"name":"淇淇宠物医院","address":"华景二路与湖东路交叉口","phone":"15539053337","category":"医疗保健服务;动物医疗场所;宠物诊所","area":"","lng":115.313218,"lat":34.085179,"amap_id":"B0FFHL73QA","order":7,"prev_distance_km":0.214,"cumulative_distance_km":24.281,"amap_marker_url":"https://uri.amap.com/marker?position=115.313218,34.085179&name=%E6%B7%87%E6%B7%87%E5%AE%A0%E7%89%A9%E5%8C%BB%E9%99%A2&src=vetmap&coordinate=gaode&callnative=1"},{"name":"安康宠物医院","address":"城关镇春水桥南300米路西金水河畔底商兴中道252号","phone":"15660888257;18623886363","category":"医疗保健服务;动物医疗场所;宠物诊所","area":"","lng":115.320252,"lat":34.076469,"amap_id":"B0FFI61M9I","order":8,"prev_distance_km":1.165,"cumulative_distance_km":25.446,"amap_marker_url":"https://uri.amap.com/marker?position=115.320252,34.076469&name=%E5%AE%89%E5%BA%B7%E5%AE%A0%E7%89%A9%E5%8C%BB%E9%99%A2&src=vetmap&coordinate=gaode&callnative=1"},{"name":"牧安堂兽药店","address":"","phone":"0370-7228635;13937083249","category":"医疗保健服务;动物医疗场所;动物医疗场所","area":"","lng":115.312158,"lat":34.070745,"amap_id":"B0L6OD9NU2","order":9,"prev_distance_km":0.98,"cumulative_distance_km":26.426,"amap_marker_url":"https://uri.amap.com/marker?position=115.312158,34.070745&name=%E7%89%A7%E5%AE%89%E5%A0%82%E5%85%BD%E8%8D%AF%E5%BA%97&src=vetmap&coordinate=gaode&callnative=1"},{"name":"宠儿康动物医院(力狼犬粮专卖店)","address":"妇幼保健院西20米路南","phone":"","category":"医疗保健服务;动物医疗场所;宠物诊所","area":"","lng":115.310958,"lat":34.070548,"amap_id":"B0FFFY58VC","order":10,"prev_distance_km":0.113,"cumulative_distance_km":26.539,"amap_marker_url":"https://uri.amap.com/marker?position=115.310958,34.070548&name=%E5%AE%A0%E5%84%BF%E5%BA%B7%E5%8A%A8%E7%89%A9%E5%8C%BB%E9%99%A2%28%E5%8A%9B%E7%8B%BC%E7%8A%AC%E7%B2%AE%E4%B8%93%E5%8D%96%E5%BA%97%29&src=vetmap&coordinate=gaode&callnative=1"},{"name":"今日康牧业","address":"博地小区西门旁","phone":"0370-6018188;13938947859","category":"医疗保健服务;动物医疗场所;动物医疗场所","area":"","lng":115.286845,"lat":34.080288,"amap_id":"B0FFFRL3HR","order":11,"prev_distance_km":2.471,"cumulative_distance_km":29.01,"amap_marker_url":"https://uri.amap.com/marker?position=115.286845,34.080288&name=%E4%BB%8A%E6%97%A5%E5%BA%B7%E7%89%A7%E4%B8%9A&src=vetmap&coordinate=gaode&callnative=1"},{"name":"畜禽诊所","address":"柘睢路东北30米","phone":"","category":"医疗保健服务;动物医疗场所;兽医站","area":"","lng":115.240942,"lat":34.159608,"amap_id":"B0J1FX6KO5","order":12,"prev_distance_km":9.78,"cumulative_distance_km":38.79,"amap_marker_url":"https://uri.amap.com/marker?position=115.240942,34.159608&name=%E7%95%9C%E7%A6%BD%E8%AF%8A%E6%89%80&src=vetmap&coordinate=gaode&callnative=1"},{"name":"张孝增动物诊所","address":"柘睢路与远申公路交叉口西北300米","phone":"","category":"医疗保健服务;动物医疗场所;宠物诊所","area":"","lng":115.226252,"lat":34.184629,"amap_id":"B0K3M7MMK8","order":13,"prev_distance_km":3.093,"cumulative_distance_km":41.883,"amap_marker_url":"https://uri.amap.com/marker?position=115.226252,34.184629&name=%E5%BC%A0%E5%AD%9D%E5%A2%9E%E5%8A%A8%E7%89%A9%E8%AF%8A%E6%89%80&src=vetmap&coordinate=gaode&callnative=1"},{"name":"兽医门诊","address":"李原乡白集大街","phone":"","category":"医疗保健服务;动物医疗场所;兽医站","area":"","lng":115.160139,"lat":34.016073,"amap_id":"B0I3YZJ7WH","order":14,"prev_distance_km":19.706,"cumulative_distance_km":61.589,"amap_marker_url":"https://uri.amap.com/marker?position=115.160139,34.016073&name=%E5%85%BD%E5%8C%BB%E9%97%A8%E8%AF%8A&src=vetmap&coordinate=gaode&callnative=1"},{"name":"铁关谢医生兽医门诊","address":"铁关信用社西南侧","phone":"13837092025","category":"医疗保健服务;动物医疗场所;兽医站","area":"","lng":115.095557,"lat":33.960308,"amap_id":"B0FFMHA65Q","order":15,"prev_distance_km":8.597,"cumulative_distance_km":70.186,"amap_marker_url":"https://uri.amap.com/marker?position=115.095557,33.960308&name=%E9%93%81%E5%85%B3%E8%B0%A2%E5%8C%BB%E7%94%9F%E5%85%BD%E5%8C%BB%E9%97%A8%E8%AF%8A&src=vetmap&coordinate=gaode&callnative=1"}]}