{"summary":{"id":"d01110","province":"河北省","city":"邢台市","district":"广宗县","count":5,"route_count":1,"max_route_clinics":5,"total_distance_km":28.23,"coordinate_system":"GCJ-02 / Amap","generated_at":"2026-05-08 19:46:45"},"routes":[{"id":"r1","name":"第1段","count":5,"total_distance_km":28.23,"rows":[{"name":"北苏兽医门诊分店","address":"产业路2号","phone":"","category":"医疗保健服务;动物医疗场所;兽医站","area":"","lng":115.220886,"lat":36.97832,"amap_id":"B0KAMU5MN1","order":1,"prev_distance_km":0.0,"cumulative_distance_km":0.0,"amap_marker_url":"https://uri.amap.com/marker?position=115.220886,36.978320&name=%E5%8C%97%E8%8B%8F%E5%85%BD%E5%8C%BB%E9%97%A8%E8%AF%8A%E5%88%86%E5%BA%97&src=vetmap&coordinate=gaode&callnative=1","route_id":"r1","route_name":"第1段"},{"name":"广宗县冯寨畜牧兽医站","address":"政和大街与和谐路交叉口东120米","phone":"","category":"医疗保健服务;动物医疗场所;兽医站","area":"","lng":115.153915,"lat":36.956549,"amap_id":"B0FFI35NH1","order":2,"prev_distance_km":6.423,"cumulative_distance_km":6.423,"amap_marker_url":"https://uri.amap.com/marker?position=115.153915,36.956549&name=%E5%B9%BF%E5%AE%97%E5%8E%BF%E5%86%AF%E5%AF%A8%E7%95%9C%E7%89%A7%E5%85%BD%E5%8C%BB%E7%AB%99&src=vetmap&coordinate=gaode&callnative=1","route_id":"r1","route_name":"第1段"},{"name":"广宗县灵安宠物诊所","address":"长安路盛邦壹号院西门南侧","phone":"15630928337","category":"医疗保健服务;动物医疗场所;宠物诊所","area":"","lng":115.132914,"lat":37.070098,"amap_id":"B0K1BHWLUA","order":3,"prev_distance_km":12.763,"cumulative_distance_km":19.187,"amap_marker_url":"https://uri.amap.com/marker?position=115.132914,37.070098&name=%E5%B9%BF%E5%AE%97%E5%8E%BF%E7%81%B5%E5%AE%89%E5%AE%A0%E7%89%A9%E8%AF%8A%E6%89%80&src=vetmap&coordinate=gaode&callnative=1","route_id":"r1","route_name":"第1段"},{"name":"北苏兽医门诊","address":"大牙线","phone":"15131961959","category":"医疗保健服务;动物医疗场所;兽医站","area":"","lng":115.184425,"lat":37.136079,"amap_id":"B0G27YCDT9","order":4,"prev_distance_km":8.643,"cumulative_distance_km":27.829,"amap_marker_url":"https://uri.amap.com/marker?position=115.184425,37.136079&name=%E5%8C%97%E8%8B%8F%E5%85%BD%E5%8C%BB%E9%97%A8%E8%AF%8A&src=vetmap&coordinate=gaode&callnative=1","route_id":"r1","route_name":"第1段"},{"name":"广宗北苏兽医站","address":"广宗县东召乡北苏畜牧兽医站路西院内","phone":"0319-7222910","category":"医疗保健服务;动物医疗场所;兽医站","area":"","lng":115.18704,"lat":37.139015,"amap_id":"B0M6FU0A6R","order":5,"prev_distance_km":0.4,"cumulative_distance_km":28.23,"amap_marker_url":"https://uri.amap.com/marker?position=115.187040,37.139015&name=%E5%B9%BF%E5%AE%97%E5%8C%97%E8%8B%8F%E5%85%BD%E5%8C%BB%E7%AB%99&src=vetmap&coordinate=gaode&callnative=1","route_id":"r1","route_name":"第1段"}]}],"rows":[{"name":"北苏兽医门诊分店","address":"产业路2号","phone":"","category":"医疗保健服务;动物医疗场所;兽医站","area":"","lng":115.220886,"lat":36.97832,"amap_id":"B0KAMU5MN1","order":1,"prev_distance_km":0.0,"cumulative_distance_km":0.0,"amap_marker_url":"https://uri.amap.com/marker?position=115.220886,36.978320&name=%E5%8C%97%E8%8B%8F%E5%85%BD%E5%8C%BB%E9%97%A8%E8%AF%8A%E5%88%86%E5%BA%97&src=vetmap&coordinate=gaode&callnative=1","route_id":"r1","route_name":"第1段","global_order":1},{"name":"广宗县冯寨畜牧兽医站","address":"政和大街与和谐路交叉口东120米","phone":"","category":"医疗保健服务;动物医疗场所;兽医站","area":"","lng":115.153915,"lat":36.956549,"amap_id":"B0FFI35NH1","order":2,"prev_distance_km":6.423,"cumulative_distance_km":6.423,"amap_marker_url":"https://uri.amap.com/marker?position=115.153915,36.956549&name=%E5%B9%BF%E5%AE%97%E5%8E%BF%E5%86%AF%E5%AF%A8%E7%95%9C%E7%89%A7%E5%85%BD%E5%8C%BB%E7%AB%99&src=vetmap&coordinate=gaode&callnative=1","route_id":"r1","route_name":"第1段","global_order":2},{"name":"广宗县灵安宠物诊所","address":"长安路盛邦壹号院西门南侧","phone":"15630928337","category":"医疗保健服务;动物医疗场所;宠物诊所","area":"","lng":115.132914,"lat":37.070098,"amap_id":"B0K1BHWLUA","order":3,"prev_distance_km":12.763,"cumulative_distance_km":19.187,"amap_marker_url":"https://uri.amap.com/marker?position=115.132914,37.070098&name=%E5%B9%BF%E5%AE%97%E5%8E%BF%E7%81%B5%E5%AE%89%E5%AE%A0%E7%89%A9%E8%AF%8A%E6%89%80&src=vetmap&coordinate=gaode&callnative=1","route_id":"r1","route_name":"第1段","global_order":3},{"name":"北苏兽医门诊","address":"大牙线","phone":"15131961959","category":"医疗保健服务;动物医疗场所;兽医站","area":"","lng":115.184425,"lat":37.136079,"amap_id":"B0G27YCDT9","order":4,"prev_distance_km":8.643,"cumulative_distance_km":27.829,"amap_marker_url":"https://uri.amap.com/marker?position=115.184425,37.136079&name=%E5%8C%97%E8%8B%8F%E5%85%BD%E5%8C%BB%E9%97%A8%E8%AF%8A&src=vetmap&coordinate=gaode&callnative=1","route_id":"r1","route_name":"第1段","global_order":4},{"name":"广宗北苏兽医站","address":"广宗县东召乡北苏畜牧兽医站路西院内","phone":"0319-7222910","category":"医疗保健服务;动物医疗场所;兽医站","area":"","lng":115.18704,"lat":37.139015,"amap_id":"B0M6FU0A6R","order":5,"prev_distance_km":0.4,"cumulative_distance_km":28.23,"amap_marker_url":"https://uri.amap.com/marker?position=115.187040,37.139015&name=%E5%B9%BF%E5%AE%97%E5%8C%97%E8%8B%8F%E5%85%BD%E5%8C%BB%E7%AB%99&src=vetmap&coordinate=gaode&callnative=1","route_id":"r1","route_name":"第1段","global_order":5}]}