{"summary":{"id":"d01139","province":"河南省","city":"三门峡市","district":"灵宝市","count":9,"route_count":1,"max_route_clinics":9,"total_distance_km":69.886,"coordinate_system":"GCJ-02 / Amap","generated_at":"2026-05-08 19:46:46"},"routes":[{"id":"r1","name":"第1段","count":9,"total_distance_km":69.886,"rows":[{"name":"灵宝市豫灵镇畜牧兽医站","address":"亚武路与中州路交叉口西120米","phone":"","category":"医疗保健服务;动物医疗场所;兽医站","area":"","lng":110.401597,"lat":34.517523,"amap_id":"B0GK67SY30","order":1,"prev_distance_km":0.0,"cumulative_distance_km":0.0,"amap_marker_url":"https://uri.amap.com/marker?position=110.401597,34.517523&name=%E7%81%B5%E5%AE%9D%E5%B8%82%E8%B1%AB%E7%81%B5%E9%95%87%E7%95%9C%E7%89%A7%E5%85%BD%E5%8C%BB%E7%AB%99&src=vetmap&coordinate=gaode&callnative=1","route_id":"r1","route_name":"第1段"},{"name":"宠爱一生动物门诊","address":"中州路与亚武路交叉口北200米","phone":"16639826116","category":"医疗保健服务;动物医疗场所;宠物诊所","area":"","lng":110.402354,"lat":34.519613,"amap_id":"B0H63A81VC","order":2,"prev_distance_km":0.243,"cumulative_distance_km":0.243,"amap_marker_url":"https://uri.amap.com/marker?position=110.402354,34.519613&name=%E5%AE%A0%E7%88%B1%E4%B8%80%E7%94%9F%E5%8A%A8%E7%89%A9%E9%97%A8%E8%AF%8A&src=vetmap&coordinate=gaode&callnative=1","route_id":"r1","route_name":"第1段"},{"name":"爱宠动物门诊","address":"009县道广凡装饰建材旁下古堆007","phone":"13949766551","category":"医疗保健服务;动物医疗场所;宠物诊所","area":"","lng":110.404256,"lat":34.51813,"amap_id":"B0G3AYC17D","order":3,"prev_distance_km":0.24,"cumulative_distance_km":0.482,"amap_marker_url":"https://uri.amap.com/marker?position=110.404256,34.518130&name=%E7%88%B1%E5%AE%A0%E5%8A%A8%E7%89%A9%E9%97%A8%E8%AF%8A&src=vetmap&coordinate=gaode&callnative=1","route_id":"r1","route_name":"第1段"},{"name":"灵宝动物疾病研治中心","address":"怡馨年华东区西北门西南90米","phone":"13653825799","category":"医疗保健服务;动物医疗场所;宠物诊所","area":"","lng":110.875605,"lat":34.536134,"amap_id":"B0G3FLMGLF","order":4,"prev_distance_km":43.226,"cumulative_distance_km":43.709,"amap_marker_url":"https://uri.amap.com/marker?position=110.875605,34.536134&name=%E7%81%B5%E5%AE%9D%E5%8A%A8%E7%89%A9%E7%96%BE%E7%97%85%E7%A0%94%E6%B2%BB%E4%B8%AD%E5%BF%83&src=vetmap&coordinate=gaode&callnative=1","route_id":"r1","route_name":"第1段"},{"name":"农大畜牧中心","address":"长安路辅路与强人东二街交叉口东北100米","phone":"13525239772","category":"医疗保健服务;动物医疗场所;动物医疗场所","area":"","lng":110.873925,"lat":34.531775,"amap_id":"B018E0NETN","order":5,"prev_distance_km":0.509,"cumulative_distance_km":44.217,"amap_marker_url":"https://uri.amap.com/marker?position=110.873925,34.531775&name=%E5%86%9C%E5%A4%A7%E7%95%9C%E7%89%A7%E4%B8%AD%E5%BF%83&src=vetmap&coordinate=gaode&callnative=1","route_id":"r1","route_name":"第1段"},{"name":"德峰宠物诊所","address":"崟鑫家园西门旁","phone":"13103981571;18239830911","category":"医疗保健服务;动物医疗场所;宠物诊所","area":"","lng":110.884844,"lat":34.522764,"amap_id":"B0FFIVMQAN","order":6,"prev_distance_km":1.416,"cumulative_distance_km":45.633,"amap_marker_url":"https://uri.amap.com/marker?position=110.884844,34.522764&name=%E5%BE%B7%E5%B3%B0%E5%AE%A0%E7%89%A9%E8%AF%8A%E6%89%80&src=vetmap&coordinate=gaode&callnative=1","route_id":"r1","route_name":"第1段"},{"name":"兽医门诊","address":"鼎原路与024县道交叉口北100米","phone":"","category":"医疗保健服务;动物医疗场所;兽医站","area":"","lng":110.887527,"lat":34.507168,"amap_id":"B0K3T7YQGV","order":7,"prev_distance_km":1.752,"cumulative_distance_km":47.384,"amap_marker_url":"https://uri.amap.com/marker?position=110.887527,34.507168&name=%E5%85%BD%E5%8C%BB%E9%97%A8%E8%AF%8A&src=vetmap&coordinate=gaode&callnative=1","route_id":"r1","route_name":"第1段"},{"name":"灵宝市川口乡川口村兽医服务站","address":"川口乡川口小学东侧70米","phone":"","category":"医疗保健服务;动物医疗场所;兽医站","area":"","lng":110.954515,"lat":34.521312,"amap_id":"B0IUHMNFTN","order":8,"prev_distance_km":6.336,"cumulative_distance_km":53.72,"amap_marker_url":"https://uri.amap.com/marker?position=110.954515,34.521312&name=%E7%81%B5%E5%AE%9D%E5%B8%82%E5%B7%9D%E5%8F%A3%E4%B9%A1%E5%B7%9D%E5%8F%A3%E6%9D%91%E5%85%BD%E5%8C%BB%E6%9C%8D%E5%8A%A1%E7%AB%99&src=vetmap&coordinate=gaode&callnative=1","route_id":"r1","route_name":"第1段"},{"name":"畜禽技术服务部","address":"大王镇干点纪念塔对面","phone":"13949750176","category":"医疗保健服务;动物医疗场所;兽医站","area":"","lng":111.022832,"lat":34.655373,"amap_id":"B0FFH473HT","order":9,"prev_distance_km":16.166,"cumulative_distance_km":69.886,"amap_marker_url":"https://uri.amap.com/marker?position=111.022832,34.655373&name=%E7%95%9C%E7%A6%BD%E6%8A%80%E6%9C%AF%E6%9C%8D%E5%8A%A1%E9%83%A8&src=vetmap&coordinate=gaode&callnative=1","route_id":"r1","route_name":"第1段"}]}],"rows":[{"name":"灵宝市豫灵镇畜牧兽医站","address":"亚武路与中州路交叉口西120米","phone":"","category":"医疗保健服务;动物医疗场所;兽医站","area":"","lng":110.401597,"lat":34.517523,"amap_id":"B0GK67SY30","order":1,"prev_distance_km":0.0,"cumulative_distance_km":0.0,"amap_marker_url":"https://uri.amap.com/marker?position=110.401597,34.517523&name=%E7%81%B5%E5%AE%9D%E5%B8%82%E8%B1%AB%E7%81%B5%E9%95%87%E7%95%9C%E7%89%A7%E5%85%BD%E5%8C%BB%E7%AB%99&src=vetmap&coordinate=gaode&callnative=1","route_id":"r1","route_name":"第1段","global_order":1},{"name":"宠爱一生动物门诊","address":"中州路与亚武路交叉口北200米","phone":"16639826116","category":"医疗保健服务;动物医疗场所;宠物诊所","area":"","lng":110.402354,"lat":34.519613,"amap_id":"B0H63A81VC","order":2,"prev_distance_km":0.243,"cumulative_distance_km":0.243,"amap_marker_url":"https://uri.amap.com/marker?position=110.402354,34.519613&name=%E5%AE%A0%E7%88%B1%E4%B8%80%E7%94%9F%E5%8A%A8%E7%89%A9%E9%97%A8%E8%AF%8A&src=vetmap&coordinate=gaode&callnative=1","route_id":"r1","route_name":"第1段","global_order":2},{"name":"爱宠动物门诊","address":"009县道广凡装饰建材旁下古堆007","phone":"13949766551","category":"医疗保健服务;动物医疗场所;宠物诊所","area":"","lng":110.404256,"lat":34.51813,"amap_id":"B0G3AYC17D","order":3,"prev_distance_km":0.24,"cumulative_distance_km":0.482,"amap_marker_url":"https://uri.amap.com/marker?position=110.404256,34.518130&name=%E7%88%B1%E5%AE%A0%E5%8A%A8%E7%89%A9%E9%97%A8%E8%AF%8A&src=vetmap&coordinate=gaode&callnative=1","route_id":"r1","route_name":"第1段","global_order":3},{"name":"灵宝动物疾病研治中心","address":"怡馨年华东区西北门西南90米","phone":"13653825799","category":"医疗保健服务;动物医疗场所;宠物诊所","area":"","lng":110.875605,"lat":34.536134,"amap_id":"B0G3FLMGLF","order":4,"prev_distance_km":43.226,"cumulative_distance_km":43.709,"amap_marker_url":"https://uri.amap.com/marker?position=110.875605,34.536134&name=%E7%81%B5%E5%AE%9D%E5%8A%A8%E7%89%A9%E7%96%BE%E7%97%85%E7%A0%94%E6%B2%BB%E4%B8%AD%E5%BF%83&src=vetmap&coordinate=gaode&callnative=1","route_id":"r1","route_name":"第1段","global_order":4},{"name":"农大畜牧中心","address":"长安路辅路与强人东二街交叉口东北100米","phone":"13525239772","category":"医疗保健服务;动物医疗场所;动物医疗场所","area":"","lng":110.873925,"lat":34.531775,"amap_id":"B018E0NETN","order":5,"prev_distance_km":0.509,"cumulative_distance_km":44.217,"amap_marker_url":"https://uri.amap.com/marker?position=110.873925,34.531775&name=%E5%86%9C%E5%A4%A7%E7%95%9C%E7%89%A7%E4%B8%AD%E5%BF%83&src=vetmap&coordinate=gaode&callnative=1","route_id":"r1","route_name":"第1段","global_order":5},{"name":"德峰宠物诊所","address":"崟鑫家园西门旁","phone":"13103981571;18239830911","category":"医疗保健服务;动物医疗场所;宠物诊所","area":"","lng":110.884844,"lat":34.522764,"amap_id":"B0FFIVMQAN","order":6,"prev_distance_km":1.416,"cumulative_distance_km":45.633,"amap_marker_url":"https://uri.amap.com/marker?position=110.884844,34.522764&name=%E5%BE%B7%E5%B3%B0%E5%AE%A0%E7%89%A9%E8%AF%8A%E6%89%80&src=vetmap&coordinate=gaode&callnative=1","route_id":"r1","route_name":"第1段","global_order":6},{"name":"兽医门诊","address":"鼎原路与024县道交叉口北100米","phone":"","category":"医疗保健服务;动物医疗场所;兽医站","area":"","lng":110.887527,"lat":34.507168,"amap_id":"B0K3T7YQGV","order":7,"prev_distance_km":1.752,"cumulative_distance_km":47.384,"amap_marker_url":"https://uri.amap.com/marker?position=110.887527,34.507168&name=%E5%85%BD%E5%8C%BB%E9%97%A8%E8%AF%8A&src=vetmap&coordinate=gaode&callnative=1","route_id":"r1","route_name":"第1段","global_order":7},{"name":"灵宝市川口乡川口村兽医服务站","address":"川口乡川口小学东侧70米","phone":"","category":"医疗保健服务;动物医疗场所;兽医站","area":"","lng":110.954515,"lat":34.521312,"amap_id":"B0IUHMNFTN","order":8,"prev_distance_km":6.336,"cumulative_distance_km":53.72,"amap_marker_url":"https://uri.amap.com/marker?position=110.954515,34.521312&name=%E7%81%B5%E5%AE%9D%E5%B8%82%E5%B7%9D%E5%8F%A3%E4%B9%A1%E5%B7%9D%E5%8F%A3%E6%9D%91%E5%85%BD%E5%8C%BB%E6%9C%8D%E5%8A%A1%E7%AB%99&src=vetmap&coordinate=gaode&callnative=1","route_id":"r1","route_name":"第1段","global_order":8},{"name":"畜禽技术服务部","address":"大王镇干点纪念塔对面","phone":"13949750176","category":"医疗保健服务;动物医疗场所;兽医站","area":"","lng":111.022832,"lat":34.655373,"amap_id":"B0FFH473HT","order":9,"prev_distance_km":16.166,"cumulative_distance_km":69.886,"amap_marker_url":"https://uri.amap.com/marker?position=111.022832,34.655373&name=%E7%95%9C%E7%A6%BD%E6%8A%80%E6%9C%AF%E6%9C%8D%E5%8A%A1%E9%83%A8&src=vetmap&coordinate=gaode&callnative=1","route_id":"r1","route_name":"第1段","global_order":9}]}