{"summary":{"id":"d01172","province":"河南省","city":"周口市","district":"项城市","count":16,"route_count":1,"max_route_clinics":16,"total_distance_km":75.037,"coordinate_system":"GCJ-02 / Amap","generated_at":"2026-05-08 19:46:49"},"routes":[{"id":"r1","name":"第1段","count":16,"total_distance_km":75.037,"rows":[{"name":"宜宠康宠物中心","address":"花园路书香府邸西50米路南","phone":"17724806658","category":"医疗保健服务;动物医疗场所;宠物诊所","area":"","lng":114.88861,"lat":33.454101,"amap_id":"B0IGHHDZEO","order":1,"prev_distance_km":0.0,"cumulative_distance_km":0.0,"amap_marker_url":"https://uri.amap.com/marker?position=114.888610,33.454101&name=%E5%AE%9C%E5%AE%A0%E5%BA%B7%E5%AE%A0%E7%89%A9%E4%B8%AD%E5%BF%83&src=vetmap&coordinate=gaode&callnative=1","route_id":"r1","route_name":"第1段"},{"name":"宠一生24小时动物医院(项城市)","address":"交通路与迎宾大道交叉口东20米路南6号","phone":"13949991552","category":"医疗保健服务;动物医疗场所;宠物诊所","area":"交通西路","lng":114.887171,"lat":33.441674,"amap_id":"B0KKRLUX2A","order":2,"prev_distance_km":1.388,"cumulative_distance_km":1.388,"amap_marker_url":"https://uri.amap.com/marker?position=114.887171,33.441674&name=%E5%AE%A0%E4%B8%80%E7%94%9F24%E5%B0%8F%E6%97%B6%E5%8A%A8%E7%89%A9%E5%8C%BB%E9%99%A2%28%E9%A1%B9%E5%9F%8E%E5%B8%82%29&src=vetmap&coordinate=gaode&callnative=1","route_id":"r1","route_name":"第1段"},{"name":"艾森宠物医院","address":"国控睿智城1号院2-116","phone":"19339853388","category":"医疗保健服务;动物医疗场所;宠物诊所","area":"","lng":114.8858,"lat":33.438843,"amap_id":"B0KKKAX0CJ","order":3,"prev_distance_km":0.34,"cumulative_distance_km":1.728,"amap_marker_url":"https://uri.amap.com/marker?position=114.885800,33.438843&name=%E8%89%BE%E6%A3%AE%E5%AE%A0%E7%89%A9%E5%8C%BB%E9%99%A2&src=vetmap&coordinate=gaode&callnative=1","route_id":"r1","route_name":"第1段"},{"name":"乐宠动物医院","address":"平安大道与工业南路交叉口西240米","phone":"","category":"医疗保健服务;动物医疗场所;宠物诊所","area":"","lng":114.896275,"lat":33.434975,"amap_id":"B0K3H9W2RT","order":4,"prev_distance_km":1.063,"cumulative_distance_km":2.791,"amap_marker_url":"https://uri.amap.com/marker?position=114.896275,33.434975&name=%E4%B9%90%E5%AE%A0%E5%8A%A8%E7%89%A9%E5%8C%BB%E9%99%A2&src=vetmap&coordinate=gaode&callnative=1","route_id":"r1","route_name":"第1段"},{"name":"项城市凤丽动物门诊","address":"千佛阁街道工业南路76号","phone":"13849431392;15839499622","category":"医疗保健服务;动物医疗场所;动物医疗场所","area":"","lng":114.89884,"lat":33.435745,"amap_id":"B0FFKTBZ48","order":5,"prev_distance_km":0.253,"cumulative_distance_km":3.044,"amap_marker_url":"https://uri.amap.com/marker?position=114.898840,33.435745&name=%E9%A1%B9%E5%9F%8E%E5%B8%82%E5%87%A4%E4%B8%BD%E5%8A%A8%E7%89%A9%E9%97%A8%E8%AF%8A&src=vetmap&coordinate=gaode&callnative=1","route_id":"r1","route_name":"第1段"},{"name":"旺贝宠物康复门诊","address":"工业路潘营村6号","phone":"15839454669","category":"医疗保健服务;动物医疗场所;宠物诊所","area":"","lng":114.898874,"lat":33.43556,"amap_id":"B0FFLO8MVG","order":6,"prev_distance_km":0.021,"cumulative_distance_km":3.064,"amap_marker_url":"https://uri.amap.com/marker?position=114.898874,33.435560&name=%E6%97%BA%E8%B4%9D%E5%AE%A0%E7%89%A9%E5%BA%B7%E5%A4%8D%E9%97%A8%E8%AF%8A&src=vetmap&coordinate=gaode&callnative=1","route_id":"r1","route_name":"第1段"},{"name":"项城市宠物康动物门诊","address":"千佛阁街道项城市国土资源局对面","phone":"13525752786","category":"医疗保健服务;动物医疗场所;宠物诊所","area":"","lng":114.900463,"lat":33.434888,"amap_id":"B0FFK8G3EN","order":7,"prev_distance_km":0.165,"cumulative_distance_km":3.23,"amap_marker_url":"https://uri.amap.com/marker?position=114.900463,33.434888&name=%E9%A1%B9%E5%9F%8E%E5%B8%82%E5%AE%A0%E7%89%A9%E5%BA%B7%E5%8A%A8%E7%89%A9%E9%97%A8%E8%AF%8A&src=vetmap&coordinate=gaode&callnative=1","route_id":"r1","route_name":"第1段"},{"name":"伴侣宠物医院(24小时急诊)","address":"团结路莲花仙子南350米路东","phone":"13343940972;17797793393","category":"医疗保健服务;动物医疗场所;宠物诊所","area":"","lng":114.901496,"lat":33.437913,"amap_id":"B0FFHXKKUE","order":8,"prev_distance_km":0.35,"cumulative_distance_km":3.579,"amap_marker_url":"https://uri.amap.com/marker?position=114.901496,33.437913&name=%E4%BC%B4%E4%BE%A3%E5%AE%A0%E7%89%A9%E5%8C%BB%E9%99%A2%2824%E5%B0%8F%E6%97%B6%E6%80%A5%E8%AF%8A%29&src=vetmap&coordinate=gaode&callnative=1","route_id":"r1","route_name":"第1段"},{"name":"康贝宠物生活馆","address":"文博鑫城西3门旁","phone":"","category":"医疗保健服务;动物医疗场所;宠物诊所","area":"东大街","lng":114.918685,"lat":33.446618,"amap_id":"B0FFK8CPRG","order":9,"prev_distance_km":1.866,"cumulative_distance_km":5.445,"amap_marker_url":"https://uri.amap.com/marker?position=114.918685,33.446618&name=%E5%BA%B7%E8%B4%9D%E5%AE%A0%E7%89%A9%E7%94%9F%E6%B4%BB%E9%A6%86&src=vetmap&coordinate=gaode&callnative=1","route_id":"r1","route_name":"第1段"},{"name":"康贝宠物生活馆(康贝宠物门诊)","address":"文明路北段文博鑫城13号楼","phone":"18638738181","category":"医疗保健服务;动物医疗场所;宠物诊所","area":"东大街","lng":114.918663,"lat":33.446325,"amap_id":"B0FFMDFBSF","order":10,"prev_distance_km":0.033,"cumulative_distance_km":5.478,"amap_marker_url":"https://uri.amap.com/marker?position=114.918663,33.446325&name=%E5%BA%B7%E8%B4%9D%E5%AE%A0%E7%89%A9%E7%94%9F%E6%B4%BB%E9%A6%86%28%E5%BA%B7%E8%B4%9D%E5%AE%A0%E7%89%A9%E9%97%A8%E8%AF%8A%29&src=vetmap&coordinate=gaode&callnative=1","route_id":"r1","route_name":"第1段"},{"name":"爱康宠物门诊(项城店)","address":"育华园小区东门旁","phone":"15518125879","category":"医疗保健服务;动物医疗场所;宠物诊所","area":"","lng":114.916753,"lat":33.435525,"amap_id":"B0J0VCWPKX","order":11,"prev_distance_km":1.214,"cumulative_distance_km":6.692,"amap_marker_url":"https://uri.amap.com/marker?position=114.916753,33.435525&name=%E7%88%B1%E5%BA%B7%E5%AE%A0%E7%89%A9%E9%97%A8%E8%AF%8A%28%E9%A1%B9%E5%9F%8E%E5%BA%97%29&src=vetmap&coordinate=gaode&callnative=1","route_id":"r1","route_name":"第1段"},{"name":"丁集镇畜禽服务站","address":"014县道与327省道交叉口南140米","phone":"13619899818;13939402831","category":"医疗保健服务;动物医疗场所;兽医站","area":"","lng":114.928604,"lat":33.330037,"amap_id":"B0FFG3ZY9Q","order":12,"prev_distance_km":11.781,"cumulative_distance_km":18.473,"amap_marker_url":"https://uri.amap.com/marker?position=114.928604,33.330037&name=%E4%B8%81%E9%9B%86%E9%95%87%E7%95%9C%E7%A6%BD%E6%9C%8D%E5%8A%A1%E7%AB%99&src=vetmap&coordinate=gaode&callnative=1","route_id":"r1","route_name":"第1段"},{"name":"刘营兽医站","address":"秣陵镇刘营村2号院","phone":"","category":"医疗保健服务;动物医疗场所;兽医站","area":"","lng":114.810209,"lat":33.245054,"amap_id":"B0IB9S7YYJ","order":13,"prev_distance_km":14.505,"cumulative_distance_km":32.978,"amap_marker_url":"https://uri.amap.com/marker?position=114.810209,33.245054&name=%E5%88%98%E8%90%A5%E5%85%BD%E5%8C%BB%E7%AB%99&src=vetmap&coordinate=gaode&callnative=1","route_id":"r1","route_name":"第1段"},{"name":"老石宠物兽药门诊","address":"东西大道与020县道交叉口西180米","phone":"18037818897","category":"医疗保健服务;动物医疗场所;宠物诊所","area":"","lng":114.746798,"lat":33.156235,"amap_id":"B0GKZH9WVA","order":14,"prev_distance_km":11.504,"cumulative_distance_km":44.483,"amap_marker_url":"https://uri.amap.com/marker?position=114.746798,33.156235&name=%E8%80%81%E7%9F%B3%E5%AE%A0%E7%89%A9%E5%85%BD%E8%8D%AF%E9%97%A8%E8%AF%8A&src=vetmap&coordinate=gaode&callnative=1","route_id":"r1","route_name":"第1段"},{"name":"同惠动物诊疗服务中心","address":"106国道","phone":"15137199431","category":"医疗保健服务;动物医疗场所;兽医站","area":"","lng":114.858791,"lat":33.097818,"amap_id":"B0I30AITND","order":15,"prev_distance_km":12.286,"cumulative_distance_km":56.769,"amap_marker_url":"https://uri.amap.com/marker?position=114.858791,33.097818&name=%E5%90%8C%E6%83%A0%E5%8A%A8%E7%89%A9%E8%AF%8A%E7%96%97%E6%9C%8D%E5%8A%A1%E4%B8%AD%E5%BF%83&src=vetmap&coordinate=gaode&callnative=1","route_id":"r1","route_name":"第1段"},{"name":"兽医站","address":"216省道与017乡道交叉口北100米","phone":"","category":"医疗保健服务;动物医疗场所;兽医站","area":"","lng":115.005272,"lat":33.207141,"amap_id":"B0J1JO1Q04","order":16,"prev_distance_km":18.268,"cumulative_distance_km":75.037,"amap_marker_url":"https://uri.amap.com/marker?position=115.005272,33.207141&name=%E5%85%BD%E5%8C%BB%E7%AB%99&src=vetmap&coordinate=gaode&callnative=1","route_id":"r1","route_name":"第1段"}]}],"rows":[{"name":"宜宠康宠物中心","address":"花园路书香府邸西50米路南","phone":"17724806658","category":"医疗保健服务;动物医疗场所;宠物诊所","area":"","lng":114.88861,"lat":33.454101,"amap_id":"B0IGHHDZEO","order":1,"prev_distance_km":0.0,"cumulative_distance_km":0.0,"amap_marker_url":"https://uri.amap.com/marker?position=114.888610,33.454101&name=%E5%AE%9C%E5%AE%A0%E5%BA%B7%E5%AE%A0%E7%89%A9%E4%B8%AD%E5%BF%83&src=vetmap&coordinate=gaode&callnative=1","route_id":"r1","route_name":"第1段","global_order":1},{"name":"宠一生24小时动物医院(项城市)","address":"交通路与迎宾大道交叉口东20米路南6号","phone":"13949991552","category":"医疗保健服务;动物医疗场所;宠物诊所","area":"交通西路","lng":114.887171,"lat":33.441674,"amap_id":"B0KKRLUX2A","order":2,"prev_distance_km":1.388,"cumulative_distance_km":1.388,"amap_marker_url":"https://uri.amap.com/marker?position=114.887171,33.441674&name=%E5%AE%A0%E4%B8%80%E7%94%9F24%E5%B0%8F%E6%97%B6%E5%8A%A8%E7%89%A9%E5%8C%BB%E9%99%A2%28%E9%A1%B9%E5%9F%8E%E5%B8%82%29&src=vetmap&coordinate=gaode&callnative=1","route_id":"r1","route_name":"第1段","global_order":2},{"name":"艾森宠物医院","address":"国控睿智城1号院2-116","phone":"19339853388","category":"医疗保健服务;动物医疗场所;宠物诊所","area":"","lng":114.8858,"lat":33.438843,"amap_id":"B0KKKAX0CJ","order":3,"prev_distance_km":0.34,"cumulative_distance_km":1.728,"amap_marker_url":"https://uri.amap.com/marker?position=114.885800,33.438843&name=%E8%89%BE%E6%A3%AE%E5%AE%A0%E7%89%A9%E5%8C%BB%E9%99%A2&src=vetmap&coordinate=gaode&callnative=1","route_id":"r1","route_name":"第1段","global_order":3},{"name":"乐宠动物医院","address":"平安大道与工业南路交叉口西240米","phone":"","category":"医疗保健服务;动物医疗场所;宠物诊所","area":"","lng":114.896275,"lat":33.434975,"amap_id":"B0K3H9W2RT","order":4,"prev_distance_km":1.063,"cumulative_distance_km":2.791,"amap_marker_url":"https://uri.amap.com/marker?position=114.896275,33.434975&name=%E4%B9%90%E5%AE%A0%E5%8A%A8%E7%89%A9%E5%8C%BB%E9%99%A2&src=vetmap&coordinate=gaode&callnative=1","route_id":"r1","route_name":"第1段","global_order":4},{"name":"项城市凤丽动物门诊","address":"千佛阁街道工业南路76号","phone":"13849431392;15839499622","category":"医疗保健服务;动物医疗场所;动物医疗场所","area":"","lng":114.89884,"lat":33.435745,"amap_id":"B0FFKTBZ48","order":5,"prev_distance_km":0.253,"cumulative_distance_km":3.044,"amap_marker_url":"https://uri.amap.com/marker?position=114.898840,33.435745&name=%E9%A1%B9%E5%9F%8E%E5%B8%82%E5%87%A4%E4%B8%BD%E5%8A%A8%E7%89%A9%E9%97%A8%E8%AF%8A&src=vetmap&coordinate=gaode&callnative=1","route_id":"r1","route_name":"第1段","global_order":5},{"name":"旺贝宠物康复门诊","address":"工业路潘营村6号","phone":"15839454669","category":"医疗保健服务;动物医疗场所;宠物诊所","area":"","lng":114.898874,"lat":33.43556,"amap_id":"B0FFLO8MVG","order":6,"prev_distance_km":0.021,"cumulative_distance_km":3.064,"amap_marker_url":"https://uri.amap.com/marker?position=114.898874,33.435560&name=%E6%97%BA%E8%B4%9D%E5%AE%A0%E7%89%A9%E5%BA%B7%E5%A4%8D%E9%97%A8%E8%AF%8A&src=vetmap&coordinate=gaode&callnative=1","route_id":"r1","route_name":"第1段","global_order":6},{"name":"项城市宠物康动物门诊","address":"千佛阁街道项城市国土资源局对面","phone":"13525752786","category":"医疗保健服务;动物医疗场所;宠物诊所","area":"","lng":114.900463,"lat":33.434888,"amap_id":"B0FFK8G3EN","order":7,"prev_distance_km":0.165,"cumulative_distance_km":3.23,"amap_marker_url":"https://uri.amap.com/marker?position=114.900463,33.434888&name=%E9%A1%B9%E5%9F%8E%E5%B8%82%E5%AE%A0%E7%89%A9%E5%BA%B7%E5%8A%A8%E7%89%A9%E9%97%A8%E8%AF%8A&src=vetmap&coordinate=gaode&callnative=1","route_id":"r1","route_name":"第1段","global_order":7},{"name":"伴侣宠物医院(24小时急诊)","address":"团结路莲花仙子南350米路东","phone":"13343940972;17797793393","category":"医疗保健服务;动物医疗场所;宠物诊所","area":"","lng":114.901496,"lat":33.437913,"amap_id":"B0FFHXKKUE","order":8,"prev_distance_km":0.35,"cumulative_distance_km":3.579,"amap_marker_url":"https://uri.amap.com/marker?position=114.901496,33.437913&name=%E4%BC%B4%E4%BE%A3%E5%AE%A0%E7%89%A9%E5%8C%BB%E9%99%A2%2824%E5%B0%8F%E6%97%B6%E6%80%A5%E8%AF%8A%29&src=vetmap&coordinate=gaode&callnative=1","route_id":"r1","route_name":"第1段","global_order":8},{"name":"康贝宠物生活馆","address":"文博鑫城西3门旁","phone":"","category":"医疗保健服务;动物医疗场所;宠物诊所","area":"东大街","lng":114.918685,"lat":33.446618,"amap_id":"B0FFK8CPRG","order":9,"prev_distance_km":1.866,"cumulative_distance_km":5.445,"amap_marker_url":"https://uri.amap.com/marker?position=114.918685,33.446618&name=%E5%BA%B7%E8%B4%9D%E5%AE%A0%E7%89%A9%E7%94%9F%E6%B4%BB%E9%A6%86&src=vetmap&coordinate=gaode&callnative=1","route_id":"r1","route_name":"第1段","global_order":9},{"name":"康贝宠物生活馆(康贝宠物门诊)","address":"文明路北段文博鑫城13号楼","phone":"18638738181","category":"医疗保健服务;动物医疗场所;宠物诊所","area":"东大街","lng":114.918663,"lat":33.446325,"amap_id":"B0FFMDFBSF","order":10,"prev_distance_km":0.033,"cumulative_distance_km":5.478,"amap_marker_url":"https://uri.amap.com/marker?position=114.918663,33.446325&name=%E5%BA%B7%E8%B4%9D%E5%AE%A0%E7%89%A9%E7%94%9F%E6%B4%BB%E9%A6%86%28%E5%BA%B7%E8%B4%9D%E5%AE%A0%E7%89%A9%E9%97%A8%E8%AF%8A%29&src=vetmap&coordinate=gaode&callnative=1","route_id":"r1","route_name":"第1段","global_order":10},{"name":"爱康宠物门诊(项城店)","address":"育华园小区东门旁","phone":"15518125879","category":"医疗保健服务;动物医疗场所;宠物诊所","area":"","lng":114.916753,"lat":33.435525,"amap_id":"B0J0VCWPKX","order":11,"prev_distance_km":1.214,"cumulative_distance_km":6.692,"amap_marker_url":"https://uri.amap.com/marker?position=114.916753,33.435525&name=%E7%88%B1%E5%BA%B7%E5%AE%A0%E7%89%A9%E9%97%A8%E8%AF%8A%28%E9%A1%B9%E5%9F%8E%E5%BA%97%29&src=vetmap&coordinate=gaode&callnative=1","route_id":"r1","route_name":"第1段","global_order":11},{"name":"丁集镇畜禽服务站","address":"014县道与327省道交叉口南140米","phone":"13619899818;13939402831","category":"医疗保健服务;动物医疗场所;兽医站","area":"","lng":114.928604,"lat":33.330037,"amap_id":"B0FFG3ZY9Q","order":12,"prev_distance_km":11.781,"cumulative_distance_km":18.473,"amap_marker_url":"https://uri.amap.com/marker?position=114.928604,33.330037&name=%E4%B8%81%E9%9B%86%E9%95%87%E7%95%9C%E7%A6%BD%E6%9C%8D%E5%8A%A1%E7%AB%99&src=vetmap&coordinate=gaode&callnative=1","route_id":"r1","route_name":"第1段","global_order":12},{"name":"刘营兽医站","address":"秣陵镇刘营村2号院","phone":"","category":"医疗保健服务;动物医疗场所;兽医站","area":"","lng":114.810209,"lat":33.245054,"amap_id":"B0IB9S7YYJ","order":13,"prev_distance_km":14.505,"cumulative_distance_km":32.978,"amap_marker_url":"https://uri.amap.com/marker?position=114.810209,33.245054&name=%E5%88%98%E8%90%A5%E5%85%BD%E5%8C%BB%E7%AB%99&src=vetmap&coordinate=gaode&callnative=1","route_id":"r1","route_name":"第1段","global_order":13},{"name":"老石宠物兽药门诊","address":"东西大道与020县道交叉口西180米","phone":"18037818897","category":"医疗保健服务;动物医疗场所;宠物诊所","area":"","lng":114.746798,"lat":33.156235,"amap_id":"B0GKZH9WVA","order":14,"prev_distance_km":11.504,"cumulative_distance_km":44.483,"amap_marker_url":"https://uri.amap.com/marker?position=114.746798,33.156235&name=%E8%80%81%E7%9F%B3%E5%AE%A0%E7%89%A9%E5%85%BD%E8%8D%AF%E9%97%A8%E8%AF%8A&src=vetmap&coordinate=gaode&callnative=1","route_id":"r1","route_name":"第1段","global_order":14},{"name":"同惠动物诊疗服务中心","address":"106国道","phone":"15137199431","category":"医疗保健服务;动物医疗场所;兽医站","area":"","lng":114.858791,"lat":33.097818,"amap_id":"B0I30AITND","order":15,"prev_distance_km":12.286,"cumulative_distance_km":56.769,"amap_marker_url":"https://uri.amap.com/marker?position=114.858791,33.097818&name=%E5%90%8C%E6%83%A0%E5%8A%A8%E7%89%A9%E8%AF%8A%E7%96%97%E6%9C%8D%E5%8A%A1%E4%B8%AD%E5%BF%83&src=vetmap&coordinate=gaode&callnative=1","route_id":"r1","route_name":"第1段","global_order":15},{"name":"兽医站","address":"216省道与017乡道交叉口北100米","phone":"","category":"医疗保健服务;动物医疗场所;兽医站","area":"","lng":115.005272,"lat":33.207141,"amap_id":"B0J1JO1Q04","order":16,"prev_distance_km":18.268,"cumulative_distance_km":75.037,"amap_marker_url":"https://uri.amap.com/marker?position=115.005272,33.207141&name=%E5%85%BD%E5%8C%BB%E7%AB%99&src=vetmap&coordinate=gaode&callnative=1","route_id":"r1","route_name":"第1段","global_order":16}]}