{"summary":{"id":"d01160","province":"河南省","city":"南阳市","district":"社旗县","count":20,"route_count":1,"max_route_clinics":20,"total_distance_km":70.453,"coordinate_system":"GCJ-02 / Amap","generated_at":"2026-05-07 21:29:31"},"routes":[{"id":"r1","name":"第1段","count":20,"total_distance_km":70.453,"rows":[{"name":"兽医门诊","address":"珍珠大道与012乡道交叉口东100米","phone":"13700776984","category":"医疗保健服务;动物医疗场所;兽医站","area":"","lng":112.820144,"lat":33.05652,"amap_id":"B0FFK4IQYB","order":1,"prev_distance_km":0.0,"cumulative_distance_km":0.0,"amap_marker_url":"https://uri.amap.com/marker?position=112.820144,33.056520&name=%E5%85%BD%E5%8C%BB%E9%97%A8%E8%AF%8A&src=vetmap&coordinate=gaode&callnative=1","route_id":"r1","route_name":"第1段"},{"name":"康复动物门诊","address":"012县道与振兴路交叉口西南140米","phone":"13193807834","category":"医疗保健服务;动物医疗场所;宠物诊所","area":"","lng":112.852753,"lat":33.007688,"amap_id":"B0FFG7FJQZ","order":2,"prev_distance_km":6.223,"cumulative_distance_km":6.223,"amap_marker_url":"https://uri.amap.com/marker?position=112.852753,33.007688&name=%E5%BA%B7%E5%A4%8D%E5%8A%A8%E7%89%A9%E9%97%A8%E8%AF%8A&src=vetmap&coordinate=gaode&callnative=1","route_id":"r1","route_name":"第1段"},{"name":"贝康宠物门诊","address":"天鹅堡南门好涞屋便利店西隔墙","phone":"15236035622;15537765360","category":"医疗保健服务;动物医疗场所;宠物诊所","area":"","lng":112.924901,"lat":33.048629,"amap_id":"B0G3SDWO2F","order":3,"prev_distance_km":8.122,"cumulative_distance_km":14.345,"amap_marker_url":"https://uri.amap.com/marker?position=112.924901,33.048629&name=%E8%B4%9D%E5%BA%B7%E5%AE%A0%E7%89%A9%E9%97%A8%E8%AF%8A&src=vetmap&coordinate=gaode&callnative=1","route_id":"r1","route_name":"第1段"},{"name":"众益动物门诊","address":"赊店镇社旗县汽车站往南(建设南路)阳光锦城斜对面","phone":"0377-60380183;13837725762","category":"医疗保健服务;动物医疗场所;宠物诊所|医疗保健服务;动物医疗场所;兽医站","area":"建设路","lng":112.932989,"lat":33.040472,"amap_id":"B0FFIS1NC4","order":4,"prev_distance_km":1.179,"cumulative_distance_km":15.524,"amap_marker_url":"https://uri.amap.com/marker?position=112.932989,33.040472&name=%E4%BC%97%E7%9B%8A%E5%8A%A8%E7%89%A9%E9%97%A8%E8%AF%8A&src=vetmap&coordinate=gaode&callnative=1","route_id":"r1","route_name":"第1段"},{"name":"河南华牧动物医院","address":"社旗综合大市场西南侧250米","phone":"","category":"医疗保健服务;动物医疗场所;宠物诊所","area":"","lng":112.942811,"lat":33.041065,"amap_id":"B0FFLJ6YIQ","order":5,"prev_distance_km":0.918,"cumulative_distance_km":16.442,"amap_marker_url":"https://uri.amap.com/marker?position=112.942811,33.041065&name=%E6%B2%B3%E5%8D%97%E5%8D%8E%E7%89%A7%E5%8A%A8%E7%89%A9%E5%8C%BB%E9%99%A2&src=vetmap&coordinate=gaode&callnative=1","route_id":"r1","route_name":"第1段"},{"name":"畜禽养殖服务部","address":"长江路东段路南","phone":"0377-67911919","category":"医疗保健服务;动物医疗场所;兽医站","area":"","lng":112.953165,"lat":33.043448,"amap_id":"B0FFMHU40I","order":6,"prev_distance_km":1.001,"cumulative_distance_km":17.443,"amap_marker_url":"https://uri.amap.com/marker?position=112.953165,33.043448&name=%E7%95%9C%E7%A6%BD%E5%85%BB%E6%AE%96%E6%9C%8D%E5%8A%A1%E9%83%A8&src=vetmap&coordinate=gaode&callnative=1","route_id":"r1","route_name":"第1段"},{"name":"社旗兽医站","address":"城郊乡卫生院东100米(长江路北)","phone":"","category":"医疗保健服务;动物医疗场所;兽医站","area":"赵河","lng":112.937973,"lat":33.044973,"amap_id":"B0FFF4EEJQ","order":7,"prev_distance_km":1.426,"cumulative_distance_km":18.869,"amap_marker_url":"https://uri.amap.com/marker?position=112.937973,33.044973&name=%E7%A4%BE%E6%97%97%E5%85%BD%E5%8C%BB%E7%AB%99&src=vetmap&coordinate=gaode&callnative=1","route_id":"r1","route_name":"第1段"},{"name":"希望宠物诊所","address":"恒佳世纪城北门旁","phone":"13525198886","category":"医疗保健服务;动物医疗场所;宠物诊所","area":"建设路","lng":112.934732,"lat":33.04993,"amap_id":"B0JGLHI8LA","order":8,"prev_distance_km":0.629,"cumulative_distance_km":19.498,"amap_marker_url":"https://uri.amap.com/marker?position=112.934732,33.049930&name=%E5%B8%8C%E6%9C%9B%E5%AE%A0%E7%89%A9%E8%AF%8A%E6%89%80&src=vetmap&coordinate=gaode&callnative=1","route_id":"r1","route_name":"第1段"},{"name":"升福兽康动物服务部","address":"卧龙路与建设中路交叉口东80米","phone":"13938957957","category":"医疗保健服务;动物医疗场所;动物医疗场所","area":"建设路","lng":112.936585,"lat":33.051681,"amap_id":"B0FFK4TFHB","order":9,"prev_distance_km":0.26,"cumulative_distance_km":19.758,"amap_marker_url":"https://uri.amap.com/marker?position=112.936585,33.051681&name=%E5%8D%87%E7%A6%8F%E5%85%BD%E5%BA%B7%E5%8A%A8%E7%89%A9%E6%9C%8D%E5%8A%A1%E9%83%A8&src=vetmap&coordinate=gaode&callnative=1","route_id":"r1","route_name":"第1段"},{"name":"宠乐爱宠物医疗","address":"赊店镇政和街与香山中路交叉口北100米路西门面房22-23号","phone":"17656692120","category":"医疗保健服务;动物医疗场所;宠物诊所","area":"","lng":112.931074,"lat":33.06466,"amap_id":"B0LD3MHPO0","order":10,"prev_distance_km":1.532,"cumulative_distance_km":21.29,"amap_marker_url":"https://uri.amap.com/marker?position=112.931074,33.064660&name=%E5%AE%A0%E4%B9%90%E7%88%B1%E5%AE%A0%E7%89%A9%E5%8C%BB%E7%96%97&src=vetmap&coordinate=gaode&callnative=1","route_id":"r1","route_name":"第1段"},{"name":"宠物诊所","address":"华山路政和路交口东南角宠物店","phone":"13837729260;15903776060","category":"医疗保健服务;动物医疗场所;宠物诊所","area":"","lng":112.934075,"lat":33.071225,"amap_id":"B0IUT52RTU","order":11,"prev_distance_km":0.782,"cumulative_distance_km":22.071,"amap_marker_url":"https://uri.amap.com/marker?position=112.934075,33.071225&name=%E5%AE%A0%E7%89%A9%E8%AF%8A%E6%89%80&src=vetmap&coordinate=gaode&callnative=1","route_id":"r1","route_name":"第1段"},{"name":"孙晓东兽医门诊","address":"建设路与东环路交叉口西80米","phone":"","category":"医疗保健服务;动物医疗场所;兽医站","area":"","lng":113.047928,"lat":33.09325,"amap_id":"B0KANHNZFA","order":12,"prev_distance_km":10.887,"cumulative_distance_km":32.958,"amap_marker_url":"https://uri.amap.com/marker?position=113.047928,33.093250&name=%E5%AD%99%E6%99%93%E4%B8%9C%E5%85%BD%E5%8C%BB%E9%97%A8%E8%AF%8A&src=vetmap&coordinate=gaode&callnative=1","route_id":"r1","route_name":"第1段"},{"name":"畜牧养殖技术防疫站","address":"东环路与建设路交叉口东北20米","phone":"","category":"医疗保健服务;动物医疗场所;兽医站","area":"","lng":113.048863,"lat":33.093405,"amap_id":"B0KDXCZLL8","order":13,"prev_distance_km":0.089,"cumulative_distance_km":33.047,"amap_marker_url":"https://uri.amap.com/marker?position=113.048863,33.093405&name=%E7%95%9C%E7%89%A7%E5%85%BB%E6%AE%96%E6%8A%80%E6%9C%AF%E9%98%B2%E7%96%AB%E7%AB%99&src=vetmap&coordinate=gaode&callnative=1","route_id":"r1","route_name":"第1段"},{"name":"上康兽医门诊部","address":"华中城郝寨接待处西侧210米","phone":"","category":"医疗保健服务;动物医疗场所;兽医站","area":"","lng":113.044034,"lat":33.004199,"amap_id":"B0I3FLUET7","order":14,"prev_distance_km":9.929,"cumulative_distance_km":42.976,"amap_marker_url":"https://uri.amap.com/marker?position=113.044034,33.004199&name=%E4%B8%8A%E5%BA%B7%E5%85%BD%E5%8C%BB%E9%97%A8%E8%AF%8A%E9%83%A8&src=vetmap&coordinate=gaode&callnative=1","route_id":"r1","route_name":"第1段"},{"name":"苗店兽医站","address":"苗店镇龙泉路26号","phone":"15993729066","category":"医疗保健服务;动物医疗场所;兽医站","area":"","lng":113.05883,"lat":32.932427,"amap_id":"B0FFG7EELT","order":15,"prev_distance_km":8.099,"cumulative_distance_km":51.076,"amap_marker_url":"https://uri.amap.com/marker?position=113.058830,32.932427&name=%E8%8B%97%E5%BA%97%E5%85%BD%E5%8C%BB%E7%AB%99&src=vetmap&coordinate=gaode&callnative=1","route_id":"r1","route_name":"第1段"},{"name":"上康兽医","address":"233省道与金盾路东段交叉口东北40米","phone":"","category":"医疗保健服务;动物医疗场所;兽医站","area":"","lng":113.056325,"lat":32.931725,"amap_id":"B0LGVRTV54","order":16,"prev_distance_km":0.246,"cumulative_distance_km":51.322,"amap_marker_url":"https://uri.amap.com/marker?position=113.056325,32.931725&name=%E4%B8%8A%E5%BA%B7%E5%85%BD%E5%8C%BB&src=vetmap&coordinate=gaode&callnative=1","route_id":"r1","route_name":"第1段"},{"name":"畜禽疾病防治服务部","address":"龙泉路与育才路交叉口西南40米","phone":"18179775058","category":"医疗保健服务;动物医疗场所;兽医站","area":"","lng":113.057884,"lat":32.929254,"amap_id":"B0K3268KQ8","order":17,"prev_distance_km":0.311,"cumulative_distance_km":51.633,"amap_marker_url":"https://uri.amap.com/marker?position=113.057884,32.929254&name=%E7%95%9C%E7%A6%BD%E7%96%BE%E7%97%85%E9%98%B2%E6%B2%BB%E6%9C%8D%E5%8A%A1%E9%83%A8&src=vetmap&coordinate=gaode&callnative=1","route_id":"r1","route_name":"第1段"},{"name":"太和镇动物门诊","address":"太兴路69号","phone":"","category":"医疗保健服务;动物医疗场所;动物医疗场所","area":"","lng":112.940896,"lat":32.869624,"amap_id":"B0M6YHQKI8","order":18,"prev_distance_km":12.777,"cumulative_distance_km":64.41,"amap_marker_url":"https://uri.amap.com/marker?position=112.940896,32.869624&name=%E5%A4%AA%E5%92%8C%E9%95%87%E5%8A%A8%E7%89%A9%E9%97%A8%E8%AF%8A&src=vetmap&coordinate=gaode&callnative=1","route_id":"r1","route_name":"第1段"},{"name":"周家兽医门诊","address":"005县道与兴阳线交叉口西180米","phone":"","category":"医疗保健服务;动物医疗场所;兽医站","area":"","lng":112.882575,"lat":32.854375,"amap_id":"B0L1PD5JAR","order":19,"prev_distance_km":5.705,"cumulative_distance_km":70.115,"amap_marker_url":"https://uri.amap.com/marker?position=112.882575,32.854375&name=%E5%91%A8%E5%AE%B6%E5%85%BD%E5%8C%BB%E9%97%A8%E8%AF%8A&src=vetmap&coordinate=gaode&callnative=1","route_id":"r1","route_name":"第1段"},{"name":"李店镇兽医黄牛冷配站","address":"兴阳线与007乡道交叉口南320米","phone":"13723030831","category":"医疗保健服务;动物医疗场所;兽医站","area":"","lng":112.883585,"lat":32.85146,"amap_id":"B0GDUC5CSC","order":20,"prev_distance_km":0.338,"cumulative_distance_km":70.453,"amap_marker_url":"https://uri.amap.com/marker?position=112.883585,32.851460&name=%E6%9D%8E%E5%BA%97%E9%95%87%E5%85%BD%E5%8C%BB%E9%BB%84%E7%89%9B%E5%86%B7%E9%85%8D%E7%AB%99&src=vetmap&coordinate=gaode&callnative=1","route_id":"r1","route_name":"第1段"}]}],"rows":[{"name":"兽医门诊","address":"珍珠大道与012乡道交叉口东100米","phone":"13700776984","category":"医疗保健服务;动物医疗场所;兽医站","area":"","lng":112.820144,"lat":33.05652,"amap_id":"B0FFK4IQYB","order":1,"prev_distance_km":0.0,"cumulative_distance_km":0.0,"amap_marker_url":"https://uri.amap.com/marker?position=112.820144,33.056520&name=%E5%85%BD%E5%8C%BB%E9%97%A8%E8%AF%8A&src=vetmap&coordinate=gaode&callnative=1","route_id":"r1","route_name":"第1段","global_order":1},{"name":"康复动物门诊","address":"012县道与振兴路交叉口西南140米","phone":"13193807834","category":"医疗保健服务;动物医疗场所;宠物诊所","area":"","lng":112.852753,"lat":33.007688,"amap_id":"B0FFG7FJQZ","order":2,"prev_distance_km":6.223,"cumulative_distance_km":6.223,"amap_marker_url":"https://uri.amap.com/marker?position=112.852753,33.007688&name=%E5%BA%B7%E5%A4%8D%E5%8A%A8%E7%89%A9%E9%97%A8%E8%AF%8A&src=vetmap&coordinate=gaode&callnative=1","route_id":"r1","route_name":"第1段","global_order":2},{"name":"贝康宠物门诊","address":"天鹅堡南门好涞屋便利店西隔墙","phone":"15236035622;15537765360","category":"医疗保健服务;动物医疗场所;宠物诊所","area":"","lng":112.924901,"lat":33.048629,"amap_id":"B0G3SDWO2F","order":3,"prev_distance_km":8.122,"cumulative_distance_km":14.345,"amap_marker_url":"https://uri.amap.com/marker?position=112.924901,33.048629&name=%E8%B4%9D%E5%BA%B7%E5%AE%A0%E7%89%A9%E9%97%A8%E8%AF%8A&src=vetmap&coordinate=gaode&callnative=1","route_id":"r1","route_name":"第1段","global_order":3},{"name":"众益动物门诊","address":"赊店镇社旗县汽车站往南(建设南路)阳光锦城斜对面","phone":"0377-60380183;13837725762","category":"医疗保健服务;动物医疗场所;宠物诊所|医疗保健服务;动物医疗场所;兽医站","area":"建设路","lng":112.932989,"lat":33.040472,"amap_id":"B0FFIS1NC4","order":4,"prev_distance_km":1.179,"cumulative_distance_km":15.524,"amap_marker_url":"https://uri.amap.com/marker?position=112.932989,33.040472&name=%E4%BC%97%E7%9B%8A%E5%8A%A8%E7%89%A9%E9%97%A8%E8%AF%8A&src=vetmap&coordinate=gaode&callnative=1","route_id":"r1","route_name":"第1段","global_order":4},{"name":"河南华牧动物医院","address":"社旗综合大市场西南侧250米","phone":"","category":"医疗保健服务;动物医疗场所;宠物诊所","area":"","lng":112.942811,"lat":33.041065,"amap_id":"B0FFLJ6YIQ","order":5,"prev_distance_km":0.918,"cumulative_distance_km":16.442,"amap_marker_url":"https://uri.amap.com/marker?position=112.942811,33.041065&name=%E6%B2%B3%E5%8D%97%E5%8D%8E%E7%89%A7%E5%8A%A8%E7%89%A9%E5%8C%BB%E9%99%A2&src=vetmap&coordinate=gaode&callnative=1","route_id":"r1","route_name":"第1段","global_order":5},{"name":"畜禽养殖服务部","address":"长江路东段路南","phone":"0377-67911919","category":"医疗保健服务;动物医疗场所;兽医站","area":"","lng":112.953165,"lat":33.043448,"amap_id":"B0FFMHU40I","order":6,"prev_distance_km":1.001,"cumulative_distance_km":17.443,"amap_marker_url":"https://uri.amap.com/marker?position=112.953165,33.043448&name=%E7%95%9C%E7%A6%BD%E5%85%BB%E6%AE%96%E6%9C%8D%E5%8A%A1%E9%83%A8&src=vetmap&coordinate=gaode&callnative=1","route_id":"r1","route_name":"第1段","global_order":6},{"name":"社旗兽医站","address":"城郊乡卫生院东100米(长江路北)","phone":"","category":"医疗保健服务;动物医疗场所;兽医站","area":"赵河","lng":112.937973,"lat":33.044973,"amap_id":"B0FFF4EEJQ","order":7,"prev_distance_km":1.426,"cumulative_distance_km":18.869,"amap_marker_url":"https://uri.amap.com/marker?position=112.937973,33.044973&name=%E7%A4%BE%E6%97%97%E5%85%BD%E5%8C%BB%E7%AB%99&src=vetmap&coordinate=gaode&callnative=1","route_id":"r1","route_name":"第1段","global_order":7},{"name":"希望宠物诊所","address":"恒佳世纪城北门旁","phone":"13525198886","category":"医疗保健服务;动物医疗场所;宠物诊所","area":"建设路","lng":112.934732,"lat":33.04993,"amap_id":"B0JGLHI8LA","order":8,"prev_distance_km":0.629,"cumulative_distance_km":19.498,"amap_marker_url":"https://uri.amap.com/marker?position=112.934732,33.049930&name=%E5%B8%8C%E6%9C%9B%E5%AE%A0%E7%89%A9%E8%AF%8A%E6%89%80&src=vetmap&coordinate=gaode&callnative=1","route_id":"r1","route_name":"第1段","global_order":8},{"name":"升福兽康动物服务部","address":"卧龙路与建设中路交叉口东80米","phone":"13938957957","category":"医疗保健服务;动物医疗场所;动物医疗场所","area":"建设路","lng":112.936585,"lat":33.051681,"amap_id":"B0FFK4TFHB","order":9,"prev_distance_km":0.26,"cumulative_distance_km":19.758,"amap_marker_url":"https://uri.amap.com/marker?position=112.936585,33.051681&name=%E5%8D%87%E7%A6%8F%E5%85%BD%E5%BA%B7%E5%8A%A8%E7%89%A9%E6%9C%8D%E5%8A%A1%E9%83%A8&src=vetmap&coordinate=gaode&callnative=1","route_id":"r1","route_name":"第1段","global_order":9},{"name":"宠乐爱宠物医疗","address":"赊店镇政和街与香山中路交叉口北100米路西门面房22-23号","phone":"17656692120","category":"医疗保健服务;动物医疗场所;宠物诊所","area":"","lng":112.931074,"lat":33.06466,"amap_id":"B0LD3MHPO0","order":10,"prev_distance_km":1.532,"cumulative_distance_km":21.29,"amap_marker_url":"https://uri.amap.com/marker?position=112.931074,33.064660&name=%E5%AE%A0%E4%B9%90%E7%88%B1%E5%AE%A0%E7%89%A9%E5%8C%BB%E7%96%97&src=vetmap&coordinate=gaode&callnative=1","route_id":"r1","route_name":"第1段","global_order":10},{"name":"宠物诊所","address":"华山路政和路交口东南角宠物店","phone":"13837729260;15903776060","category":"医疗保健服务;动物医疗场所;宠物诊所","area":"","lng":112.934075,"lat":33.071225,"amap_id":"B0IUT52RTU","order":11,"prev_distance_km":0.782,"cumulative_distance_km":22.071,"amap_marker_url":"https://uri.amap.com/marker?position=112.934075,33.071225&name=%E5%AE%A0%E7%89%A9%E8%AF%8A%E6%89%80&src=vetmap&coordinate=gaode&callnative=1","route_id":"r1","route_name":"第1段","global_order":11},{"name":"孙晓东兽医门诊","address":"建设路与东环路交叉口西80米","phone":"","category":"医疗保健服务;动物医疗场所;兽医站","area":"","lng":113.047928,"lat":33.09325,"amap_id":"B0KANHNZFA","order":12,"prev_distance_km":10.887,"cumulative_distance_km":32.958,"amap_marker_url":"https://uri.amap.com/marker?position=113.047928,33.093250&name=%E5%AD%99%E6%99%93%E4%B8%9C%E5%85%BD%E5%8C%BB%E9%97%A8%E8%AF%8A&src=vetmap&coordinate=gaode&callnative=1","route_id":"r1","route_name":"第1段","global_order":12},{"name":"畜牧养殖技术防疫站","address":"东环路与建设路交叉口东北20米","phone":"","category":"医疗保健服务;动物医疗场所;兽医站","area":"","lng":113.048863,"lat":33.093405,"amap_id":"B0KDXCZLL8","order":13,"prev_distance_km":0.089,"cumulative_distance_km":33.047,"amap_marker_url":"https://uri.amap.com/marker?position=113.048863,33.093405&name=%E7%95%9C%E7%89%A7%E5%85%BB%E6%AE%96%E6%8A%80%E6%9C%AF%E9%98%B2%E7%96%AB%E7%AB%99&src=vetmap&coordinate=gaode&callnative=1","route_id":"r1","route_name":"第1段","global_order":13},{"name":"上康兽医门诊部","address":"华中城郝寨接待处西侧210米","phone":"","category":"医疗保健服务;动物医疗场所;兽医站","area":"","lng":113.044034,"lat":33.004199,"amap_id":"B0I3FLUET7","order":14,"prev_distance_km":9.929,"cumulative_distance_km":42.976,"amap_marker_url":"https://uri.amap.com/marker?position=113.044034,33.004199&name=%E4%B8%8A%E5%BA%B7%E5%85%BD%E5%8C%BB%E9%97%A8%E8%AF%8A%E9%83%A8&src=vetmap&coordinate=gaode&callnative=1","route_id":"r1","route_name":"第1段","global_order":14},{"name":"苗店兽医站","address":"苗店镇龙泉路26号","phone":"15993729066","category":"医疗保健服务;动物医疗场所;兽医站","area":"","lng":113.05883,"lat":32.932427,"amap_id":"B0FFG7EELT","order":15,"prev_distance_km":8.099,"cumulative_distance_km":51.076,"amap_marker_url":"https://uri.amap.com/marker?position=113.058830,32.932427&name=%E8%8B%97%E5%BA%97%E5%85%BD%E5%8C%BB%E7%AB%99&src=vetmap&coordinate=gaode&callnative=1","route_id":"r1","route_name":"第1段","global_order":15},{"name":"上康兽医","address":"233省道与金盾路东段交叉口东北40米","phone":"","category":"医疗保健服务;动物医疗场所;兽医站","area":"","lng":113.056325,"lat":32.931725,"amap_id":"B0LGVRTV54","order":16,"prev_distance_km":0.246,"cumulative_distance_km":51.322,"amap_marker_url":"https://uri.amap.com/marker?position=113.056325,32.931725&name=%E4%B8%8A%E5%BA%B7%E5%85%BD%E5%8C%BB&src=vetmap&coordinate=gaode&callnative=1","route_id":"r1","route_name":"第1段","global_order":16},{"name":"畜禽疾病防治服务部","address":"龙泉路与育才路交叉口西南40米","phone":"18179775058","category":"医疗保健服务;动物医疗场所;兽医站","area":"","lng":113.057884,"lat":32.929254,"amap_id":"B0K3268KQ8","order":17,"prev_distance_km":0.311,"cumulative_distance_km":51.633,"amap_marker_url":"https://uri.amap.com/marker?position=113.057884,32.929254&name=%E7%95%9C%E7%A6%BD%E7%96%BE%E7%97%85%E9%98%B2%E6%B2%BB%E6%9C%8D%E5%8A%A1%E9%83%A8&src=vetmap&coordinate=gaode&callnative=1","route_id":"r1","route_name":"第1段","global_order":17},{"name":"太和镇动物门诊","address":"太兴路69号","phone":"","category":"医疗保健服务;动物医疗场所;动物医疗场所","area":"","lng":112.940896,"lat":32.869624,"amap_id":"B0M6YHQKI8","order":18,"prev_distance_km":12.777,"cumulative_distance_km":64.41,"amap_marker_url":"https://uri.amap.com/marker?position=112.940896,32.869624&name=%E5%A4%AA%E5%92%8C%E9%95%87%E5%8A%A8%E7%89%A9%E9%97%A8%E8%AF%8A&src=vetmap&coordinate=gaode&callnative=1","route_id":"r1","route_name":"第1段","global_order":18},{"name":"周家兽医门诊","address":"005县道与兴阳线交叉口西180米","phone":"","category":"医疗保健服务;动物医疗场所;兽医站","area":"","lng":112.882575,"lat":32.854375,"amap_id":"B0L1PD5JAR","order":19,"prev_distance_km":5.705,"cumulative_distance_km":70.115,"amap_marker_url":"https://uri.amap.com/marker?position=112.882575,32.854375&name=%E5%91%A8%E5%AE%B6%E5%85%BD%E5%8C%BB%E9%97%A8%E8%AF%8A&src=vetmap&coordinate=gaode&callnative=1","route_id":"r1","route_name":"第1段","global_order":19},{"name":"李店镇兽医黄牛冷配站","address":"兴阳线与007乡道交叉口南320米","phone":"13723030831","category":"医疗保健服务;动物医疗场所;兽医站","area":"","lng":112.883585,"lat":32.85146,"amap_id":"B0GDUC5CSC","order":20,"prev_distance_km":0.338,"cumulative_distance_km":70.453,"amap_marker_url":"https://uri.amap.com/marker?position=112.883585,32.851460&name=%E6%9D%8E%E5%BA%97%E9%95%87%E5%85%BD%E5%8C%BB%E9%BB%84%E7%89%9B%E5%86%B7%E9%85%8D%E7%AB%99&src=vetmap&coordinate=gaode&callnative=1","route_id":"r1","route_name":"第1段","global_order":20}]}