{"summary":{"id":"d01167","province":"河南省","city":"周口市","district":"扶沟县","count":17,"route_count":1,"max_route_clinics":17,"total_distance_km":51.782,"coordinate_system":"GCJ-02 / Amap","generated_at":"2026-05-07 21:29:33"},"routes":[{"id":"r1","name":"第1段","count":17,"total_distance_km":51.782,"rows":[{"name":"康博宠物医院","address":"001县道与002乡道交叉口西300米","phone":"","category":"医疗保健服务;动物医疗场所;宠物诊所","area":"","lng":114.570011,"lat":34.212598,"amap_id":"B0J32H3PO1","order":1,"prev_distance_km":0.0,"cumulative_distance_km":0.0,"amap_marker_url":"https://uri.amap.com/marker?position=114.570011,34.212598&name=%E5%BA%B7%E5%8D%9A%E5%AE%A0%E7%89%A9%E5%8C%BB%E9%99%A2&src=vetmap&coordinate=gaode&callnative=1","route_id":"r1","route_name":"第1段"},{"name":"兽医站","address":"尚文北路与连栾线交叉口北120米","phone":"","category":"医疗保健服务;动物医疗场所;兽医站","area":"","lng":114.506247,"lat":34.106289,"amap_id":"B0LKHDPWY3","order":2,"prev_distance_km":13.197,"cumulative_distance_km":13.197,"amap_marker_url":"https://uri.amap.com/marker?position=114.506247,34.106289&name=%E5%85%BD%E5%8C%BB%E7%AB%99&src=vetmap&coordinate=gaode&callnative=1","route_id":"r1","route_name":"第1段"},{"name":"兽医门诊","address":"连栾线与富民路交叉口西60米","phone":"","category":"医疗保健服务;动物医疗场所;兽医站","area":"","lng":114.50677,"lat":34.104787,"amap_id":"B0JB6UHOMJ","order":3,"prev_distance_km":0.174,"cumulative_distance_km":13.371,"amap_marker_url":"https://uri.amap.com/marker?position=114.506770,34.104787&name=%E5%85%BD%E5%8C%BB%E9%97%A8%E8%AF%8A&src=vetmap&coordinate=gaode&callnative=1","route_id":"r1","route_name":"第1段"},{"name":"雅恩宠物医院","address":"扶亭街道扶亭路阳光花苑-东区西北侧约40米","phone":"13592292360","category":"医疗保健服务;动物医疗场所;宠物诊所","area":"","lng":114.401331,"lat":34.073071,"amap_id":"B0L3ZR1CEH","order":4,"prev_distance_km":10.33,"cumulative_distance_km":23.701,"amap_marker_url":"https://uri.amap.com/marker?position=114.401331,34.073071&name=%E9%9B%85%E6%81%A9%E5%AE%A0%E7%89%A9%E5%8C%BB%E9%99%A2&src=vetmap&coordinate=gaode&callnative=1","route_id":"r1","route_name":"第1段"},{"name":"普奔宠物医院.心脏.异宠.骨科中心","address":"新街与建设街交叉口西100米","phone":"17538657573;19337250788","category":"医疗保健服务;动物医疗场所;宠物诊所","area":"","lng":114.390125,"lat":34.059225,"amap_id":"B0LGTCXOP8","order":5,"prev_distance_km":1.854,"cumulative_distance_km":25.555,"amap_marker_url":"https://uri.amap.com/marker?position=114.390125,34.059225&name=%E6%99%AE%E5%A5%94%E5%AE%A0%E7%89%A9%E5%8C%BB%E9%99%A2.%E5%BF%83%E8%84%8F.%E5%BC%82%E5%AE%A0.%E9%AA%A8%E7%A7%91%E4%B8%AD%E5%BF%83&src=vetmap&coordinate=gaode&callnative=1","route_id":"r1","route_name":"第1段"},{"name":"淘气宠物医院•微创绝育外科•犬猫专科","address":"凤凰台西街路北165号","phone":"13303873268","category":"医疗保健服务;动物医疗场所;宠物诊所","area":"","lng":114.386386,"lat":34.055515,"amap_id":"B0I1BAWMRH","order":6,"prev_distance_km":0.537,"cumulative_distance_km":26.092,"amap_marker_url":"https://uri.amap.com/marker?position=114.386386,34.055515&name=%E6%B7%98%E6%B0%94%E5%AE%A0%E7%89%A9%E5%8C%BB%E9%99%A2%E2%80%A2%E5%BE%AE%E5%88%9B%E7%BB%9D%E8%82%B2%E5%A4%96%E7%A7%91%E2%80%A2%E7%8A%AC%E7%8C%AB%E4%B8%93%E7%A7%91&src=vetmap&coordinate=gaode&callnative=1","route_id":"r1","route_name":"第1段"},{"name":"周口金牧动保技术服务中心","address":"珑园古镇南门西50米","phone":"19913361717","category":"医疗保健服务;动物医疗场所;动物医疗场所","area":"","lng":114.37396,"lat":34.050563,"amap_id":"B0IGY5FM3R","order":7,"prev_distance_km":1.27,"cumulative_distance_km":27.362,"amap_marker_url":"https://uri.amap.com/marker?position=114.373960,34.050563&name=%E5%91%A8%E5%8F%A3%E9%87%91%E7%89%A7%E5%8A%A8%E4%BF%9D%E6%8A%80%E6%9C%AF%E6%9C%8D%E5%8A%A1%E4%B8%AD%E5%BF%83&src=vetmap&coordinate=gaode&callnative=1","route_id":"r1","route_name":"第1段"},{"name":"东关兽医站门诊","address":"城关镇长江步行街和吉祥路交叉口东北角长城饭店对面","phone":"13592203689;13781281545","category":"医疗保健服务;动物医疗场所;兽医站","area":"","lng":114.40228,"lat":34.054631,"amap_id":"B0FFL1OJUB","order":8,"prev_distance_km":2.648,"cumulative_distance_km":30.01,"amap_marker_url":"https://uri.amap.com/marker?position=114.402280,34.054631&name=%E4%B8%9C%E5%85%B3%E5%85%BD%E5%8C%BB%E7%AB%99%E9%97%A8%E8%AF%8A&src=vetmap&coordinate=gaode&callnative=1","route_id":"r1","route_name":"第1段"},{"name":"兽医站宠物用品","address":"凤凰台东街与吉祥北路交叉口东北40米","phone":"","category":"医疗保健服务;动物医疗场所;宠物诊所","area":"","lng":114.402264,"lat":34.054584,"amap_id":"B0MBB9XD6L","order":9,"prev_distance_km":0.005,"cumulative_distance_km":30.016,"amap_marker_url":"https://uri.amap.com/marker?position=114.402264,34.054584&name=%E5%85%BD%E5%8C%BB%E7%AB%99%E5%AE%A0%E7%89%A9%E7%94%A8%E5%93%81&src=vetmap&coordinate=gaode&callnative=1","route_id":"r1","route_name":"第1段"},{"name":"杨培信兽医门市","address":"吉祥路北段二中楼下(吉祥路小学)","phone":"13460087396","category":"医疗保健服务;动物医疗场所;兽医站","area":"文化东路","lng":114.402025,"lat":34.053177,"amap_id":"B0FFFT61DC","order":10,"prev_distance_km":0.158,"cumulative_distance_km":30.174,"amap_marker_url":"https://uri.amap.com/marker?position=114.402025,34.053177&name=%E6%9D%A8%E5%9F%B9%E4%BF%A1%E5%85%BD%E5%8C%BB%E9%97%A8%E5%B8%82&src=vetmap&coordinate=gaode&callnative=1","route_id":"r1","route_name":"第1段"},{"name":"吉祥宠物医院(城角李路店)","address":"城关镇南关吉祥路八一加油站旁边","phone":"13939401512","category":"医疗保健服务;动物医疗场所;宠物诊所","area":"","lng":114.402191,"lat":34.047893,"amap_id":"B0FFHE3LH1","order":11,"prev_distance_km":0.588,"cumulative_distance_km":30.762,"amap_marker_url":"https://uri.amap.com/marker?position=114.402191,34.047893&name=%E5%90%89%E7%A5%A5%E5%AE%A0%E7%89%A9%E5%8C%BB%E9%99%A2%28%E5%9F%8E%E8%A7%92%E6%9D%8E%E8%B7%AF%E5%BA%97%29&src=vetmap&coordinate=gaode&callnative=1","route_id":"r1","route_name":"第1段"},{"name":"贝恩宠物医院·猫科·心脏·骨科医院","address":"桐丘南路路西372-1号大南海食府向南20米","phone":"13592292360","category":"医疗保健服务;动物医疗场所;宠物诊所","area":"","lng":114.394495,"lat":34.045108,"amap_id":"B0HKJZY454","order":12,"prev_distance_km":0.774,"cumulative_distance_km":31.535,"amap_marker_url":"https://uri.amap.com/marker?position=114.394495,34.045108&name=%E8%B4%9D%E6%81%A9%E5%AE%A0%E7%89%A9%E5%8C%BB%E9%99%A2%C2%B7%E7%8C%AB%E7%A7%91%C2%B7%E5%BF%83%E8%84%8F%C2%B7%E9%AA%A8%E7%A7%91%E5%8C%BB%E9%99%A2&src=vetmap&coordinate=gaode&callnative=1","route_id":"r1","route_name":"第1段"},{"name":"动物医院","address":"桐丘南路与鸿昌大道交叉口南320米","phone":"","category":"医疗保健服务;动物医疗场所;兽医站","area":"","lng":114.395268,"lat":34.040853,"amap_id":"B0GKYLL5OW","order":13,"prev_distance_km":0.478,"cumulative_distance_km":32.014,"amap_marker_url":"https://uri.amap.com/marker?position=114.395268,34.040853&name=%E5%8A%A8%E7%89%A9%E5%8C%BB%E9%99%A2&src=vetmap&coordinate=gaode&callnative=1","route_id":"r1","route_name":"第1段"},{"name":"宠安宠物医院","address":"迎宾商业街","phone":"13148299120","category":"医疗保健服务;动物医疗场所;宠物诊所","area":"","lng":114.394929,"lat":34.040028,"amap_id":"B0K2ZSYMV7","order":14,"prev_distance_km":0.097,"cumulative_distance_km":32.111,"amap_marker_url":"https://uri.amap.com/marker?position=114.394929,34.040028&name=%E5%AE%A0%E5%AE%89%E5%AE%A0%E7%89%A9%E5%8C%BB%E9%99%A2&src=vetmap&coordinate=gaode&callnative=1","route_id":"r1","route_name":"第1段"},{"name":"扶沟县方口宠物医院","address":"汴岗镇方口村","phone":"18736145606","category":"医疗保健服务;动物医疗场所;宠物诊所","area":"","lng":114.454734,"lat":34.003079,"amap_id":"B0GKB1IT1J","order":15,"prev_distance_km":6.875,"cumulative_distance_km":38.985,"amap_marker_url":"https://uri.amap.com/marker?position=114.454734,34.003079&name=%E6%89%B6%E6%B2%9F%E5%8E%BF%E6%96%B9%E5%8F%A3%E5%AE%A0%E7%89%A9%E5%8C%BB%E9%99%A2&src=vetmap&coordinate=gaode&callnative=1","route_id":"r1","route_name":"第1段"},{"name":"汴岗兽医门诊","address":"汴岗西加油站东南侧80米","phone":"13103873065","category":"医疗保健服务;动物医疗场所;兽医站","area":"","lng":114.486546,"lat":33.978072,"amap_id":"B0FFLAM174","order":16,"prev_distance_km":4.042,"cumulative_distance_km":43.027,"amap_marker_url":"https://uri.amap.com/marker?position=114.486546,33.978072&name=%E6%B1%B4%E5%B2%97%E5%85%BD%E5%8C%BB%E9%97%A8%E8%AF%8A&src=vetmap&coordinate=gaode&callnative=1","route_id":"r1","route_name":"第1段"},{"name":"陈贾兽医门诊","address":"练寺镇卫生院东侧180米","phone":"13507685481","category":"医疗保健服务;动物医疗场所;兽医站","area":"","lng":114.409576,"lat":33.931984,"amap_id":"B018A0NRDN","order":17,"prev_distance_km":8.756,"cumulative_distance_km":51.782,"amap_marker_url":"https://uri.amap.com/marker?position=114.409576,33.931984&name=%E9%99%88%E8%B4%BE%E5%85%BD%E5%8C%BB%E9%97%A8%E8%AF%8A&src=vetmap&coordinate=gaode&callnative=1","route_id":"r1","route_name":"第1段"}]}],"rows":[{"name":"康博宠物医院","address":"001县道与002乡道交叉口西300米","phone":"","category":"医疗保健服务;动物医疗场所;宠物诊所","area":"","lng":114.570011,"lat":34.212598,"amap_id":"B0J32H3PO1","order":1,"prev_distance_km":0.0,"cumulative_distance_km":0.0,"amap_marker_url":"https://uri.amap.com/marker?position=114.570011,34.212598&name=%E5%BA%B7%E5%8D%9A%E5%AE%A0%E7%89%A9%E5%8C%BB%E9%99%A2&src=vetmap&coordinate=gaode&callnative=1","route_id":"r1","route_name":"第1段","global_order":1},{"name":"兽医站","address":"尚文北路与连栾线交叉口北120米","phone":"","category":"医疗保健服务;动物医疗场所;兽医站","area":"","lng":114.506247,"lat":34.106289,"amap_id":"B0LKHDPWY3","order":2,"prev_distance_km":13.197,"cumulative_distance_km":13.197,"amap_marker_url":"https://uri.amap.com/marker?position=114.506247,34.106289&name=%E5%85%BD%E5%8C%BB%E7%AB%99&src=vetmap&coordinate=gaode&callnative=1","route_id":"r1","route_name":"第1段","global_order":2},{"name":"兽医门诊","address":"连栾线与富民路交叉口西60米","phone":"","category":"医疗保健服务;动物医疗场所;兽医站","area":"","lng":114.50677,"lat":34.104787,"amap_id":"B0JB6UHOMJ","order":3,"prev_distance_km":0.174,"cumulative_distance_km":13.371,"amap_marker_url":"https://uri.amap.com/marker?position=114.506770,34.104787&name=%E5%85%BD%E5%8C%BB%E9%97%A8%E8%AF%8A&src=vetmap&coordinate=gaode&callnative=1","route_id":"r1","route_name":"第1段","global_order":3},{"name":"雅恩宠物医院","address":"扶亭街道扶亭路阳光花苑-东区西北侧约40米","phone":"13592292360","category":"医疗保健服务;动物医疗场所;宠物诊所","area":"","lng":114.401331,"lat":34.073071,"amap_id":"B0L3ZR1CEH","order":4,"prev_distance_km":10.33,"cumulative_distance_km":23.701,"amap_marker_url":"https://uri.amap.com/marker?position=114.401331,34.073071&name=%E9%9B%85%E6%81%A9%E5%AE%A0%E7%89%A9%E5%8C%BB%E9%99%A2&src=vetmap&coordinate=gaode&callnative=1","route_id":"r1","route_name":"第1段","global_order":4},{"name":"普奔宠物医院.心脏.异宠.骨科中心","address":"新街与建设街交叉口西100米","phone":"17538657573;19337250788","category":"医疗保健服务;动物医疗场所;宠物诊所","area":"","lng":114.390125,"lat":34.059225,"amap_id":"B0LGTCXOP8","order":5,"prev_distance_km":1.854,"cumulative_distance_km":25.555,"amap_marker_url":"https://uri.amap.com/marker?position=114.390125,34.059225&name=%E6%99%AE%E5%A5%94%E5%AE%A0%E7%89%A9%E5%8C%BB%E9%99%A2.%E5%BF%83%E8%84%8F.%E5%BC%82%E5%AE%A0.%E9%AA%A8%E7%A7%91%E4%B8%AD%E5%BF%83&src=vetmap&coordinate=gaode&callnative=1","route_id":"r1","route_name":"第1段","global_order":5},{"name":"淘气宠物医院•微创绝育外科•犬猫专科","address":"凤凰台西街路北165号","phone":"13303873268","category":"医疗保健服务;动物医疗场所;宠物诊所","area":"","lng":114.386386,"lat":34.055515,"amap_id":"B0I1BAWMRH","order":6,"prev_distance_km":0.537,"cumulative_distance_km":26.092,"amap_marker_url":"https://uri.amap.com/marker?position=114.386386,34.055515&name=%E6%B7%98%E6%B0%94%E5%AE%A0%E7%89%A9%E5%8C%BB%E9%99%A2%E2%80%A2%E5%BE%AE%E5%88%9B%E7%BB%9D%E8%82%B2%E5%A4%96%E7%A7%91%E2%80%A2%E7%8A%AC%E7%8C%AB%E4%B8%93%E7%A7%91&src=vetmap&coordinate=gaode&callnative=1","route_id":"r1","route_name":"第1段","global_order":6},{"name":"周口金牧动保技术服务中心","address":"珑园古镇南门西50米","phone":"19913361717","category":"医疗保健服务;动物医疗场所;动物医疗场所","area":"","lng":114.37396,"lat":34.050563,"amap_id":"B0IGY5FM3R","order":7,"prev_distance_km":1.27,"cumulative_distance_km":27.362,"amap_marker_url":"https://uri.amap.com/marker?position=114.373960,34.050563&name=%E5%91%A8%E5%8F%A3%E9%87%91%E7%89%A7%E5%8A%A8%E4%BF%9D%E6%8A%80%E6%9C%AF%E6%9C%8D%E5%8A%A1%E4%B8%AD%E5%BF%83&src=vetmap&coordinate=gaode&callnative=1","route_id":"r1","route_name":"第1段","global_order":7},{"name":"东关兽医站门诊","address":"城关镇长江步行街和吉祥路交叉口东北角长城饭店对面","phone":"13592203689;13781281545","category":"医疗保健服务;动物医疗场所;兽医站","area":"","lng":114.40228,"lat":34.054631,"amap_id":"B0FFL1OJUB","order":8,"prev_distance_km":2.648,"cumulative_distance_km":30.01,"amap_marker_url":"https://uri.amap.com/marker?position=114.402280,34.054631&name=%E4%B8%9C%E5%85%B3%E5%85%BD%E5%8C%BB%E7%AB%99%E9%97%A8%E8%AF%8A&src=vetmap&coordinate=gaode&callnative=1","route_id":"r1","route_name":"第1段","global_order":8},{"name":"兽医站宠物用品","address":"凤凰台东街与吉祥北路交叉口东北40米","phone":"","category":"医疗保健服务;动物医疗场所;宠物诊所","area":"","lng":114.402264,"lat":34.054584,"amap_id":"B0MBB9XD6L","order":9,"prev_distance_km":0.005,"cumulative_distance_km":30.016,"amap_marker_url":"https://uri.amap.com/marker?position=114.402264,34.054584&name=%E5%85%BD%E5%8C%BB%E7%AB%99%E5%AE%A0%E7%89%A9%E7%94%A8%E5%93%81&src=vetmap&coordinate=gaode&callnative=1","route_id":"r1","route_name":"第1段","global_order":9},{"name":"杨培信兽医门市","address":"吉祥路北段二中楼下(吉祥路小学)","phone":"13460087396","category":"医疗保健服务;动物医疗场所;兽医站","area":"文化东路","lng":114.402025,"lat":34.053177,"amap_id":"B0FFFT61DC","order":10,"prev_distance_km":0.158,"cumulative_distance_km":30.174,"amap_marker_url":"https://uri.amap.com/marker?position=114.402025,34.053177&name=%E6%9D%A8%E5%9F%B9%E4%BF%A1%E5%85%BD%E5%8C%BB%E9%97%A8%E5%B8%82&src=vetmap&coordinate=gaode&callnative=1","route_id":"r1","route_name":"第1段","global_order":10},{"name":"吉祥宠物医院(城角李路店)","address":"城关镇南关吉祥路八一加油站旁边","phone":"13939401512","category":"医疗保健服务;动物医疗场所;宠物诊所","area":"","lng":114.402191,"lat":34.047893,"amap_id":"B0FFHE3LH1","order":11,"prev_distance_km":0.588,"cumulative_distance_km":30.762,"amap_marker_url":"https://uri.amap.com/marker?position=114.402191,34.047893&name=%E5%90%89%E7%A5%A5%E5%AE%A0%E7%89%A9%E5%8C%BB%E9%99%A2%28%E5%9F%8E%E8%A7%92%E6%9D%8E%E8%B7%AF%E5%BA%97%29&src=vetmap&coordinate=gaode&callnative=1","route_id":"r1","route_name":"第1段","global_order":11},{"name":"贝恩宠物医院·猫科·心脏·骨科医院","address":"桐丘南路路西372-1号大南海食府向南20米","phone":"13592292360","category":"医疗保健服务;动物医疗场所;宠物诊所","area":"","lng":114.394495,"lat":34.045108,"amap_id":"B0HKJZY454","order":12,"prev_distance_km":0.774,"cumulative_distance_km":31.535,"amap_marker_url":"https://uri.amap.com/marker?position=114.394495,34.045108&name=%E8%B4%9D%E6%81%A9%E5%AE%A0%E7%89%A9%E5%8C%BB%E9%99%A2%C2%B7%E7%8C%AB%E7%A7%91%C2%B7%E5%BF%83%E8%84%8F%C2%B7%E9%AA%A8%E7%A7%91%E5%8C%BB%E9%99%A2&src=vetmap&coordinate=gaode&callnative=1","route_id":"r1","route_name":"第1段","global_order":12},{"name":"动物医院","address":"桐丘南路与鸿昌大道交叉口南320米","phone":"","category":"医疗保健服务;动物医疗场所;兽医站","area":"","lng":114.395268,"lat":34.040853,"amap_id":"B0GKYLL5OW","order":13,"prev_distance_km":0.478,"cumulative_distance_km":32.014,"amap_marker_url":"https://uri.amap.com/marker?position=114.395268,34.040853&name=%E5%8A%A8%E7%89%A9%E5%8C%BB%E9%99%A2&src=vetmap&coordinate=gaode&callnative=1","route_id":"r1","route_name":"第1段","global_order":13},{"name":"宠安宠物医院","address":"迎宾商业街","phone":"13148299120","category":"医疗保健服务;动物医疗场所;宠物诊所","area":"","lng":114.394929,"lat":34.040028,"amap_id":"B0K2ZSYMV7","order":14,"prev_distance_km":0.097,"cumulative_distance_km":32.111,"amap_marker_url":"https://uri.amap.com/marker?position=114.394929,34.040028&name=%E5%AE%A0%E5%AE%89%E5%AE%A0%E7%89%A9%E5%8C%BB%E9%99%A2&src=vetmap&coordinate=gaode&callnative=1","route_id":"r1","route_name":"第1段","global_order":14},{"name":"扶沟县方口宠物医院","address":"汴岗镇方口村","phone":"18736145606","category":"医疗保健服务;动物医疗场所;宠物诊所","area":"","lng":114.454734,"lat":34.003079,"amap_id":"B0GKB1IT1J","order":15,"prev_distance_km":6.875,"cumulative_distance_km":38.985,"amap_marker_url":"https://uri.amap.com/marker?position=114.454734,34.003079&name=%E6%89%B6%E6%B2%9F%E5%8E%BF%E6%96%B9%E5%8F%A3%E5%AE%A0%E7%89%A9%E5%8C%BB%E9%99%A2&src=vetmap&coordinate=gaode&callnative=1","route_id":"r1","route_name":"第1段","global_order":15},{"name":"汴岗兽医门诊","address":"汴岗西加油站东南侧80米","phone":"13103873065","category":"医疗保健服务;动物医疗场所;兽医站","area":"","lng":114.486546,"lat":33.978072,"amap_id":"B0FFLAM174","order":16,"prev_distance_km":4.042,"cumulative_distance_km":43.027,"amap_marker_url":"https://uri.amap.com/marker?position=114.486546,33.978072&name=%E6%B1%B4%E5%B2%97%E5%85%BD%E5%8C%BB%E9%97%A8%E8%AF%8A&src=vetmap&coordinate=gaode&callnative=1","route_id":"r1","route_name":"第1段","global_order":16},{"name":"陈贾兽医门诊","address":"练寺镇卫生院东侧180米","phone":"13507685481","category":"医疗保健服务;动物医疗场所;兽医站","area":"","lng":114.409576,"lat":33.931984,"amap_id":"B018A0NRDN","order":17,"prev_distance_km":8.756,"cumulative_distance_km":51.782,"amap_marker_url":"https://uri.amap.com/marker?position=114.409576,33.931984&name=%E9%99%88%E8%B4%BE%E5%85%BD%E5%8C%BB%E9%97%A8%E8%AF%8A&src=vetmap&coordinate=gaode&callnative=1","route_id":"r1","route_name":"第1段","global_order":17}]}