{"summary":{"id":"d01116","province":"河北省","city":"邢台市","district":"隆尧县","count":13,"total_distance_km":39.858,"coordinate_system":"GCJ-02 / Amap","generated_at":"2026-05-07 20:23:18"},"rows":[{"name":"宠牧动物诊所","address":"愉景花园北门旁","phone":"15631970808;18632967991","category":"医疗保健服务;动物医疗场所;宠物诊所","area":"","lng":114.795756,"lat":37.351193,"amap_id":"B0L106C9D9","order":1,"prev_distance_km":0.0,"cumulative_distance_km":0.0,"amap_marker_url":"https://uri.amap.com/marker?position=114.795756,37.351193&name=%E5%AE%A0%E7%89%A7%E5%8A%A8%E7%89%A9%E8%AF%8A%E6%89%80&src=vetmap&coordinate=gaode&callnative=1"},{"name":"唯宠宠物","address":"南甫盐店路3号","phone":"17659910260","category":"医疗保健服务;动物医疗场所;动物医疗场所","area":"","lng":114.777829,"lat":37.352141,"amap_id":"B0K0XZNY5T","order":2,"prev_distance_km":1.588,"cumulative_distance_km":1.588,"amap_marker_url":"https://uri.amap.com/marker?position=114.777829,37.352141&name=%E5%94%AF%E5%AE%A0%E5%AE%A0%E7%89%A9&src=vetmap&coordinate=gaode&callnative=1"},{"name":"惠农动物诊所","address":"昭庆街156号东90米","phone":"15130971659;15930933598","category":"医疗保健服务;动物医疗场所;宠物诊所","area":"","lng":114.779396,"lat":37.356145,"amap_id":"B0FFL5P881","order":3,"prev_distance_km":0.466,"cumulative_distance_km":2.054,"amap_marker_url":"https://uri.amap.com/marker?position=114.779396,37.356145&name=%E6%83%A0%E5%86%9C%E5%8A%A8%E7%89%A9%E8%AF%8A%E6%89%80&src=vetmap&coordinate=gaode&callnative=1"},{"name":"隆尧县韩庄村牧康动物诊所","address":"S327(太行路)","phone":"13403399309","category":"医疗保健服务;动物医疗场所;宠物诊所","area":"","lng":114.774353,"lat":37.360283,"amap_id":"B0FFL6EG01","order":4,"prev_distance_km":0.641,"cumulative_distance_km":2.695,"amap_marker_url":"https://uri.amap.com/marker?position=114.774353,37.360283&name=%E9%9A%86%E5%B0%A7%E5%8E%BF%E9%9F%A9%E5%BA%84%E6%9D%91%E7%89%A7%E5%BA%B7%E5%8A%A8%E7%89%A9%E8%AF%8A%E6%89%80&src=vetmap&coordinate=gaode&callnative=1"},{"name":"宠谊生动物医疗中心","address":"老山口路69号","phone":"15350855669","category":"医疗保健服务;动物医疗场所;宠物诊所","area":"","lng":114.764461,"lat":37.356745,"amap_id":"B0I1XAP3US","order":5,"prev_distance_km":0.959,"cumulative_distance_km":3.654,"amap_marker_url":"https://uri.amap.com/marker?position=114.764461,37.356745&name=%E5%AE%A0%E8%B0%8A%E7%94%9F%E5%8A%A8%E7%89%A9%E5%8C%BB%E7%96%97%E4%B8%AD%E5%BF%83&src=vetmap&coordinate=gaode&callnative=1"},{"name":"众鑫动物诊所","address":"老山口路与幸福街交叉口东南60米","phone":"","category":"医疗保健服务;动物医疗场所;宠物诊所","area":"","lng":114.764423,"lat":37.356457,"amap_id":"B0LU7O1K6R","order":6,"prev_distance_km":0.032,"cumulative_distance_km":3.686,"amap_marker_url":"https://uri.amap.com/marker?position=114.764423,37.356457&name=%E4%BC%97%E9%91%AB%E5%8A%A8%E7%89%A9%E8%AF%8A%E6%89%80&src=vetmap&coordinate=gaode&callnative=1"},{"name":"众鑫动物诊所","address":"老山口路与中兴街交叉口东南260米","phone":"13231911935;13603195129","category":"医疗保健服务;动物医疗场所;宠物诊所","area":"","lng":114.767005,"lat":37.354431,"amap_id":"B0FFKCNU3R","order":7,"prev_distance_km":0.321,"cumulative_distance_km":4.007,"amap_marker_url":"https://uri.amap.com/marker?position=114.767005,37.354431&name=%E4%BC%97%E9%91%AB%E5%8A%A8%E7%89%A9%E8%AF%8A%E6%89%80&src=vetmap&coordinate=gaode&callnative=1"},{"name":"动物医院","address":"魏庄镇信合商业街与富强街交叉口西约80米","phone":"","category":"医疗保健服务;动物医疗场所;兽医站","area":"","lng":114.747315,"lat":37.283881,"amap_id":"B0G3F7MTLM","order":8,"prev_distance_km":8.036,"cumulative_distance_km":12.042,"amap_marker_url":"https://uri.amap.com/marker?position=114.747315,37.283881&name=%E5%8A%A8%E7%89%A9%E5%8C%BB%E9%99%A2&src=vetmap&coordinate=gaode&callnative=1"},{"name":"牧康健畜禽服务部","address":"北楼乡北楼村","phone":"15369376925","category":"医疗保健服务;动物医疗场所;宠物诊所","area":"","lng":114.712244,"lat":37.280456,"amap_id":"B0HKDCZAWU","order":9,"prev_distance_km":3.126,"cumulative_distance_km":15.168,"amap_marker_url":"https://uri.amap.com/marker?position=114.712244,37.280456&name=%E7%89%A7%E5%BA%B7%E5%81%A5%E7%95%9C%E7%A6%BD%E6%9C%8D%E5%8A%A1%E9%83%A8&src=vetmap&coordinate=gaode&callnative=1"},{"name":"红林兽医","address":"市场西街与长安东路交叉口南40米","phone":"13722930430;15028918287","category":"医疗保健服务;动物医疗场所;兽医站","area":"","lng":114.650532,"lat":37.314679,"amap_id":"B0FFG02XME","order":10,"prev_distance_km":6.654,"cumulative_distance_km":21.823,"amap_marker_url":"https://uri.amap.com/marker?position=114.650532,37.314679&name=%E7%BA%A2%E6%9E%97%E5%85%BD%E5%8C%BB&src=vetmap&coordinate=gaode&callnative=1"},{"name":"庆庆动物诊所","address":"327省道与赵辛线交叉口西420米","phone":"","category":"医疗保健服务;动物医疗场所;宠物诊所","area":"","lng":114.68233,"lat":37.386242,"amap_id":"B0HBBX6CST","order":11,"prev_distance_km":8.439,"cumulative_distance_km":30.262,"amap_marker_url":"https://uri.amap.com/marker?position=114.682330,37.386242&name=%E5%BA%86%E5%BA%86%E5%8A%A8%E7%89%A9%E8%AF%8A%E6%89%80&src=vetmap&coordinate=gaode&callnative=1"},{"name":"海大动保","address":"327省道与赵辛线交叉口西北500米","phone":"","category":"医疗保健服务;动物医疗场所;动物医疗场所","area":"","lng":114.682886,"lat":37.388111,"amap_id":"B0J3ZSQA4S","order":12,"prev_distance_km":0.214,"cumulative_distance_km":30.476,"amap_marker_url":"https://uri.amap.com/marker?position=114.682886,37.388111&name=%E6%B5%B7%E5%A4%A7%E5%8A%A8%E4%BF%9D&src=vetmap&coordinate=gaode&callnative=1"},{"name":"尹村镇畜牧兽医站","address":"悦通驾校东北门东200米","phone":"13131940118;13831950669","category":"医疗保健服务;动物医疗场所;兽医站","area":"","lng":114.576717,"lat":37.389977,"amap_id":"B0FFG79X4P","order":13,"prev_distance_km":9.382,"cumulative_distance_km":39.858,"amap_marker_url":"https://uri.amap.com/marker?position=114.576717,37.389977&name=%E5%B0%B9%E6%9D%91%E9%95%87%E7%95%9C%E7%89%A7%E5%85%BD%E5%8C%BB%E7%AB%99&src=vetmap&coordinate=gaode&callnative=1"}]}