{"summary":{"id":"d01134","province":"河北省","city":"邯郸市","district":"鸡泽县","count":8,"total_distance_km":20.33,"coordinate_system":"GCJ-02 / Amap","generated_at":"2026-05-07 20:23:18"},"rows":[{"name":"动物门诊","address":"宋氏牙科西侧150米","phone":"","category":"医疗保健服务;动物医疗场所;宠物诊所","area":"","lng":114.886176,"lat":36.845496,"amap_id":"B0K0RMI3S7","order":1,"prev_distance_km":0.0,"cumulative_distance_km":0.0,"amap_marker_url":"https://uri.amap.com/marker?position=114.886176,36.845496&name=%E5%8A%A8%E7%89%A9%E9%97%A8%E8%AF%8A&src=vetmap&coordinate=gaode&callnative=1"},{"name":"德行禽畜服务部","address":"河北宇洋卫生材料有限公司东南侧120米","phone":"","category":"医疗保健服务;动物医疗场所;兽医站","area":"","lng":114.889017,"lat":36.871171,"amap_id":"B0KUNLUO97","order":2,"prev_distance_km":2.866,"cumulative_distance_km":2.866,"amap_marker_url":"https://uri.amap.com/marker?position=114.889017,36.871171&name=%E5%BE%B7%E8%A1%8C%E7%A6%BD%E7%95%9C%E6%9C%8D%E5%8A%A1%E9%83%A8&src=vetmap&coordinate=gaode&callnative=1"},{"name":"古城宠物医院鸡泽分院(宠伴宠物生活馆)","address":"广大小区东南侧180米","phone":"13483065656","category":"医疗保健服务;动物医疗场所;宠物诊所","area":"","lng":114.877994,"lat":36.906851,"amap_id":"B0K391IHLO","order":3,"prev_distance_km":4.087,"cumulative_distance_km":6.953,"amap_marker_url":"https://uri.amap.com/marker?position=114.877994,36.906851&name=%E5%8F%A4%E5%9F%8E%E5%AE%A0%E7%89%A9%E5%8C%BB%E9%99%A2%E9%B8%A1%E6%B3%BD%E5%88%86%E9%99%A2%28%E5%AE%A0%E4%BC%B4%E5%AE%A0%E7%89%A9%E7%94%9F%E6%B4%BB%E9%A6%86%29&src=vetmap&coordinate=gaode&callnative=1"},{"name":"康旭宠物门诊","address":"凤凰城东门南行50米","phone":"","category":"医疗保健服务;动物医疗场所;宠物诊所","area":"","lng":114.892541,"lat":36.914331,"amap_id":"B0L065N9AA","order":4,"prev_distance_km":1.538,"cumulative_distance_km":8.491,"amap_marker_url":"https://uri.amap.com/marker?position=114.892541,36.914331&name=%E5%BA%B7%E6%97%AD%E5%AE%A0%E7%89%A9%E9%97%A8%E8%AF%8A&src=vetmap&coordinate=gaode&callnative=1"},{"name":"康怡宠物医院","address":"建设大街中段西侧安定小区27号","phone":"18812002275","category":"医疗保健服务;动物医疗场所;宠物诊所","area":"","lng":114.886343,"lat":36.918028,"amap_id":"B0M69SABGR","order":5,"prev_distance_km":0.687,"cumulative_distance_km":9.178,"amap_marker_url":"https://uri.amap.com/marker?position=114.886343,36.918028&name=%E5%BA%B7%E6%80%A1%E5%AE%A0%E7%89%A9%E5%8C%BB%E9%99%A2&src=vetmap&coordinate=gaode&callnative=1"},{"name":"畜牧兽医","address":"鸡泽镇西关桥东行一百米路北(九鼎西路143)","phone":"13722345458","category":"医疗保健服务;动物医疗场所;兽医站","area":"","lng":114.869771,"lat":36.919501,"amap_id":"B0FFI24HOH","order":6,"prev_distance_km":1.482,"cumulative_distance_km":10.66,"amap_marker_url":"https://uri.amap.com/marker?position=114.869771,36.919501&name=%E7%95%9C%E7%89%A7%E5%85%BD%E5%8C%BB&src=vetmap&coordinate=gaode&callnative=1"},{"name":"康旭宠物医院(滨河大街店)","address":"滨河大街与好谦东路交叉口东北60米","phone":"","category":"医疗保健服务;动物医疗场所;宠物诊所","area":"","lng":114.86644,"lat":36.912889,"amap_id":"B0J1O9RV40","order":7,"prev_distance_km":0.793,"cumulative_distance_km":11.453,"amap_marker_url":"https://uri.amap.com/marker?position=114.866440,36.912889&name=%E5%BA%B7%E6%97%AD%E5%AE%A0%E7%89%A9%E5%8C%BB%E9%99%A2%28%E6%BB%A8%E6%B2%B3%E5%A4%A7%E8%A1%97%E5%BA%97%29&src=vetmap&coordinate=gaode&callnative=1"},{"name":"鸡泽县畜牧兽医服务中心","address":"高小街与前街交叉口东北100米","phone":"","category":"医疗保健服务;动物医疗场所;兽医站","area":"","lng":114.773745,"lat":36.883261,"amap_id":"B0G3DR4CXS","order":8,"prev_distance_km":8.877,"cumulative_distance_km":20.33,"amap_marker_url":"https://uri.amap.com/marker?position=114.773745,36.883261&name=%E9%B8%A1%E6%B3%BD%E5%8E%BF%E7%95%9C%E7%89%A7%E5%85%BD%E5%8C%BB%E6%9C%8D%E5%8A%A1%E4%B8%AD%E5%BF%83&src=vetmap&coordinate=gaode&callnative=1"}]}