{"summary":{"id":"d01138","province":"河南省","city":"三门峡市","district":"湖滨区","count":18,"route_count":1,"max_route_clinics":18,"total_distance_km":13.407,"coordinate_system":"GCJ-02 / Amap","generated_at":"2026-05-07 21:29:29"},"routes":[{"id":"r1","name":"第1段","count":18,"total_distance_km":13.407,"rows":[{"name":"博大宠物医院南区分院(猫友好医院)","address":"德福骏景御园北门旁","phone":"0398-2905120","category":"医疗保健服务;动物医疗场所;宠物诊所","area":"","lng":111.165322,"lat":34.769916,"amap_id":"B0H0XC3TQG","order":1,"prev_distance_km":0.0,"cumulative_distance_km":0.0,"amap_marker_url":"https://uri.amap.com/marker?position=111.165322,34.769916&name=%E5%8D%9A%E5%A4%A7%E5%AE%A0%E7%89%A9%E5%8C%BB%E9%99%A2%E5%8D%97%E5%8C%BA%E5%88%86%E9%99%A2%28%E7%8C%AB%E5%8F%8B%E5%A5%BD%E5%8C%BB%E9%99%A2%29&src=vetmap&coordinate=gaode&callnative=1","route_id":"r1","route_name":"第1段"},{"name":"博大宠物医院南区四店","address":"骏景御园小区19号楼0107号","phone":"18623986763","category":"医疗保健服务;动物医疗场所;宠物诊所","area":"","lng":111.165063,"lat":34.76998,"amap_id":"B0JDBLHCCI","order":2,"prev_distance_km":0.025,"cumulative_distance_km":0.025,"amap_marker_url":"https://uri.amap.com/marker?position=111.165063,34.769980&name=%E5%8D%9A%E5%A4%A7%E5%AE%A0%E7%89%A9%E5%8C%BB%E9%99%A2%E5%8D%97%E5%8C%BA%E5%9B%9B%E5%BA%97&src=vetmap&coordinate=gaode&callnative=1","route_id":"r1","route_name":"第1段"},{"name":"三门峡悠得宠宠物药房","address":"崤山西路文达碧城府1-1-01号商铺","phone":"15539828962","category":"医疗保健服务;动物医疗场所;动物医疗场所","area":"","lng":111.16928,"lat":34.788007,"amap_id":"B0LUX5O0WW","order":3,"prev_distance_km":2.041,"cumulative_distance_km":2.066,"amap_marker_url":"https://uri.amap.com/marker?position=111.169280,34.788007&name=%E4%B8%89%E9%97%A8%E5%B3%A1%E6%82%A0%E5%BE%97%E5%AE%A0%E5%AE%A0%E7%89%A9%E8%8D%AF%E6%88%BF&src=vetmap&coordinate=gaode&callnative=1","route_id":"r1","route_name":"第1段"},{"name":"同创牧业兽药疫苗饲料批发中心","address":"","phone":"13030366539","category":"医疗保健服务;动物医疗场所;兽医站","area":"","lng":111.177361,"lat":34.79226,"amap_id":"B0FFFEEP0V","order":4,"prev_distance_km":0.876,"cumulative_distance_km":2.942,"amap_marker_url":"https://uri.amap.com/marker?position=111.177361,34.792260&name=%E5%90%8C%E5%88%9B%E7%89%A7%E4%B8%9A%E5%85%BD%E8%8D%AF%E7%96%AB%E8%8B%97%E9%A5%B2%E6%96%99%E6%89%B9%E5%8F%91%E4%B8%AD%E5%BF%83&src=vetmap&coordinate=gaode&callnative=1","route_id":"r1","route_name":"第1段"},{"name":"奥丁宠物美容","address":"黄河西路","phone":"","category":"医疗保健服务;动物医疗场所;宠物诊所","area":"","lng":111.1776,"lat":34.792307,"amap_id":"B0FFLKHCCH","order":5,"prev_distance_km":0.022,"cumulative_distance_km":2.965,"amap_marker_url":"https://uri.amap.com/marker?position=111.177600,34.792307&name=%E5%A5%A5%E4%B8%81%E5%AE%A0%E7%89%A9%E7%BE%8E%E5%AE%B9&src=vetmap&coordinate=gaode&callnative=1","route_id":"r1","route_name":"第1段"},{"name":"博美宠物诊所","address":"器材厂家属院南门西北90米","phone":"13603401731","category":"医疗保健服务;动物医疗场所;宠物诊所","area":"","lng":111.180707,"lat":34.792427,"amap_id":"B018E0N9WK","order":6,"prev_distance_km":0.284,"cumulative_distance_km":3.249,"amap_marker_url":"https://uri.amap.com/marker?position=111.180707,34.792427&name=%E5%8D%9A%E7%BE%8E%E5%AE%A0%E7%89%A9%E8%AF%8A%E6%89%80&src=vetmap&coordinate=gaode&callnative=1","route_id":"r1","route_name":"第1段"},{"name":"三门峡爱心动物中心医院","address":"湖滨街道建设路锦绣华庭2号楼1层105号商铺","phone":"0398-2187828;15539890398","category":"医疗保健服务;动物医疗场所;宠物诊所","area":"","lng":111.192848,"lat":34.787892,"amap_id":"B0I1PMNFLY","order":7,"prev_distance_km":1.218,"cumulative_distance_km":4.467,"amap_marker_url":"https://uri.amap.com/marker?position=111.192848,34.787892&name=%E4%B8%89%E9%97%A8%E5%B3%A1%E7%88%B1%E5%BF%83%E5%8A%A8%E7%89%A9%E4%B8%AD%E5%BF%83%E5%8C%BB%E9%99%A2&src=vetmap&coordinate=gaode&callnative=1","route_id":"r1","route_name":"第1段"},{"name":"动物门诊(华兴苑小区店)","address":"华兴苑小区西北门旁","phone":"15139892552","category":"医疗保健服务;动物医疗场所;宠物诊所","area":"","lng":111.200721,"lat":34.78865,"amap_id":"B0KD1AWHJ0","order":8,"prev_distance_km":0.724,"cumulative_distance_km":5.191,"amap_marker_url":"https://uri.amap.com/marker?position=111.200721,34.788650&name=%E5%8A%A8%E7%89%A9%E9%97%A8%E8%AF%8A%28%E5%8D%8E%E5%85%B4%E8%8B%91%E5%B0%8F%E5%8C%BA%E5%BA%97%29&src=vetmap&coordinate=gaode&callnative=1","route_id":"r1","route_name":"第1段"},{"name":"初欣动物诊所","address":"和平西路公园路交叉口南行20米","phone":"15910794741","category":"医疗保健服务;动物医疗场所;宠物诊所","area":"和平路","lng":111.1956,"lat":34.780409,"amap_id":"B0FFKTTLJK","order":9,"prev_distance_km":1.029,"cumulative_distance_km":6.22,"amap_marker_url":"https://uri.amap.com/marker?position=111.195600,34.780409&name=%E5%88%9D%E6%AC%A3%E5%8A%A8%E7%89%A9%E8%AF%8A%E6%89%80&src=vetmap&coordinate=gaode&callnative=1","route_id":"r1","route_name":"第1段"},{"name":"佳宝宠物美容","address":"湖滨街道文明路商业街","phone":"0398-2827058;13839804186","category":"医疗保健服务;动物医疗场所;宠物诊所","area":"崤山路","lng":111.195821,"lat":34.776911,"amap_id":"B018E0NK4S","order":10,"prev_distance_km":0.389,"cumulative_distance_km":6.609,"amap_marker_url":"https://uri.amap.com/marker?position=111.195821,34.776911&name=%E4%BD%B3%E5%AE%9D%E5%AE%A0%E7%89%A9%E7%BE%8E%E5%AE%B9&src=vetmap&coordinate=gaode&callnative=1","route_id":"r1","route_name":"第1段"},{"name":"博大宠物医院(旗舰店)","address":"越海华府小区11栋5号门面房","phone":"","category":"医疗保健服务;动物医疗场所;宠物诊所","area":"","lng":111.187686,"lat":34.772978,"amap_id":"B0JDAL17CA","order":11,"prev_distance_km":0.862,"cumulative_distance_km":7.471,"amap_marker_url":"https://uri.amap.com/marker?position=111.187686,34.772978&name=%E5%8D%9A%E5%A4%A7%E5%AE%A0%E7%89%A9%E5%8C%BB%E9%99%A2%28%E6%97%97%E8%88%B0%E5%BA%97%29&src=vetmap&coordinate=gaode&callnative=1","route_id":"r1","route_name":"第1段"},{"name":"博大宠物医院","address":"五原路文化路路口越海华府11号楼4号商铺","phone":"0398-2805120","category":"医疗保健服务;动物医疗场所;宠物诊所","area":"","lng":111.187617,"lat":34.772944,"amap_id":"B0FFFA3AQ6","order":12,"prev_distance_km":0.007,"cumulative_distance_km":7.479,"amap_marker_url":"https://uri.amap.com/marker?position=111.187617,34.772944&name=%E5%8D%9A%E5%A4%A7%E5%AE%A0%E7%89%A9%E5%8C%BB%E9%99%A2&src=vetmap&coordinate=gaode&callnative=1","route_id":"r1","route_name":"第1段"},{"name":"康源动物医院","address":"六峰南路与青龙路交叉口金渠涧河花园门面6号楼101","phone":"13253971199","category":"医疗保健服务;动物医疗场所;宠物诊所","area":"","lng":111.186724,"lat":34.765,"amap_id":"B0FFMEKU02","order":13,"prev_distance_km":0.887,"cumulative_distance_km":8.366,"amap_marker_url":"https://uri.amap.com/marker?position=111.186724,34.765000&name=%E5%BA%B7%E6%BA%90%E5%8A%A8%E7%89%A9%E5%8C%BB%E9%99%A2&src=vetmap&coordinate=gaode&callnative=1","route_id":"r1","route_name":"第1段"},{"name":"爱德宝动物医院","address":"上阳南路与五源东路交叉口东南角","phone":"0398-2111120","category":"医疗保健服务;动物医疗场所;宠物诊所","area":"上阳南路","lng":111.198597,"lat":34.766665,"amap_id":"B0FFJ0MVKP","order":14,"prev_distance_km":1.1,"cumulative_distance_km":9.466,"amap_marker_url":"https://uri.amap.com/marker?position=111.198597,34.766665&name=%E7%88%B1%E5%BE%B7%E5%AE%9D%E5%8A%A8%E7%89%A9%E5%8C%BB%E9%99%A2&src=vetmap&coordinate=gaode&callnative=1","route_id":"r1","route_name":"第1段"},{"name":"一生宠动物医院","address":"文明路六峰路交叉口东101米,3路车站牌后方","phone":"18236729275","category":"医疗保健服务;动物医疗场所;宠物诊所","area":"","lng":111.197421,"lat":34.776045,"amap_id":"B0HGYMUF5A","order":15,"prev_distance_km":1.049,"cumulative_distance_km":10.514,"amap_marker_url":"https://uri.amap.com/marker?position=111.197421,34.776045&name=%E4%B8%80%E7%94%9F%E5%AE%A0%E5%8A%A8%E7%89%A9%E5%8C%BB%E9%99%A2&src=vetmap&coordinate=gaode&callnative=1","route_id":"r1","route_name":"第1段"},{"name":"爱康动物诊所(上阳北路)","address":"三门峡市节能技术中心家属院东门旁","phone":"15939844334","category":"医疗保健服务;动物医疗场所;宠物诊所","area":"上阳南路","lng":111.204214,"lat":34.774643,"amap_id":"B018E0NBPO","order":16,"prev_distance_km":0.64,"cumulative_distance_km":11.154,"amap_marker_url":"https://uri.amap.com/marker?position=111.204214,34.774643&name=%E7%88%B1%E5%BA%B7%E5%8A%A8%E7%89%A9%E8%AF%8A%E6%89%80%28%E4%B8%8A%E9%98%B3%E5%8C%97%E8%B7%AF%29&src=vetmap&coordinate=gaode&callnative=1","route_id":"r1","route_name":"第1段"},{"name":"兰涛动物门诊","address":"东风市场宋会路半坡(老车站向南50米路东)","phone":"13938103387","category":"医疗保健服务;动物医疗场所;宠物诊所","area":"经一路","lng":111.222827,"lat":34.765945,"amap_id":"B0FFFZTA6P","order":17,"prev_distance_km":1.956,"cumulative_distance_km":13.11,"amap_marker_url":"https://uri.amap.com/marker?position=111.222827,34.765945&name=%E5%85%B0%E6%B6%9B%E5%8A%A8%E7%89%A9%E9%97%A8%E8%AF%8A&src=vetmap&coordinate=gaode&callnative=1","route_id":"r1","route_name":"第1段"},{"name":"瑞康宠物会所","address":"黄河路东段东风大酒店一层","phone":"15039846150","category":"医疗保健服务;动物医疗场所;宠物诊所","area":"","lng":111.224889,"lat":34.768013,"amap_id":"B0JDXOIRPK","order":18,"prev_distance_km":0.297,"cumulative_distance_km":13.407,"amap_marker_url":"https://uri.amap.com/marker?position=111.224889,34.768013&name=%E7%91%9E%E5%BA%B7%E5%AE%A0%E7%89%A9%E4%BC%9A%E6%89%80&src=vetmap&coordinate=gaode&callnative=1","route_id":"r1","route_name":"第1段"}]}],"rows":[{"name":"博大宠物医院南区分院(猫友好医院)","address":"德福骏景御园北门旁","phone":"0398-2905120","category":"医疗保健服务;动物医疗场所;宠物诊所","area":"","lng":111.165322,"lat":34.769916,"amap_id":"B0H0XC3TQG","order":1,"prev_distance_km":0.0,"cumulative_distance_km":0.0,"amap_marker_url":"https://uri.amap.com/marker?position=111.165322,34.769916&name=%E5%8D%9A%E5%A4%A7%E5%AE%A0%E7%89%A9%E5%8C%BB%E9%99%A2%E5%8D%97%E5%8C%BA%E5%88%86%E9%99%A2%28%E7%8C%AB%E5%8F%8B%E5%A5%BD%E5%8C%BB%E9%99%A2%29&src=vetmap&coordinate=gaode&callnative=1","route_id":"r1","route_name":"第1段","global_order":1},{"name":"博大宠物医院南区四店","address":"骏景御园小区19号楼0107号","phone":"18623986763","category":"医疗保健服务;动物医疗场所;宠物诊所","area":"","lng":111.165063,"lat":34.76998,"amap_id":"B0JDBLHCCI","order":2,"prev_distance_km":0.025,"cumulative_distance_km":0.025,"amap_marker_url":"https://uri.amap.com/marker?position=111.165063,34.769980&name=%E5%8D%9A%E5%A4%A7%E5%AE%A0%E7%89%A9%E5%8C%BB%E9%99%A2%E5%8D%97%E5%8C%BA%E5%9B%9B%E5%BA%97&src=vetmap&coordinate=gaode&callnative=1","route_id":"r1","route_name":"第1段","global_order":2},{"name":"三门峡悠得宠宠物药房","address":"崤山西路文达碧城府1-1-01号商铺","phone":"15539828962","category":"医疗保健服务;动物医疗场所;动物医疗场所","area":"","lng":111.16928,"lat":34.788007,"amap_id":"B0LUX5O0WW","order":3,"prev_distance_km":2.041,"cumulative_distance_km":2.066,"amap_marker_url":"https://uri.amap.com/marker?position=111.169280,34.788007&name=%E4%B8%89%E9%97%A8%E5%B3%A1%E6%82%A0%E5%BE%97%E5%AE%A0%E5%AE%A0%E7%89%A9%E8%8D%AF%E6%88%BF&src=vetmap&coordinate=gaode&callnative=1","route_id":"r1","route_name":"第1段","global_order":3},{"name":"同创牧业兽药疫苗饲料批发中心","address":"","phone":"13030366539","category":"医疗保健服务;动物医疗场所;兽医站","area":"","lng":111.177361,"lat":34.79226,"amap_id":"B0FFFEEP0V","order":4,"prev_distance_km":0.876,"cumulative_distance_km":2.942,"amap_marker_url":"https://uri.amap.com/marker?position=111.177361,34.792260&name=%E5%90%8C%E5%88%9B%E7%89%A7%E4%B8%9A%E5%85%BD%E8%8D%AF%E7%96%AB%E8%8B%97%E9%A5%B2%E6%96%99%E6%89%B9%E5%8F%91%E4%B8%AD%E5%BF%83&src=vetmap&coordinate=gaode&callnative=1","route_id":"r1","route_name":"第1段","global_order":4},{"name":"奥丁宠物美容","address":"黄河西路","phone":"","category":"医疗保健服务;动物医疗场所;宠物诊所","area":"","lng":111.1776,"lat":34.792307,"amap_id":"B0FFLKHCCH","order":5,"prev_distance_km":0.022,"cumulative_distance_km":2.965,"amap_marker_url":"https://uri.amap.com/marker?position=111.177600,34.792307&name=%E5%A5%A5%E4%B8%81%E5%AE%A0%E7%89%A9%E7%BE%8E%E5%AE%B9&src=vetmap&coordinate=gaode&callnative=1","route_id":"r1","route_name":"第1段","global_order":5},{"name":"博美宠物诊所","address":"器材厂家属院南门西北90米","phone":"13603401731","category":"医疗保健服务;动物医疗场所;宠物诊所","area":"","lng":111.180707,"lat":34.792427,"amap_id":"B018E0N9WK","order":6,"prev_distance_km":0.284,"cumulative_distance_km":3.249,"amap_marker_url":"https://uri.amap.com/marker?position=111.180707,34.792427&name=%E5%8D%9A%E7%BE%8E%E5%AE%A0%E7%89%A9%E8%AF%8A%E6%89%80&src=vetmap&coordinate=gaode&callnative=1","route_id":"r1","route_name":"第1段","global_order":6},{"name":"三门峡爱心动物中心医院","address":"湖滨街道建设路锦绣华庭2号楼1层105号商铺","phone":"0398-2187828;15539890398","category":"医疗保健服务;动物医疗场所;宠物诊所","area":"","lng":111.192848,"lat":34.787892,"amap_id":"B0I1PMNFLY","order":7,"prev_distance_km":1.218,"cumulative_distance_km":4.467,"amap_marker_url":"https://uri.amap.com/marker?position=111.192848,34.787892&name=%E4%B8%89%E9%97%A8%E5%B3%A1%E7%88%B1%E5%BF%83%E5%8A%A8%E7%89%A9%E4%B8%AD%E5%BF%83%E5%8C%BB%E9%99%A2&src=vetmap&coordinate=gaode&callnative=1","route_id":"r1","route_name":"第1段","global_order":7},{"name":"动物门诊(华兴苑小区店)","address":"华兴苑小区西北门旁","phone":"15139892552","category":"医疗保健服务;动物医疗场所;宠物诊所","area":"","lng":111.200721,"lat":34.78865,"amap_id":"B0KD1AWHJ0","order":8,"prev_distance_km":0.724,"cumulative_distance_km":5.191,"amap_marker_url":"https://uri.amap.com/marker?position=111.200721,34.788650&name=%E5%8A%A8%E7%89%A9%E9%97%A8%E8%AF%8A%28%E5%8D%8E%E5%85%B4%E8%8B%91%E5%B0%8F%E5%8C%BA%E5%BA%97%29&src=vetmap&coordinate=gaode&callnative=1","route_id":"r1","route_name":"第1段","global_order":8},{"name":"初欣动物诊所","address":"和平西路公园路交叉口南行20米","phone":"15910794741","category":"医疗保健服务;动物医疗场所;宠物诊所","area":"和平路","lng":111.1956,"lat":34.780409,"amap_id":"B0FFKTTLJK","order":9,"prev_distance_km":1.029,"cumulative_distance_km":6.22,"amap_marker_url":"https://uri.amap.com/marker?position=111.195600,34.780409&name=%E5%88%9D%E6%AC%A3%E5%8A%A8%E7%89%A9%E8%AF%8A%E6%89%80&src=vetmap&coordinate=gaode&callnative=1","route_id":"r1","route_name":"第1段","global_order":9},{"name":"佳宝宠物美容","address":"湖滨街道文明路商业街","phone":"0398-2827058;13839804186","category":"医疗保健服务;动物医疗场所;宠物诊所","area":"崤山路","lng":111.195821,"lat":34.776911,"amap_id":"B018E0NK4S","order":10,"prev_distance_km":0.389,"cumulative_distance_km":6.609,"amap_marker_url":"https://uri.amap.com/marker?position=111.195821,34.776911&name=%E4%BD%B3%E5%AE%9D%E5%AE%A0%E7%89%A9%E7%BE%8E%E5%AE%B9&src=vetmap&coordinate=gaode&callnative=1","route_id":"r1","route_name":"第1段","global_order":10},{"name":"博大宠物医院(旗舰店)","address":"越海华府小区11栋5号门面房","phone":"","category":"医疗保健服务;动物医疗场所;宠物诊所","area":"","lng":111.187686,"lat":34.772978,"amap_id":"B0JDAL17CA","order":11,"prev_distance_km":0.862,"cumulative_distance_km":7.471,"amap_marker_url":"https://uri.amap.com/marker?position=111.187686,34.772978&name=%E5%8D%9A%E5%A4%A7%E5%AE%A0%E7%89%A9%E5%8C%BB%E9%99%A2%28%E6%97%97%E8%88%B0%E5%BA%97%29&src=vetmap&coordinate=gaode&callnative=1","route_id":"r1","route_name":"第1段","global_order":11},{"name":"博大宠物医院","address":"五原路文化路路口越海华府11号楼4号商铺","phone":"0398-2805120","category":"医疗保健服务;动物医疗场所;宠物诊所","area":"","lng":111.187617,"lat":34.772944,"amap_id":"B0FFFA3AQ6","order":12,"prev_distance_km":0.007,"cumulative_distance_km":7.479,"amap_marker_url":"https://uri.amap.com/marker?position=111.187617,34.772944&name=%E5%8D%9A%E5%A4%A7%E5%AE%A0%E7%89%A9%E5%8C%BB%E9%99%A2&src=vetmap&coordinate=gaode&callnative=1","route_id":"r1","route_name":"第1段","global_order":12},{"name":"康源动物医院","address":"六峰南路与青龙路交叉口金渠涧河花园门面6号楼101","phone":"13253971199","category":"医疗保健服务;动物医疗场所;宠物诊所","area":"","lng":111.186724,"lat":34.765,"amap_id":"B0FFMEKU02","order":13,"prev_distance_km":0.887,"cumulative_distance_km":8.366,"amap_marker_url":"https://uri.amap.com/marker?position=111.186724,34.765000&name=%E5%BA%B7%E6%BA%90%E5%8A%A8%E7%89%A9%E5%8C%BB%E9%99%A2&src=vetmap&coordinate=gaode&callnative=1","route_id":"r1","route_name":"第1段","global_order":13},{"name":"爱德宝动物医院","address":"上阳南路与五源东路交叉口东南角","phone":"0398-2111120","category":"医疗保健服务;动物医疗场所;宠物诊所","area":"上阳南路","lng":111.198597,"lat":34.766665,"amap_id":"B0FFJ0MVKP","order":14,"prev_distance_km":1.1,"cumulative_distance_km":9.466,"amap_marker_url":"https://uri.amap.com/marker?position=111.198597,34.766665&name=%E7%88%B1%E5%BE%B7%E5%AE%9D%E5%8A%A8%E7%89%A9%E5%8C%BB%E9%99%A2&src=vetmap&coordinate=gaode&callnative=1","route_id":"r1","route_name":"第1段","global_order":14},{"name":"一生宠动物医院","address":"文明路六峰路交叉口东101米,3路车站牌后方","phone":"18236729275","category":"医疗保健服务;动物医疗场所;宠物诊所","area":"","lng":111.197421,"lat":34.776045,"amap_id":"B0HGYMUF5A","order":15,"prev_distance_km":1.049,"cumulative_distance_km":10.514,"amap_marker_url":"https://uri.amap.com/marker?position=111.197421,34.776045&name=%E4%B8%80%E7%94%9F%E5%AE%A0%E5%8A%A8%E7%89%A9%E5%8C%BB%E9%99%A2&src=vetmap&coordinate=gaode&callnative=1","route_id":"r1","route_name":"第1段","global_order":15},{"name":"爱康动物诊所(上阳北路)","address":"三门峡市节能技术中心家属院东门旁","phone":"15939844334","category":"医疗保健服务;动物医疗场所;宠物诊所","area":"上阳南路","lng":111.204214,"lat":34.774643,"amap_id":"B018E0NBPO","order":16,"prev_distance_km":0.64,"cumulative_distance_km":11.154,"amap_marker_url":"https://uri.amap.com/marker?position=111.204214,34.774643&name=%E7%88%B1%E5%BA%B7%E5%8A%A8%E7%89%A9%E8%AF%8A%E6%89%80%28%E4%B8%8A%E9%98%B3%E5%8C%97%E8%B7%AF%29&src=vetmap&coordinate=gaode&callnative=1","route_id":"r1","route_name":"第1段","global_order":16},{"name":"兰涛动物门诊","address":"东风市场宋会路半坡(老车站向南50米路东)","phone":"13938103387","category":"医疗保健服务;动物医疗场所;宠物诊所","area":"经一路","lng":111.222827,"lat":34.765945,"amap_id":"B0FFFZTA6P","order":17,"prev_distance_km":1.956,"cumulative_distance_km":13.11,"amap_marker_url":"https://uri.amap.com/marker?position=111.222827,34.765945&name=%E5%85%B0%E6%B6%9B%E5%8A%A8%E7%89%A9%E9%97%A8%E8%AF%8A&src=vetmap&coordinate=gaode&callnative=1","route_id":"r1","route_name":"第1段","global_order":17},{"name":"瑞康宠物会所","address":"黄河路东段东风大酒店一层","phone":"15039846150","category":"医疗保健服务;动物医疗场所;宠物诊所","area":"","lng":111.224889,"lat":34.768013,"amap_id":"B0JDXOIRPK","order":18,"prev_distance_km":0.297,"cumulative_distance_km":13.407,"amap_marker_url":"https://uri.amap.com/marker?position=111.224889,34.768013&name=%E7%91%9E%E5%BA%B7%E5%AE%A0%E7%89%A9%E4%BC%9A%E6%89%80&src=vetmap&coordinate=gaode&callnative=1","route_id":"r1","route_name":"第1段","global_order":18}]}