{"summary":{"id":"d01154","province":"河南省","city":"南阳市","district":"唐河县","count":22,"total_distance_km":128.879,"coordinate_system":"GCJ-02 / Amap","generated_at":"2026-05-07 19:57:34"},"rows":[{"name":"畜禽疫病防控中心","address":"唐柏路与政通街交叉口西南460米","phone":"","category":"医疗保健服务;动物医疗场所;动物医疗场所","area":"","lng":112.542475,"lat":32.412175,"amap_id":"B0M6LU6L57","order":1,"prev_distance_km":0.0,"cumulative_distance_km":0.0,"amap_marker_url":"https://uri.amap.com/marker?position=112.542475,32.412175&name=%E7%95%9C%E7%A6%BD%E7%96%AB%E7%97%85%E9%98%B2%E6%8E%A7%E4%B8%AD%E5%BF%83&src=vetmap&coordinate=gaode&callnative=1"},{"name":"唐河县湖阳镇畜牧兽医门诊","address":"G234(兴阳线)","phone":"13721823622","category":"医疗保健服务;动物医疗场所;兽医站","area":"","lng":112.749204,"lat":32.409984,"amap_id":"B0FFJRGLD4","order":2,"prev_distance_km":19.408,"cumulative_distance_km":19.408,"amap_marker_url":"https://uri.amap.com/marker?position=112.749204,32.409984&name=%E5%94%90%E6%B2%B3%E5%8E%BF%E6%B9%96%E9%98%B3%E9%95%87%E7%95%9C%E7%89%A7%E5%85%BD%E5%8C%BB%E9%97%A8%E8%AF%8A&src=vetmap&coordinate=gaode&callnative=1"},{"name":"宠物美容","address":"兴阳线西南侧","phone":"","category":"医疗保健服务;动物医疗场所;宠物诊所","area":"","lng":112.753925,"lat":32.398475,"amap_id":"B0MB4CZM0B","order":3,"prev_distance_km":1.354,"cumulative_distance_km":20.762,"amap_marker_url":"https://uri.amap.com/marker?position=112.753925,32.398475&name=%E5%AE%A0%E7%89%A9%E7%BE%8E%E5%AE%B9&src=vetmap&coordinate=gaode&callnative=1"},{"name":"兽医站","address":"006乡道与故居路交叉口南140米","phone":"","category":"医疗保健服务;动物医疗场所;兽医站","area":"","lng":112.883579,"lat":32.48387,"amap_id":"B0JUHC029O","order":4,"prev_distance_km":15.434,"cumulative_distance_km":36.196,"amap_marker_url":"https://uri.amap.com/marker?position=112.883579,32.483870&name=%E5%85%BD%E5%8C%BB%E7%AB%99&src=vetmap&coordinate=gaode&callnative=1"},{"name":"井楼兽医站","address":"古城乡井楼村井楼","phone":"13608459483","category":"医疗保健服务;动物医疗场所;兽医站","area":"","lng":112.945796,"lat":32.617845,"amap_id":"B0FFG6NLH1","order":5,"prev_distance_km":15.998,"cumulative_distance_km":52.194,"amap_marker_url":"https://uri.amap.com/marker?position=112.945796,32.617845&name=%E4%BA%95%E6%A5%BC%E5%85%BD%E5%8C%BB%E7%AB%99&src=vetmap&coordinate=gaode&callnative=1"},{"name":"万军动物诊所","address":"富民大道与文化路交叉口西南20米","phone":"","category":"医疗保健服务;动物医疗场所;宠物诊所","area":"","lng":113.057596,"lat":32.631431,"amap_id":"B0HDSY4GUN","order":6,"prev_distance_km":10.579,"cumulative_distance_km":62.773,"amap_marker_url":"https://uri.amap.com/marker?position=113.057596,32.631431&name=%E4%B8%87%E5%86%9B%E5%8A%A8%E7%89%A9%E8%AF%8A%E6%89%80&src=vetmap&coordinate=gaode&callnative=1"},{"name":"大河屯镇兽医站","address":"233省道与328国道交叉口北140米","phone":"13782019510","category":"医疗保健服务;动物医疗场所;动物医疗场所","area":"","lng":113.07015,"lat":32.735859,"amap_id":"B0FFM96F64","order":7,"prev_distance_km":11.671,"cumulative_distance_km":74.444,"amap_marker_url":"https://uri.amap.com/marker?position=113.070150,32.735859&name=%E5%A4%A7%E6%B2%B3%E5%B1%AF%E9%95%87%E5%85%BD%E5%8C%BB%E7%AB%99&src=vetmap&coordinate=gaode&callnative=1"},{"name":"萌宠诊疗宠物生活馆","address":"大河屯镇新街长安路领头羊对面西边50米宠物生活馆","phone":"18767368180","category":"医疗保健服务;动物医疗场所;宠物诊所","area":"","lng":113.062619,"lat":32.735238,"amap_id":"B0MB4MYHMH","order":8,"prev_distance_km":0.708,"cumulative_distance_km":75.152,"amap_marker_url":"https://uri.amap.com/marker?position=113.062619,32.735238&name=%E8%90%8C%E5%AE%A0%E8%AF%8A%E7%96%97%E5%AE%A0%E7%89%A9%E7%94%9F%E6%B4%BB%E9%A6%86&src=vetmap&coordinate=gaode&callnative=1"},{"name":"源潭镇畜牧兽医站","address":"004县道与001乡道交叉口东340米","phone":"","category":"医疗保健服务;动物医疗场所;兽医站","area":"","lng":112.920689,"lat":32.772501,"amap_id":"B0FFMHEI9Q","order":9,"prev_distance_km":13.904,"cumulative_distance_km":89.056,"amap_marker_url":"https://uri.amap.com/marker?position=112.920689,32.772501&name=%E6%BA%90%E6%BD%AD%E9%95%87%E7%95%9C%E7%89%A7%E5%85%BD%E5%8C%BB%E7%AB%99&src=vetmap&coordinate=gaode&callnative=1"},{"name":"兽医门诊","address":"兴阳线西北30米","phone":"","category":"医疗保健服务;动物医疗场所;兽医站","area":"","lng":112.854379,"lat":32.791289,"amap_id":"B0FFM3X38X","order":10,"prev_distance_km":6.542,"cumulative_distance_km":95.598,"amap_marker_url":"https://uri.amap.com/marker?position=112.854379,32.791289&name=%E5%85%BD%E5%8C%BB%E9%97%A8%E8%AF%8A&src=vetmap&coordinate=gaode&callnative=1"},{"name":"佑宠堂宠物诊所","address":"建设中路与文峰北路交叉口西南角","phone":"13937719179","category":"医疗保健服务;动物医疗场所;宠物诊所","area":"文峰","lng":112.847209,"lat":32.684254,"amap_id":"B0FFJ2BSXS","order":11,"prev_distance_km":11.921,"cumulative_distance_km":107.518,"amap_marker_url":"https://uri.amap.com/marker?position=112.847209,32.684254&name=%E4%BD%91%E5%AE%A0%E5%A0%82%E5%AE%A0%E7%89%A9%E8%AF%8A%E6%89%80&src=vetmap&coordinate=gaode&callnative=1"},{"name":"唐河县建设牧业","address":"新华中路192号","phone":"","category":"医疗保健服务;动物医疗场所;动物医疗场所","area":"","lng":112.831581,"lat":32.681889,"amap_id":"B01790QQN8","order":12,"prev_distance_km":1.486,"cumulative_distance_km":109.004,"amap_marker_url":"https://uri.amap.com/marker?position=112.831581,32.681889&name=%E5%94%90%E6%B2%B3%E5%8E%BF%E5%BB%BA%E8%AE%BE%E7%89%A7%E4%B8%9A&src=vetmap&coordinate=gaode&callnative=1"},{"name":"宠康宠物医院(唐河店)","address":"友兰大道与新华路交叉口西五十米路北东润百货对面","phone":"","category":"医疗保健服务;动物医疗场所;宠物诊所","area":"","lng":112.829462,"lat":32.681817,"amap_id":"B0J1BRSATA","order":13,"prev_distance_km":0.198,"cumulative_distance_km":109.203,"amap_marker_url":"https://uri.amap.com/marker?position=112.829462,32.681817&name=%E5%AE%A0%E5%BA%B7%E5%AE%A0%E7%89%A9%E5%8C%BB%E9%99%A2%28%E5%94%90%E6%B2%B3%E5%BA%97%29&src=vetmap&coordinate=gaode&callnative=1"},{"name":"倍宠动物医院","address":"友兰大道241号","phone":"18625682508","category":"医疗保健服务;动物医疗场所;宠物诊所","area":"","lng":112.827205,"lat":32.682443,"amap_id":"B0KU3YLV3H","order":14,"prev_distance_km":0.222,"cumulative_distance_km":109.425,"amap_marker_url":"https://uri.amap.com/marker?position=112.827205,32.682443&name=%E5%80%8D%E5%AE%A0%E5%8A%A8%E7%89%A9%E5%8C%BB%E9%99%A2&src=vetmap&coordinate=gaode&callnative=1"},{"name":"宠佑嘉动物医院","address":"唐河紫小区4栋103号","phone":"18137305355","category":"医疗保健服务;动物医疗场所;宠物诊所","area":"","lng":112.823066,"lat":32.677986,"amap_id":"B0M6NUF87Y","order":15,"prev_distance_km":0.629,"cumulative_distance_km":110.054,"amap_marker_url":"https://uri.amap.com/marker?position=112.823066,32.677986&name=%E5%AE%A0%E4%BD%91%E5%98%89%E5%8A%A8%E7%89%A9%E5%8C%BB%E9%99%A2&src=vetmap&coordinate=gaode&callnative=1"},{"name":"宠宝宝美容(滨河路店)","address":"滨河南路与盛居西路交叉口东南80米盛居路2-16","phone":"18112878969","category":"医疗保健服务;动物医疗场所;动物医疗场所","area":"","lng":112.817221,"lat":32.670928,"amap_id":"B0KK0K98IG","order":16,"prev_distance_km":0.957,"cumulative_distance_km":111.011,"amap_marker_url":"https://uri.amap.com/marker?position=112.817221,32.670928&name=%E5%AE%A0%E5%AE%9D%E5%AE%9D%E7%BE%8E%E5%AE%B9%28%E6%BB%A8%E6%B2%B3%E8%B7%AF%E5%BA%97%29&src=vetmap&coordinate=gaode&callnative=1"},{"name":"康明动物诊所","address":"北京大道体育场斜对面","phone":"15036226752","category":"医疗保健服务;动物医疗场所;宠物诊所","area":"","lng":112.819666,"lat":32.677231,"amap_id":"B0KGRSGJ36","order":17,"prev_distance_km":0.737,"cumulative_distance_km":111.748,"amap_marker_url":"https://uri.amap.com/marker?position=112.819666,32.677231&name=%E5%BA%B7%E6%98%8E%E5%8A%A8%E7%89%A9%E8%AF%8A%E6%89%80&src=vetmap&coordinate=gaode&callnative=1"},{"name":"豫禾宠物医院","address":"滨河·都市花园北2门旁","phone":"17639930350","category":"医疗保健服务;动物医疗场所;宠物诊所","area":"","lng":112.823132,"lat":32.68311,"amap_id":"B0IG0Z6DSX","order":18,"prev_distance_km":0.73,"cumulative_distance_km":112.478,"amap_marker_url":"https://uri.amap.com/marker?position=112.823132,32.683110&name=%E8%B1%AB%E7%A6%BE%E5%AE%A0%E7%89%A9%E5%8C%BB%E9%99%A2&src=vetmap&coordinate=gaode&callnative=1"},{"name":"医直宠宠物医院综合诊疗中心","address":"建设西路446号","phone":"","category":"医疗保健服务;动物医疗场所;宠物诊所","area":"","lng":112.82509,"lat":32.689812,"amap_id":"B0L2UCEX98","order":19,"prev_distance_km":0.767,"cumulative_distance_km":113.245,"amap_marker_url":"https://uri.amap.com/marker?position=112.825090,32.689812&name=%E5%8C%BB%E7%9B%B4%E5%AE%A0%E5%AE%A0%E7%89%A9%E5%8C%BB%E9%99%A2%E7%BB%BC%E5%90%88%E8%AF%8A%E7%96%97%E4%B8%AD%E5%BF%83&src=vetmap&coordinate=gaode&callnative=1"},{"name":"老兽医站","address":"解放西路与滨河北路交叉口东南320米","phone":"","category":"医疗保健服务;动物医疗场所;兽医站","area":"","lng":112.831625,"lat":32.693175,"amap_id":"B0MBNXURIV","order":20,"prev_distance_km":0.717,"cumulative_distance_km":113.962,"amap_marker_url":"https://uri.amap.com/marker?position=112.831625,32.693175&name=%E8%80%81%E5%85%BD%E5%8C%BB%E7%AB%99&src=vetmap&coordinate=gaode&callnative=1"},{"name":"鸿瑞动物检疫中队","address":"大河物流园西南门旁","phone":"","category":"医疗保健服务;动物医疗场所;动物医疗场所","area":"","lng":112.808077,"lat":32.721889,"amap_id":"B0J065JRGD","order":21,"prev_distance_km":3.879,"cumulative_distance_km":117.841,"amap_marker_url":"https://uri.amap.com/marker?position=112.808077,32.721889&name=%E9%B8%BF%E7%91%9E%E5%8A%A8%E7%89%A9%E6%A3%80%E7%96%AB%E4%B8%AD%E9%98%9F&src=vetmap&coordinate=gaode&callnative=1"},{"name":"兽医站动物门诊","address":"张苍线与312国道交叉口西南400米","phone":"13569286008","category":"医疗保健服务;动物医疗场所;宠物诊所","area":"","lng":112.726549,"lat":32.79367,"amap_id":"B0FFM9FHA4","order":22,"prev_distance_km":11.038,"cumulative_distance_km":128.879,"amap_marker_url":"https://uri.amap.com/marker?position=112.726549,32.793670&name=%E5%85%BD%E5%8C%BB%E7%AB%99%E5%8A%A8%E7%89%A9%E9%97%A8%E8%AF%8A&src=vetmap&coordinate=gaode&callnative=1"}]}