{"summary":{"id":"d01125","province":"河北省","city":"邯郸市","district":"武安市","count":13,"total_distance_km":35.073,"coordinate_system":"GCJ-02 / Amap","generated_at":"2026-05-07 20:23:18"},"rows":[{"name":"老白兽药店","address":"阳邑西街与234国道交叉口西北380米","phone":"","category":"医疗保健服务;动物医疗场所;动物医疗场所","area":"","lng":113.891975,"lat":36.738375,"amap_id":"B0LBRRK2SK","order":1,"prev_distance_km":0.0,"cumulative_distance_km":0.0,"amap_marker_url":"https://uri.amap.com/marker?position=113.891975,36.738375&name=%E8%80%81%E7%99%BD%E5%85%BD%E8%8D%AF%E5%BA%97&src=vetmap&coordinate=gaode&callnative=1"},{"name":"武安市道格宠物医院","address":"南环路文安铁厂西行50米路南","phone":"18103300216","category":"医疗保健服务;动物医疗场所;宠物诊所","area":"","lng":114.176126,"lat":36.685215,"amap_id":"B0IAA7A16A","order":2,"prev_distance_km":26.01,"cumulative_distance_km":26.01,"amap_marker_url":"https://uri.amap.com/marker?position=114.176126,36.685215&name=%E6%AD%A6%E5%AE%89%E5%B8%82%E9%81%93%E6%A0%BC%E5%AE%A0%E7%89%A9%E5%8C%BB%E9%99%A2&src=vetmap&coordinate=gaode&callnative=1"},{"name":"宠宠欲动宠物诊疗中心(建设大街盛景园店)","address":"建设大街203号","phone":"15713006688","category":"医疗保健服务;动物医疗场所;宠物诊所","area":"","lng":114.170429,"lat":36.690334,"amap_id":"B0JD25QLIX","order":3,"prev_distance_km":0.763,"cumulative_distance_km":26.773,"amap_marker_url":"https://uri.amap.com/marker?position=114.170429,36.690334&name=%E5%AE%A0%E5%AE%A0%E6%AC%B2%E5%8A%A8%E5%AE%A0%E7%89%A9%E8%AF%8A%E7%96%97%E4%B8%AD%E5%BF%83%28%E5%BB%BA%E8%AE%BE%E5%A4%A7%E8%A1%97%E7%9B%9B%E6%99%AF%E5%9B%AD%E5%BA%97%29&src=vetmap&coordinate=gaode&callnative=1"},{"name":"武安市动物疫病预防控制中心","address":"建设大街1569号","phone":"0310-5678089","category":"医疗保健服务;动物医疗场所;动物医疗场所","area":"","lng":114.170995,"lat":36.699716,"amap_id":"B0I0CHEAU4","order":4,"prev_distance_km":1.044,"cumulative_distance_km":27.817,"amap_marker_url":"https://uri.amap.com/marker?position=114.170995,36.699716&name=%E6%AD%A6%E5%AE%89%E5%B8%82%E5%8A%A8%E7%89%A9%E7%96%AB%E7%97%85%E9%A2%84%E9%98%B2%E6%8E%A7%E5%88%B6%E4%B8%AD%E5%BF%83&src=vetmap&coordinate=gaode&callnative=1"},{"name":"阳光连锁宠物医院喵汪宠物诊所","address":"","phone":"15175077015","category":"医疗保健服务;动物医疗场所;宠物诊所","area":"","lng":114.178794,"lat":36.699248,"amap_id":"B0HD55IAF8","order":5,"prev_distance_km":0.697,"cumulative_distance_km":28.514,"amap_marker_url":"https://uri.amap.com/marker?position=114.178794,36.699248&name=%E9%98%B3%E5%85%89%E8%BF%9E%E9%94%81%E5%AE%A0%E7%89%A9%E5%8C%BB%E9%99%A2%E5%96%B5%E6%B1%AA%E5%AE%A0%E7%89%A9%E8%AF%8A%E6%89%80&src=vetmap&coordinate=gaode&callnative=1"},{"name":"宠爱e族宠物诊所(喵汪门诊)","address":"新华大街邮局旁","phone":"15175077015","category":"医疗保健服务;动物医疗场所;宠物诊所","area":"","lng":114.178799,"lat":36.699323,"amap_id":"B0H0CYSGQO","order":6,"prev_distance_km":0.008,"cumulative_distance_km":28.523,"amap_marker_url":"https://uri.amap.com/marker?position=114.178799,36.699323&name=%E5%AE%A0%E7%88%B1e%E6%97%8F%E5%AE%A0%E7%89%A9%E8%AF%8A%E6%89%80%28%E5%96%B5%E6%B1%AA%E9%97%A8%E8%AF%8A%29&src=vetmap&coordinate=gaode&callnative=1"},{"name":"宠利康兽药","address":"北辰小区东1门北80米","phone":"","category":"医疗保健服务;动物医疗场所;动物医疗场所","area":"","lng":114.183775,"lat":36.706025,"amap_id":"B0L2B7LCL9","order":7,"prev_distance_km":0.867,"cumulative_distance_km":29.39,"amap_marker_url":"https://uri.amap.com/marker?position=114.183775,36.706025&name=%E5%AE%A0%E5%88%A9%E5%BA%B7%E5%85%BD%E8%8D%AF&src=vetmap&coordinate=gaode&callnative=1"},{"name":"健诺兽医店","address":"富强街1280号","phone":"","category":"医疗保健服务;动物医疗场所;宠物诊所","area":"","lng":114.188955,"lat":36.703795,"amap_id":"B0L625R819","order":8,"prev_distance_km":0.524,"cumulative_distance_km":29.914,"amap_marker_url":"https://uri.amap.com/marker?position=114.188955,36.703795&name=%E5%81%A5%E8%AF%BA%E5%85%BD%E5%8C%BB%E5%BA%97&src=vetmap&coordinate=gaode&callnative=1"},{"name":"兽医药店","address":"富强街与卫视北路交叉口北140米","phone":"","category":"医疗保健服务;动物医疗场所;宠物诊所|医疗保健服务;医药保健销售店;药房","area":"","lng":114.189033,"lat":36.703858,"amap_id":"B0FFFSY6XC","order":9,"prev_distance_km":0.01,"cumulative_distance_km":29.924,"amap_marker_url":"https://uri.amap.com/marker?position=114.189033,36.703858&name=%E5%85%BD%E5%8C%BB%E8%8D%AF%E5%BA%97&src=vetmap&coordinate=gaode&callnative=1"},{"name":"可欣宠物诊所","address":"塔西路与游览街交叉口东120米","phone":"15233899088","category":"医疗保健服务;动物医疗场所;宠物诊所","area":"","lng":114.194891,"lat":36.697708,"amap_id":"B0H3B52GCJ","order":10,"prev_distance_km":0.86,"cumulative_distance_km":30.785,"amap_marker_url":"https://uri.amap.com/marker?position=114.194891,36.697708&name=%E5%8F%AF%E6%AC%A3%E5%AE%A0%E7%89%A9%E8%AF%8A%E6%89%80&src=vetmap&coordinate=gaode&callnative=1"},{"name":"和慧畜禽服务站","address":"武安镇南大路36号(富康小区对面)","phone":"13131032989;15030068990","category":"医疗保健服务;动物医疗场所;兽医站","area":"","lng":114.19922,"lat":36.68808,"amap_id":"B0FFI89IZ4","order":11,"prev_distance_km":1.138,"cumulative_distance_km":31.923,"amap_marker_url":"https://uri.amap.com/marker?position=114.199220,36.688080&name=%E5%92%8C%E6%85%A7%E7%95%9C%E7%A6%BD%E6%9C%8D%E5%8A%A1%E7%AB%99&src=vetmap&coordinate=gaode&callnative=1"},{"name":"博爱动物门诊","address":"同安街605号(双马南行100米加油站对面路东)","phone":"15226995300","category":"医疗保健服务;动物医疗场所;宠物诊所","area":"","lng":114.212783,"lat":36.690589,"amap_id":"B01360NQRW","order":12,"prev_distance_km":1.241,"cumulative_distance_km":33.164,"amap_marker_url":"https://uri.amap.com/marker?position=114.212783,36.690589&name=%E5%8D%9A%E7%88%B1%E5%8A%A8%E7%89%A9%E9%97%A8%E8%AF%8A&src=vetmap&coordinate=gaode&callnative=1"},{"name":"鸿宇宠物医院","address":"太行大道与裕华街交叉口西北20米","phone":"13483031116","category":"医疗保健服务;动物医疗场所;宠物诊所","area":"","lng":114.220855,"lat":36.706493,"amap_id":"B0JU2OG35R","order":13,"prev_distance_km":1.909,"cumulative_distance_km":35.073,"amap_marker_url":"https://uri.amap.com/marker?position=114.220855,36.706493&name=%E9%B8%BF%E5%AE%87%E5%AE%A0%E7%89%A9%E5%8C%BB%E9%99%A2&src=vetmap&coordinate=gaode&callnative=1"}]}