{"summary":{"id":"d01177","province":"河南省","city":"商丘市","district":"梁园区","count":29,"total_distance_km":44.904,"coordinate_system":"GCJ-02 / Amap","generated_at":"2026-05-07 20:23:22"},"rows":[{"name":"陈医生宠物医疗诊所","address":"周集乡升升欢乐水世界","phone":"13569383349","category":"医疗保健服务;动物医疗场所;宠物诊所","area":"","lng":115.779679,"lat":34.369967,"amap_id":"B0JR6ZONTL","order":1,"prev_distance_km":0.0,"cumulative_distance_km":0.0,"amap_marker_url":"https://uri.amap.com/marker?position=115.779679,34.369967&name=%E9%99%88%E5%8C%BB%E7%94%9F%E5%AE%A0%E7%89%A9%E5%8C%BB%E7%96%97%E8%AF%8A%E6%89%80&src=vetmap&coordinate=gaode&callnative=1"},{"name":"宠爱一生宠物寄养诊疗中心","address":"缤纷滑乐园东侧390米","phone":"","category":"医疗保健服务;动物医疗场所;宠物诊所","area":"","lng":115.779673,"lat":34.369998,"amap_id":"B0JR64DWFF","order":2,"prev_distance_km":0.003,"cumulative_distance_km":0.003,"amap_marker_url":"https://uri.amap.com/marker?position=115.779673,34.369998&name=%E5%AE%A0%E7%88%B1%E4%B8%80%E7%94%9F%E5%AE%A0%E7%89%A9%E5%AF%84%E5%85%BB%E8%AF%8A%E7%96%97%E4%B8%AD%E5%BF%83&src=vetmap&coordinate=gaode&callnative=1"},{"name":"张阁兽医站","address":"睿童幼儿园西79米","phone":"13781555328","category":"医疗保健服务;动物医疗场所;兽医站","area":"","lng":115.764193,"lat":34.410144,"amap_id":"B0FFGWUXCM","order":3,"prev_distance_km":4.685,"cumulative_distance_km":4.688,"amap_marker_url":"https://uri.amap.com/marker?position=115.764193,34.410144&name=%E5%BC%A0%E9%98%81%E5%85%BD%E5%8C%BB%E7%AB%99&src=vetmap&coordinate=gaode&callnative=1"},{"name":"商丘市宠一生动物医院","address":"睢阳示范区平台街道方域路与豫苑路交叉口和福社区向南100米路东","phone":"18736734466","category":"医疗保健服务;动物医疗场所;宠物诊所","area":"","lng":115.69137,"lat":34.384245,"amap_id":"B0LAPCGJ9A","order":4,"prev_distance_km":7.276,"cumulative_distance_km":11.964,"amap_marker_url":"https://uri.amap.com/marker?position=115.691370,34.384245&name=%E5%95%86%E4%B8%98%E5%B8%82%E5%AE%A0%E4%B8%80%E7%94%9F%E5%8A%A8%E7%89%A9%E5%8C%BB%E9%99%A2&src=vetmap&coordinate=gaode&callnative=1"},{"name":"复康宠物医院(豫苑路猫友好医院)","address":"豫苑路与江华路交叉口南20米路东","phone":"19137091326","category":"医疗保健服务;动物医疗场所;宠物诊所","area":"","lng":115.691409,"lat":34.398781,"amap_id":"B0HU4HKGP4","order":5,"prev_distance_km":1.616,"cumulative_distance_km":13.58,"amap_marker_url":"https://uri.amap.com/marker?position=115.691409,34.398781&name=%E5%A4%8D%E5%BA%B7%E5%AE%A0%E7%89%A9%E5%8C%BB%E9%99%A2%28%E8%B1%AB%E8%8B%91%E8%B7%AF%E7%8C%AB%E5%8F%8B%E5%A5%BD%E5%8C%BB%E9%99%A2%29&src=vetmap&coordinate=gaode&callnative=1"},{"name":"乐活宠物医院","address":"珠江东路与睢阳南路交叉口向西50米路南","phone":"0370-5085120","category":"医疗保健服务;动物医疗场所;宠物诊所","area":"","lng":115.677766,"lat":34.399351,"amap_id":"B0K2DCFZXX","order":6,"prev_distance_km":1.253,"cumulative_distance_km":14.834,"amap_marker_url":"https://uri.amap.com/marker?position=115.677766,34.399351&name=%E4%B9%90%E6%B4%BB%E5%AE%A0%E7%89%A9%E5%8C%BB%E9%99%A2&src=vetmap&coordinate=gaode&callnative=1"},{"name":"安心动物医院","address":"南京路与学院路交叉口向南300米路西","phone":"0370-2575120","category":"医疗保健服务;动物医疗场所;宠物诊所","area":"归德路","lng":115.664584,"lat":34.405134,"amap_id":"B0HDRZTTV5","order":7,"prev_distance_km":1.37,"cumulative_distance_km":16.203,"amap_marker_url":"https://uri.amap.com/marker?position=115.664584,34.405134&name=%E5%AE%89%E5%BF%83%E5%8A%A8%E7%89%A9%E5%8C%BB%E9%99%A2&src=vetmap&coordinate=gaode&callnative=1"},{"name":"乔鑫宠物诊所","address":"南京路学院路向南一百米路东","phone":"15937008027","category":"医疗保健服务;动物医疗场所;宠物诊所","area":"南京路","lng":115.665143,"lat":34.406213,"amap_id":"B0LAHS9TF5","order":8,"prev_distance_km":0.13,"cumulative_distance_km":16.334,"amap_marker_url":"https://uri.amap.com/marker?position=115.665143,34.406213&name=%E4%B9%94%E9%91%AB%E5%AE%A0%E7%89%A9%E8%AF%8A%E6%89%80&src=vetmap&coordinate=gaode&callnative=1"},{"name":"小动物诊疗中心(学院路店)","address":"","phone":"","category":"医疗保健服务;动物医疗场所;宠物诊所","area":"南京路","lng":115.6652,"lat":34.406324,"amap_id":"B0K3GR4M3G","order":9,"prev_distance_km":0.013,"cumulative_distance_km":16.347,"amap_marker_url":"https://uri.amap.com/marker?position=115.665200,34.406324&name=%E5%B0%8F%E5%8A%A8%E7%89%A9%E8%AF%8A%E7%96%97%E4%B8%AD%E5%BF%83%28%E5%AD%A6%E9%99%A2%E8%B7%AF%E5%BA%97%29&src=vetmap&coordinate=gaode&callnative=1"},{"name":"爱猫爱狗宠物医院","address":"海之畔·左岸春天东1门南50米","phone":"15514944446","category":"医疗保健服务;动物医疗场所;宠物诊所","area":"睢阳大道","lng":115.680205,"lat":34.414572,"amap_id":"B0FFIYG8SJ","order":10,"prev_distance_km":1.654,"cumulative_distance_km":18.001,"amap_marker_url":"https://uri.amap.com/marker?position=115.680205,34.414572&name=%E7%88%B1%E7%8C%AB%E7%88%B1%E7%8B%97%E5%AE%A0%E7%89%A9%E5%8C%BB%E9%99%A2&src=vetmap&coordinate=gaode&callnative=1"},{"name":"恒爱动物医院·骨外科·犬猫全科·24H综合转诊中心(商丘总院)","address":"梁园区示范区睢阳大道长江路口南200米路东信博华苑小区大门北第二三四间商铺上下二层","phone":"17698910120","category":"医疗保健服务;动物医疗场所;宠物诊所","area":"睢阳大道","lng":115.681212,"lat":34.414288,"amap_id":"B0JKF5Y6H0","order":11,"prev_distance_km":0.098,"cumulative_distance_km":18.099,"amap_marker_url":"https://uri.amap.com/marker?position=115.681212,34.414288&name=%E6%81%92%E7%88%B1%E5%8A%A8%E7%89%A9%E5%8C%BB%E9%99%A2%C2%B7%E9%AA%A8%E5%A4%96%E7%A7%91%C2%B7%E7%8A%AC%E7%8C%AB%E5%85%A8%E7%A7%91%C2%B724H%E7%BB%BC%E5%90%88%E8%BD%AC%E8%AF%8A%E4%B8%AD%E5%BF%83%28%E5%95%86%E4%B8%98%E6%80%BB%E9%99%A2%29&src=vetmap&coordinate=gaode&callnative=1"},{"name":"兽医站","address":"睢阳南路与文化东路交叉口东北60米","phone":"13781568787","category":"医疗保健服务;动物医疗场所;兽医站","area":"睢阳大道","lng":115.681501,"lat":34.42533,"amap_id":"B0FFKDIL13","order":12,"prev_distance_km":1.228,"cumulative_distance_km":19.327,"amap_marker_url":"https://uri.amap.com/marker?position=115.681501,34.425330&name=%E5%85%BD%E5%8C%BB%E7%AB%99&src=vetmap&coordinate=gaode&callnative=1"},{"name":"爱康宠物医院","address":"峰景仕界南门西60米","phone":"0370-3337207;13283701987","category":"医疗保健服务;动物医疗场所;宠物诊所","area":"睢阳大道","lng":115.677542,"lat":34.424822,"amap_id":"B0FFG10ZX5","order":13,"prev_distance_km":0.367,"cumulative_distance_km":19.694,"amap_marker_url":"https://uri.amap.com/marker?position=115.677542,34.424822&name=%E7%88%B1%E5%BA%B7%E5%AE%A0%E7%89%A9%E5%8C%BB%E9%99%A2&src=vetmap&coordinate=gaode&callnative=1"},{"name":"商丘市犬家福宠物医院","address":"八一路与中州路交叉口向东500米路南宠物用品犬粮宠物诊疗剖腹产绝育等各种手术测排卵DR拍片彩超等各种化验检查疫苗接种配种","phone":"13598311538;15236822970","category":"医疗保健服务;动物医疗场所;宠物诊所","area":"","lng":115.676354,"lat":34.429374,"amap_id":"B0FFIKBM6K","order":14,"prev_distance_km":0.518,"cumulative_distance_km":20.212,"amap_marker_url":"https://uri.amap.com/marker?position=115.676354,34.429374&name=%E5%95%86%E4%B8%98%E5%B8%82%E7%8A%AC%E5%AE%B6%E7%A6%8F%E5%AE%A0%E7%89%A9%E5%8C%BB%E9%99%A2&src=vetmap&coordinate=gaode&callnative=1"},{"name":"豫东伴侣宠物门诊","address":"胜利路滨河家园附近","phone":"13303705617","category":"医疗保健服务;动物医疗场所;宠物诊所","area":"","lng":115.67464,"lat":34.444378,"amap_id":"B0FFFTXDTB","order":15,"prev_distance_km":1.676,"cumulative_distance_km":21.888,"amap_marker_url":"https://uri.amap.com/marker?position=115.674640,34.444378&name=%E8%B1%AB%E4%B8%9C%E4%BC%B4%E4%BE%A3%E5%AE%A0%E7%89%A9%E9%97%A8%E8%AF%8A&src=vetmap&coordinate=gaode&callnative=1"},{"name":"环嘉动物疫苗","address":"阳光小区","phone":"13937008510;18537035119","category":"医疗保健服务;动物医疗场所;兽医站","area":"","lng":115.679775,"lat":34.469978,"amap_id":"B0FFHDJD6P","order":16,"prev_distance_km":2.885,"cumulative_distance_km":24.773,"amap_marker_url":"https://uri.amap.com/marker?position=115.679775,34.469978&name=%E7%8E%AF%E5%98%89%E5%8A%A8%E7%89%A9%E7%96%AB%E8%8B%97&src=vetmap&coordinate=gaode&callnative=1"},{"name":"羽安堂动保","address":"中洲世贸16号楼105","phone":"17335791050","category":"医疗保健服务;动物医疗场所;动物医疗场所","area":"","lng":115.672297,"lat":34.463837,"amap_id":"B0M6DR7MW1","order":17,"prev_distance_km":0.968,"cumulative_distance_km":25.741,"amap_marker_url":"https://uri.amap.com/marker?position=115.672297,34.463837&name=%E7%BE%BD%E5%AE%89%E5%A0%82%E5%8A%A8%E4%BF%9D&src=vetmap&coordinate=gaode&callnative=1"},{"name":"兽医犬粮宠物用品(暂停营业)","address":"解放街道办事处退役军人事务站北侧240米","phone":"13353606686","category":"医疗保健服务;动物医疗场所;宠物诊所","area":"","lng":115.669096,"lat":34.45508,"amap_id":"B0FFICJPVE","order":18,"prev_distance_km":1.017,"cumulative_distance_km":26.758,"amap_marker_url":"https://uri.amap.com/marker?position=115.669096,34.455080&name=%E5%85%BD%E5%8C%BB%E7%8A%AC%E7%B2%AE%E5%AE%A0%E7%89%A9%E7%94%A8%E5%93%81%28%E6%9A%82%E5%81%9C%E8%90%A5%E4%B8%9A%29&src=vetmap&coordinate=gaode&callnative=1"},{"name":"青禾宠物诊所","address":"八一路与归德路交叉口向北50米路东68号","phone":"0370-2700120;19139066568","category":"医疗保健服务;动物医疗场所;宠物诊所","area":"归德路","lng":115.660519,"lat":34.430336,"amap_id":"B0FFLI6DPX","order":19,"prev_distance_km":2.862,"cumulative_distance_km":29.619,"amap_marker_url":"https://uri.amap.com/marker?position=115.660519,34.430336&name=%E9%9D%92%E7%A6%BE%E5%AE%A0%E7%89%A9%E8%AF%8A%E6%89%80&src=vetmap&coordinate=gaode&callnative=1"},{"name":"复康宠物医院合欢路分院(合欢路店)","address":"神火大道合欢路交叉口150米路南","phone":"17537052102","category":"医疗保健服务;动物医疗场所;宠物诊所","area":"","lng":115.652686,"lat":34.425751,"amap_id":"B0FFLINN8G","order":20,"prev_distance_km":0.881,"cumulative_distance_km":30.5,"amap_marker_url":"https://uri.amap.com/marker?position=115.652686,34.425751&name=%E5%A4%8D%E5%BA%B7%E5%AE%A0%E7%89%A9%E5%8C%BB%E9%99%A2%E5%90%88%E6%AC%A2%E8%B7%AF%E5%88%86%E9%99%A2%28%E5%90%88%E6%AC%A2%E8%B7%AF%E5%BA%97%29&src=vetmap&coordinate=gaode&callnative=1"},{"name":"宠物门诊","address":"合欢路116号","phone":"","category":"医疗保健服务;动物医疗场所;宠物诊所","area":"","lng":115.650407,"lat":34.425994,"amap_id":"B0LKX5O11C","order":21,"prev_distance_km":0.211,"cumulative_distance_km":30.711,"amap_marker_url":"https://uri.amap.com/marker?position=115.650407,34.425994&name=%E5%AE%A0%E7%89%A9%E9%97%A8%E8%AF%8A&src=vetmap&coordinate=gaode&callnative=1"},{"name":"金锦宠物会馆(宠物医院)","address":"合欢路","phone":"18237058855","category":"医疗保健服务;动物医疗场所;宠物诊所","area":"","lng":115.650356,"lat":34.426027,"amap_id":"B0FFFFZ1E0","order":22,"prev_distance_km":0.006,"cumulative_distance_km":30.717,"amap_marker_url":"https://uri.amap.com/marker?position=115.650356,34.426027&name=%E9%87%91%E9%94%A6%E5%AE%A0%E7%89%A9%E4%BC%9A%E9%A6%86%28%E5%AE%A0%E7%89%A9%E5%8C%BB%E9%99%A2%29&src=vetmap&coordinate=gaode&callnative=1"},{"name":"晶冠宠物会所","address":"路苑东区北门西170米","phone":"","category":"医疗保健服务;动物医疗场所;宠物诊所","area":"团结路商业街","lng":115.645175,"lat":34.435583,"amap_id":"B0K0U42SWU","order":23,"prev_distance_km":1.164,"cumulative_distance_km":31.881,"amap_marker_url":"https://uri.amap.com/marker?position=115.645175,34.435583&name=%E6%99%B6%E5%86%A0%E5%AE%A0%E7%89%A9%E4%BC%9A%E6%89%80&src=vetmap&coordinate=gaode&callnative=1"},{"name":"动物检疫和疫病预防控制中心","address":"民主中路与纱厂一街交叉口北240米","phone":"","category":"医疗保健服务;动物医疗场所;动物医疗场所","area":"","lng":115.639213,"lat":34.443764,"amap_id":"B0LAA7PAO0","order":24,"prev_distance_km":1.061,"cumulative_distance_km":32.942,"amap_marker_url":"https://uri.amap.com/marker?position=115.639213,34.443764&name=%E5%8A%A8%E7%89%A9%E6%A3%80%E7%96%AB%E5%92%8C%E7%96%AB%E7%97%85%E9%A2%84%E9%98%B2%E6%8E%A7%E5%88%B6%E4%B8%AD%E5%BF%83&src=vetmap&coordinate=gaode&callnative=1"},{"name":"段医生宠物医院","address":"家和新苑北门西100米","phone":"13937055161","category":"医疗保健服务;动物医疗场所;宠物诊所","area":"","lng":115.636178,"lat":34.441281,"amap_id":"B0FFKK71GC","order":25,"prev_distance_km":0.392,"cumulative_distance_km":33.335,"amap_marker_url":"https://uri.amap.com/marker?position=115.636178,34.441281&name=%E6%AE%B5%E5%8C%BB%E7%94%9F%E5%AE%A0%E7%89%A9%E5%8C%BB%E9%99%A2&src=vetmap&coordinate=gaode&callnative=1"},{"name":"达康宠物门诊(民主路)","address":"平原中路与民主中路交叉口东200米","phone":"13462935233","category":"医疗保健服务;动物医疗场所;宠物诊所","area":"","lng":115.627497,"lat":34.440578,"amap_id":"B0FFFFYYG6","order":26,"prev_distance_km":0.8,"cumulative_distance_km":34.134,"amap_marker_url":"https://uri.amap.com/marker?position=115.627497,34.440578&name=%E8%BE%BE%E5%BA%B7%E5%AE%A0%E7%89%A9%E9%97%A8%E8%AF%8A%28%E6%B0%91%E4%B8%BB%E8%B7%AF%29&src=vetmap&coordinate=gaode&callnative=1"},{"name":"优宠动物诊所","address":"平原路与锦绣路交叉口南10米路西","phone":"17596232098","category":"医疗保健服务;动物医疗场所;宠物诊所","area":"","lng":115.62423,"lat":34.442628,"amap_id":"B0HKU5WQ3P","order":27,"prev_distance_km":0.376,"cumulative_distance_km":34.511,"amap_marker_url":"https://uri.amap.com/marker?position=115.624230,34.442628&name=%E4%BC%98%E5%AE%A0%E5%8A%A8%E7%89%A9%E8%AF%8A%E6%89%80&src=vetmap&coordinate=gaode&callnative=1"},{"name":"商丘市梁园区豆豆宠物诊所","address":"民主路张庄新村临街门面166号","phone":"13526320011","category":"医疗保健服务;动物医疗场所;宠物诊所","area":"","lng":115.617417,"lat":34.44075,"amap_id":"B0I25LIKQS","order":28,"prev_distance_km":0.659,"cumulative_distance_km":35.17,"amap_marker_url":"https://uri.amap.com/marker?position=115.617417,34.440750&name=%E5%95%86%E4%B8%98%E5%B8%82%E6%A2%81%E5%9B%AD%E5%8C%BA%E8%B1%86%E8%B1%86%E5%AE%A0%E7%89%A9%E8%AF%8A%E6%89%80&src=vetmap&coordinate=gaode&callnative=1"},{"name":"水池铺乡畜牧兽医站","address":"水池铺乡政府西南梁园区","phone":"13937042869","category":"医疗保健服务;动物医疗场所;兽医站","area":"","lng":115.5199,"lat":34.406203,"amap_id":"B0FFIZWH58","order":29,"prev_distance_km":9.735,"cumulative_distance_km":44.904,"amap_marker_url":"https://uri.amap.com/marker?position=115.519900,34.406203&name=%E6%B0%B4%E6%B1%A0%E9%93%BA%E4%B9%A1%E7%95%9C%E7%89%A7%E5%85%BD%E5%8C%BB%E7%AB%99&src=vetmap&coordinate=gaode&callnative=1"}]}