{"summary":{"id":"d01145","province":"河南省","city":"信阳市","district":"息县","count":8,"total_distance_km":4.426,"coordinate_system":"GCJ-02 / Amap","generated_at":"2026-05-07 19:57:33"},"rows":[{"name":"医直宠宠物医院(息县店)","address":"龙湖街道东大街龙湖家合苑4号楼","phone":"16691516120","category":"医疗保健服务;动物医疗场所;宠物诊所","area":"","lng":114.752423,"lat":32.337846,"amap_id":"B0M6MRWT1H","order":1,"prev_distance_km":0.0,"cumulative_distance_km":0.0,"amap_marker_url":"https://uri.amap.com/marker?position=114.752423,32.337846&name=%E5%8C%BB%E7%9B%B4%E5%AE%A0%E5%AE%A0%E7%89%A9%E5%8C%BB%E9%99%A2%28%E6%81%AF%E5%8E%BF%E5%BA%97%29&src=vetmap&coordinate=gaode&callnative=1"},{"name":"宠未来动物医院·犬猫内科·骨科","address":"息夫人大道与谯楼街交叉口北100米路西(圣安医院正对面)","phone":"19638738855","category":"医疗保健服务;动物医疗场所;宠物诊所","area":"","lng":114.749808,"lat":32.343557,"amap_id":"B0KURS1QYH","order":2,"prev_distance_km":0.681,"cumulative_distance_km":0.681,"amap_marker_url":"https://uri.amap.com/marker?position=114.749808,32.343557&name=%E5%AE%A0%E6%9C%AA%E6%9D%A5%E5%8A%A8%E7%89%A9%E5%8C%BB%E9%99%A2%C2%B7%E7%8A%AC%E7%8C%AB%E5%86%85%E7%A7%91%C2%B7%E9%AA%A8%E7%A7%91&src=vetmap&coordinate=gaode&callnative=1"},{"name":"希望宠物诊所","address":"千佛庵东路老公疗医院对面45-4749号","phone":"18903971919","category":"医疗保健服务;动物医疗场所;宠物诊所","area":"","lng":114.751801,"lat":32.350043,"amap_id":"B0H1TSH2G0","order":3,"prev_distance_km":0.745,"cumulative_distance_km":1.426,"amap_marker_url":"https://uri.amap.com/marker?position=114.751801,32.350043&name=%E5%B8%8C%E6%9C%9B%E5%AE%A0%E7%89%A9%E8%AF%8A%E6%89%80&src=vetmap&coordinate=gaode&callnative=1"},{"name":"息县邓枭畜禽保健中心","address":"金盛路与息夫人大道交叉口东220米","phone":"","category":"医疗保健服务;动物医疗场所;动物医疗场所","area":"","lng":114.752258,"lat":32.355359,"amap_id":"B0FFLNJ6GN","order":4,"prev_distance_km":0.593,"cumulative_distance_km":2.019,"amap_marker_url":"https://uri.amap.com/marker?position=114.752258,32.355359&name=%E6%81%AF%E5%8E%BF%E9%82%93%E6%9E%AD%E7%95%9C%E7%A6%BD%E4%BF%9D%E5%81%A5%E4%B8%AD%E5%BF%83&src=vetmap&coordinate=gaode&callnative=1"},{"name":"爱宠动物医院(息县众鑫广场店)","address":"淮河街道双赢小区(众鑫二期北门对面)","phone":"18537662180","category":"医疗保健服务;动物医疗场所;宠物诊所","area":"淮河","lng":114.743787,"lat":32.358711,"amap_id":"B0JKMUH8HK","order":5,"prev_distance_km":0.879,"cumulative_distance_km":2.897,"amap_marker_url":"https://uri.amap.com/marker?position=114.743787,32.358711&name=%E7%88%B1%E5%AE%A0%E5%8A%A8%E7%89%A9%E5%8C%BB%E9%99%A2%28%E6%81%AF%E5%8E%BF%E4%BC%97%E9%91%AB%E5%B9%BF%E5%9C%BA%E5%BA%97%29&src=vetmap&coordinate=gaode&callnative=1"},{"name":"刘河宠物诊所","address":"息州大道与文化路中段交叉口东80米","phone":"13607613845;13939794802","category":"医疗保健服务;动物医疗场所;宠物诊所","area":"","lng":114.735911,"lat":32.352702,"amap_id":"B0FFHNQMIV","order":6,"prev_distance_km":0.997,"cumulative_distance_km":3.894,"amap_marker_url":"https://uri.amap.com/marker?position=114.735911,32.352702&name=%E5%88%98%E6%B2%B3%E5%AE%A0%E7%89%A9%E8%AF%8A%E6%89%80&src=vetmap&coordinate=gaode&callnative=1"},{"name":"城郊兽医站","address":"息州大道与小八栋巷交叉口西南100米","phone":"","category":"医疗保健服务;动物医疗场所;兽医站","area":"","lng":114.736525,"lat":32.352225,"amap_id":"B0KR61WZBQ","order":7,"prev_distance_km":0.078,"cumulative_distance_km":3.973,"amap_marker_url":"https://uri.amap.com/marker?position=114.736525,32.352225&name=%E5%9F%8E%E9%83%8A%E5%85%BD%E5%8C%BB%E7%AB%99&src=vetmap&coordinate=gaode&callnative=1"},{"name":"大伟宠物医院","address":"城关镇北街千佛庵中路","phone":"0376-5956733;13839776633","category":"医疗保健服务;动物医疗场所;宠物诊所","area":"","lng":114.740668,"lat":32.35014,"amap_id":"B0FFFWON7D","order":8,"prev_distance_km":0.453,"cumulative_distance_km":4.426,"amap_marker_url":"https://uri.amap.com/marker?position=114.740668,32.350140&name=%E5%A4%A7%E4%BC%9F%E5%AE%A0%E7%89%A9%E5%8C%BB%E9%99%A2&src=vetmap&coordinate=gaode&callnative=1"}]}