{"summary":{"id":"d01287","province":"河南省","city":"鹤壁市","district":"浚县","count":7,"total_distance_km":52.512,"coordinate_system":"GCJ-02 / Amap","generated_at":"2026-05-07 19:57:46"},"rows":[{"name":"录仁堂动物医院","address":"阳光花园","phone":"13783033603;17634266853","category":"医疗保健服务;动物医疗场所;动物医疗场所","area":"","lng":114.688462,"lat":35.756521,"amap_id":"B0FFFZTJUU","order":1,"prev_distance_km":0.0,"cumulative_distance_km":0.0,"amap_marker_url":"https://uri.amap.com/marker?position=114.688462,35.756521&name=%E5%BD%95%E4%BB%81%E5%A0%82%E5%8A%A8%E7%89%A9%E5%8C%BB%E9%99%A2&src=vetmap&coordinate=gaode&callnative=1"},{"name":"爱康宠物诊所(金城路店)","address":"第二高中红绿灯西路南","phone":"15839213890","category":"医疗保健服务;动物医疗场所;宠物诊所","area":"黎阳","lng":114.555712,"lat":35.68462,"amap_id":"B0FFKLRUH0","order":2,"prev_distance_km":14.406,"cumulative_distance_km":14.406,"amap_marker_url":"https://uri.amap.com/marker?position=114.555712,35.684620&name=%E7%88%B1%E5%BA%B7%E5%AE%A0%E7%89%A9%E8%AF%8A%E6%89%80%28%E9%87%91%E5%9F%8E%E8%B7%AF%E5%BA%97%29&src=vetmap&coordinate=gaode&callnative=1"},{"name":"爱谛宠物医院(新华路店)","address":"新华路与建设路交叉口西南角","phone":"13461950625","category":"医疗保健服务;动物医疗场所;宠物诊所","area":"新华路","lng":114.54824,"lat":35.680093,"amap_id":"B0H1R5AVE5","order":3,"prev_distance_km":0.842,"cumulative_distance_km":15.248,"amap_marker_url":"https://uri.amap.com/marker?position=114.548240,35.680093&name=%E7%88%B1%E8%B0%9B%E5%AE%A0%E7%89%A9%E5%8C%BB%E9%99%A2%28%E6%96%B0%E5%8D%8E%E8%B7%AF%E5%BA%97%29&src=vetmap&coordinate=gaode&callnative=1"},{"name":"宠优动物诊所","address":"卫溪街道黎阳路113号","phone":"13569653293","category":"医疗保健服务;动物医疗场所;宠物诊所","area":"","lng":114.535268,"lat":35.67614,"amap_id":"B0FFF4APN2","order":4,"prev_distance_km":1.251,"cumulative_distance_km":16.5,"amap_marker_url":"https://uri.amap.com/marker?position=114.535268,35.676140&name=%E5%AE%A0%E4%BC%98%E5%8A%A8%E7%89%A9%E8%AF%8A%E6%89%80&src=vetmap&coordinate=gaode&callnative=1"},{"name":"卫贤镇动物防疫检疫中心站","address":"卫贤村卫生所第一卫生室南侧","phone":"","category":"医疗保健服务;动物医疗场所;动物医疗场所","area":"","lng":114.296796,"lat":35.605866,"amap_id":"B0G0LHG1P0","order":5,"prev_distance_km":22.923,"cumulative_distance_km":39.422,"amap_marker_url":"https://uri.amap.com/marker?position=114.296796,35.605866&name=%E5%8D%AB%E8%B4%A4%E9%95%87%E5%8A%A8%E7%89%A9%E9%98%B2%E7%96%AB%E6%A3%80%E7%96%AB%E4%B8%AD%E5%BF%83%E7%AB%99&src=vetmap&coordinate=gaode&callnative=1"},{"name":"宠爱有家宠物店","address":"012乡道","phone":"17639267512","category":"医疗保健服务;动物医疗场所;宠物诊所","area":"","lng":114.360317,"lat":35.507671,"amap_id":"B0K667VIXN","order":6,"prev_distance_km":12.339,"cumulative_distance_km":51.761,"amap_marker_url":"https://uri.amap.com/marker?position=114.360317,35.507671&name=%E5%AE%A0%E7%88%B1%E6%9C%89%E5%AE%B6%E5%AE%A0%E7%89%A9%E5%BA%97&src=vetmap&coordinate=gaode&callnative=1"},{"name":"浚县朋程动物服务门诊","address":"新镇镇新镇村宏基商贸城F18楼16号17号","phone":"18203929277","category":"医疗保健服务;动物医疗场所;宠物诊所","area":"","lng":114.367035,"lat":35.503707,"amap_id":"B0L1AZIY79","order":7,"prev_distance_km":0.751,"cumulative_distance_km":52.512,"amap_marker_url":"https://uri.amap.com/marker?position=114.367035,35.503707&name=%E6%B5%9A%E5%8E%BF%E6%9C%8B%E7%A8%8B%E5%8A%A8%E7%89%A9%E6%9C%8D%E5%8A%A1%E9%97%A8%E8%AF%8A&src=vetmap&coordinate=gaode&callnative=1"}]}