{"summary":{"id":"d01222","province":"河南省","city":"洛阳市","district":"伊川县","count":21,"total_distance_km":46.112,"coordinate_system":"GCJ-02 / Amap","generated_at":"2026-05-07 20:23:26"},"rows":[{"name":"鸣皋镇动物医院","address":"伊卢线与幸福路交叉口东北240米","phone":"13683843845","category":"医疗保健服务;动物医疗场所;宠物诊所","area":"","lng":112.293689,"lat":34.318755,"amap_id":"B0I2XR7XKJ","order":1,"prev_distance_km":0.0,"cumulative_distance_km":0.0,"amap_marker_url":"https://uri.amap.com/marker?position=112.293689,34.318755&name=%E9%B8%A3%E7%9A%8B%E9%95%87%E5%8A%A8%E7%89%A9%E5%8C%BB%E9%99%A2&src=vetmap&coordinate=gaode&callnative=1"},{"name":"老相兽医门诊(伊川店)","address":"宜老线与洛栾线交叉口西300米","phone":"0379-68570380;13525986325","category":"医疗保健服务;动物医疗场所;兽医站","area":"","lng":112.304794,"lat":34.311238,"amap_id":"B0IAV7L454","order":2,"prev_distance_km":1.319,"cumulative_distance_km":1.319,"amap_marker_url":"https://uri.amap.com/marker?position=112.304794,34.311238&name=%E8%80%81%E7%9B%B8%E5%85%BD%E5%8C%BB%E9%97%A8%E8%AF%8A%28%E4%BC%8A%E5%B7%9D%E5%BA%97%29&src=vetmap&coordinate=gaode&callnative=1"},{"name":"动物医院","address":"平等乡平等村大莘路286号","phone":"","category":"医疗保健服务;动物医疗场所;宠物诊所","area":"","lng":112.369134,"lat":34.375709,"amap_id":"B0L11SKGKY","order":3,"prev_distance_km":9.289,"cumulative_distance_km":10.608,"amap_marker_url":"https://uri.amap.com/marker?position=112.369134,34.375709&name=%E5%8A%A8%E7%89%A9%E5%8C%BB%E9%99%A2&src=vetmap&coordinate=gaode&callnative=1"},{"name":"伊川县城关镇野狐岭兽医站","address":"野狐岭社区居委会东北侧180米","phone":"13103792385","category":"医疗保健服务;动物医疗场所;兽医站","area":"","lng":112.412567,"lat":34.411255,"amap_id":"B0G0FS9H3Z","order":4,"prev_distance_km":5.613,"cumulative_distance_km":16.221,"amap_marker_url":"https://uri.amap.com/marker?position=112.412567,34.411255&name=%E4%BC%8A%E5%B7%9D%E5%8E%BF%E5%9F%8E%E5%85%B3%E9%95%87%E9%87%8E%E7%8B%90%E5%B2%AD%E5%85%BD%E5%8C%BB%E7%AB%99&src=vetmap&coordinate=gaode&callnative=1"},{"name":"康乐宠物医院(人民西路店)","address":"人民西路与八一路交叉口往西50米","phone":"0379-69555120","category":"医疗保健服务;动物医疗场所;宠物诊所","area":"","lng":112.416131,"lat":34.423242,"amap_id":"B0FFG9INTS","order":5,"prev_distance_km":1.372,"cumulative_distance_km":17.593,"amap_marker_url":"https://uri.amap.com/marker?position=112.416131,34.423242&name=%E5%BA%B7%E4%B9%90%E5%AE%A0%E7%89%A9%E5%8C%BB%E9%99%A2%28%E4%BA%BA%E6%B0%91%E8%A5%BF%E8%B7%AF%E5%BA%97%29&src=vetmap&coordinate=gaode&callnative=1"},{"name":"贝诺宠物医院·骨外科·犬猫专科·急重症转诊中心","address":"城关街道新城大道与八一路交叉口向南500米路东194号","phone":"15290501507","category":"医疗保健服务;动物医疗场所;宠物诊所","area":"","lng":112.420275,"lat":34.429375,"amap_id":"B0LDPSVL4S","order":6,"prev_distance_km":0.781,"cumulative_distance_km":18.374,"amap_marker_url":"https://uri.amap.com/marker?position=112.420275,34.429375&name=%E8%B4%9D%E8%AF%BA%E5%AE%A0%E7%89%A9%E5%8C%BB%E9%99%A2%C2%B7%E9%AA%A8%E5%A4%96%E7%A7%91%C2%B7%E7%8A%AC%E7%8C%AB%E4%B8%93%E7%A7%91%C2%B7%E6%80%A5%E9%87%8D%E7%97%87%E8%BD%AC%E8%AF%8A%E4%B8%AD%E5%BF%83&src=vetmap&coordinate=gaode&callnative=1"},{"name":"爱宠宠物诊所","address":"杜康大道293号","phone":"18338806363","category":"医疗保健服务;动物医疗场所;宠物诊所","area":"","lng":112.433672,"lat":34.421758,"amap_id":"B0GKO77WVD","order":7,"prev_distance_km":1.492,"cumulative_distance_km":19.866,"amap_marker_url":"https://uri.amap.com/marker?position=112.433672,34.421758&name=%E7%88%B1%E5%AE%A0%E5%AE%A0%E7%89%A9%E8%AF%8A%E6%89%80&src=vetmap&coordinate=gaode&callnative=1"},{"name":"康乐宠物医院(人民路店)","address":"国富公寓东北门旁","phone":"","category":"医疗保健服务;动物医疗场所;宠物诊所","area":"","lng":112.432921,"lat":34.418335,"amap_id":"B0JAHRH63D","order":8,"prev_distance_km":0.387,"cumulative_distance_km":20.253,"amap_marker_url":"https://uri.amap.com/marker?position=112.432921,34.418335&name=%E5%BA%B7%E4%B9%90%E5%AE%A0%E7%89%A9%E5%8C%BB%E9%99%A2%28%E4%BA%BA%E6%B0%91%E8%B7%AF%E5%BA%97%29&src=vetmap&coordinate=gaode&callnative=1"},{"name":"汪旺喵宠物医院","address":"城关镇南府店小学向西一百米太阳花园对面","phone":"13203883605","category":"医疗保健服务;动物医疗场所;宠物诊所","area":"","lng":112.433048,"lat":34.413733,"amap_id":"B0LUS185AF","order":9,"prev_distance_km":0.512,"cumulative_distance_km":20.765,"amap_marker_url":"https://uri.amap.com/marker?position=112.433048,34.413733&name=%E6%B1%AA%E6%97%BA%E5%96%B5%E5%AE%A0%E7%89%A9%E5%8C%BB%E9%99%A2&src=vetmap&coordinate=gaode&callnative=1"},{"name":"胡刚宠物诊所","address":"太阳花园临街商铺先锋南街151-12号","phone":"13203883605","category":"医疗保健服务;动物医疗场所;宠物诊所","area":"","lng":112.433115,"lat":34.413668,"amap_id":"B0I2XU1VGC","order":10,"prev_distance_km":0.009,"cumulative_distance_km":20.774,"amap_marker_url":"https://uri.amap.com/marker?position=112.433115,34.413668&name=%E8%83%A1%E5%88%9A%E5%AE%A0%E7%89%A9%E8%AF%8A%E6%89%80&src=vetmap&coordinate=gaode&callnative=1"},{"name":"伊川县畜牧站","address":"人民东路97号","phone":"","category":"医疗保健服务;动物医疗场所;兽医站","area":"","lng":112.434497,"lat":34.418075,"amap_id":"B017B0POQW","order":11,"prev_distance_km":0.506,"cumulative_distance_km":21.28,"amap_marker_url":"https://uri.amap.com/marker?position=112.434497,34.418075&name=%E4%BC%8A%E5%B7%9D%E5%8E%BF%E7%95%9C%E7%89%A7%E7%AB%99&src=vetmap&coordinate=gaode&callnative=1"},{"name":"宠你一生宠物医疗诊所","address":"城关镇先锋北街12排15号","phone":"15036577779","category":"医疗保健服务;动物医疗场所;宠物诊所","area":"","lng":112.437269,"lat":34.420046,"amap_id":"B0KR3Z3846","order":12,"prev_distance_km":0.336,"cumulative_distance_km":21.616,"amap_marker_url":"https://uri.amap.com/marker?position=112.437269,34.420046&name=%E5%AE%A0%E4%BD%A0%E4%B8%80%E7%94%9F%E5%AE%A0%E7%89%A9%E5%8C%BB%E7%96%97%E8%AF%8A%E6%89%80&src=vetmap&coordinate=gaode&callnative=1"},{"name":"城关镇动物防疫服务站","address":"杜康大道与文博大道交叉口西200米","phone":"15038618367","category":"医疗保健服务;动物医疗场所;动物医疗场所","area":"","lng":112.439402,"lat":34.437175,"amap_id":"B017B02XWT","order":13,"prev_distance_km":1.915,"cumulative_distance_km":23.531,"amap_marker_url":"https://uri.amap.com/marker?position=112.439402,34.437175&name=%E5%9F%8E%E5%85%B3%E9%95%87%E5%8A%A8%E7%89%A9%E9%98%B2%E7%96%AB%E6%9C%8D%E5%8A%A1%E7%AB%99&src=vetmap&coordinate=gaode&callnative=1"},{"name":"动物诊所","address":"文博大道与杜康大道交叉口西北180米","phone":"","category":"医疗保健服务;动物医疗场所;宠物诊所","area":"","lng":112.439794,"lat":34.43733,"amap_id":"B0KDULHD9X","order":14,"prev_distance_km":0.04,"cumulative_distance_km":23.571,"amap_marker_url":"https://uri.amap.com/marker?position=112.439794,34.437330&name=%E5%8A%A8%E7%89%A9%E8%AF%8A%E6%89%80&src=vetmap&coordinate=gaode&callnative=1"},{"name":"伊川县古德宠物医院","address":"仁大路与伊尹路交叉口南50米路西621号","phone":"15138713332","category":"医疗保健服务;动物医疗场所;宠物诊所","area":"","lng":112.44835,"lat":34.437217,"amap_id":"B0L0LM92U5","order":15,"prev_distance_km":0.785,"cumulative_distance_km":24.355,"amap_marker_url":"https://uri.amap.com/marker?position=112.448350,34.437217&name=%E4%BC%8A%E5%B7%9D%E5%8E%BF%E5%8F%A4%E5%BE%B7%E5%AE%A0%E7%89%A9%E5%8C%BB%E9%99%A2&src=vetmap&coordinate=gaode&callnative=1"},{"name":"萨农动物营养月宁养殖服务中心","address":"龙腾大道与文博大道交叉口东南320米","phone":"","category":"医疗保健服务;动物医疗场所;动物医疗场所","area":"","lng":112.470576,"lat":34.427842,"amap_id":"B0L3X92T0E","order":16,"prev_distance_km":2.29,"cumulative_distance_km":26.645,"amap_marker_url":"https://uri.amap.com/marker?position=112.470576,34.427842&name=%E8%90%A8%E5%86%9C%E5%8A%A8%E7%89%A9%E8%90%A5%E5%85%BB%E6%9C%88%E5%AE%81%E5%85%BB%E6%AE%96%E6%9C%8D%E5%8A%A1%E4%B8%AD%E5%BF%83&src=vetmap&coordinate=gaode&callnative=1"},{"name":"康发兽药服务部","address":"水寨镇姬磨小学东50米","phone":"13353907779","category":"医疗保健服务;动物医疗场所;兽医站","area":"","lng":112.467929,"lat":34.421191,"amap_id":"B0FFG4EUNR","order":17,"prev_distance_km":0.778,"cumulative_distance_km":27.423,"amap_marker_url":"https://uri.amap.com/marker?position=112.467929,34.421191&name=%E5%BA%B7%E5%8F%91%E5%85%BD%E8%8D%AF%E6%9C%8D%E5%8A%A1%E9%83%A8&src=vetmap&coordinate=gaode&callnative=1"},{"name":"洛阳市伊川县段老师动物服务部","address":"水寨镇乐志沟村胡集","phone":"13623891836","category":"医疗保健服务;动物医疗场所;动物医疗场所","area":"","lng":112.490762,"lat":34.407895,"amap_id":"B0KU6AVEL0","order":18,"prev_distance_km":2.564,"cumulative_distance_km":29.987,"amap_marker_url":"https://uri.amap.com/marker?position=112.490762,34.407895&name=%E6%B4%9B%E9%98%B3%E5%B8%82%E4%BC%8A%E5%B7%9D%E5%8E%BF%E6%AE%B5%E8%80%81%E5%B8%88%E5%8A%A8%E7%89%A9%E6%9C%8D%E5%8A%A1%E9%83%A8&src=vetmap&coordinate=gaode&callnative=1"},{"name":"白沙乡动物防疫服务站","address":"洛界路与人民路交叉口东南100米","phone":"","category":"医疗保健服务;动物医疗场所;动物医疗场所","area":"","lng":112.528676,"lat":34.379206,"amap_id":"B0G0276213","order":19,"prev_distance_km":4.72,"cumulative_distance_km":34.707,"amap_marker_url":"https://uri.amap.com/marker?position=112.528676,34.379206&name=%E7%99%BD%E6%B2%99%E4%B9%A1%E5%8A%A8%E7%89%A9%E9%98%B2%E7%96%AB%E6%9C%8D%E5%8A%A1%E7%AB%99&src=vetmap&coordinate=gaode&callnative=1"},{"name":"动物门诊","address":"洛界路与兴隆街交叉口东南300米","phone":"","category":"医疗保健服务;动物医疗场所;宠物诊所","area":"","lng":112.528877,"lat":34.379017,"amap_id":"B0LK54RSYM","order":20,"prev_distance_km":0.028,"cumulative_distance_km":34.735,"amap_marker_url":"https://uri.amap.com/marker?position=112.528877,34.379017&name=%E5%8A%A8%E7%89%A9%E9%97%A8%E8%AF%8A&src=vetmap&coordinate=gaode&callnative=1"},{"name":"兽药动物医院","address":"中国石化吕店加油站东侧60米","phone":"","category":"医疗保健服务;动物医疗场所;动物医疗场所","area":"","lng":112.633621,"lat":34.433798,"amap_id":"B0K35U70RX","order":21,"prev_distance_km":11.377,"cumulative_distance_km":46.112,"amap_marker_url":"https://uri.amap.com/marker?position=112.633621,34.433798&name=%E5%85%BD%E8%8D%AF%E5%8A%A8%E7%89%A9%E5%8C%BB%E9%99%A2&src=vetmap&coordinate=gaode&callnative=1"}]}