{"summary":{"id":"d01200","province":"河南省","city":"平顶山市","district":"鲁山县","count":16,"route_count":1,"max_route_clinics":16,"total_distance_km":85.639,"coordinate_system":"GCJ-02 / Amap","generated_at":"2026-05-08 19:46:51"},"routes":[{"id":"r1","name":"第1段","count":16,"total_distance_km":85.639,"rows":[{"name":"下汤镇兽医站","address":"G311(徐峡线)","phone":"13569591583","category":"医疗保健服务;动物医疗场所;兽医站","area":"","lng":112.683542,"lat":33.72051,"amap_id":"B0FFHUIV5I","order":1,"prev_distance_km":0.0,"cumulative_distance_km":0.0,"amap_marker_url":"https://uri.amap.com/marker?position=112.683542,33.720510&name=%E4%B8%8B%E6%B1%A4%E9%95%87%E5%85%BD%E5%8C%BB%E7%AB%99&src=vetmap&coordinate=gaode&callnative=1","route_id":"r1","route_name":"第1段"},{"name":"瓦屋兽医服务站","address":"中心路与大桥路交叉口东20米","phone":"","category":"医疗保健服务;动物医疗场所;兽医站","area":"","lng":112.669011,"lat":33.887564,"amap_id":"B0I2XC19OT","order":2,"prev_distance_km":18.624,"cumulative_distance_km":18.624,"amap_marker_url":"https://uri.amap.com/marker?position=112.669011,33.887564&name=%E7%93%A6%E5%B1%8B%E5%85%BD%E5%8C%BB%E6%9C%8D%E5%8A%A1%E7%AB%99&src=vetmap&coordinate=gaode&callnative=1","route_id":"r1","route_name":"第1段"},{"name":"动物疫苗","address":"仓颉路与寨北路交叉口东20米","phone":"","category":"医疗保健服务;动物医疗场所;动物医疗场所","area":"","lng":112.800425,"lat":33.870625,"amap_id":"B0M6H7CBNV","order":3,"prev_distance_km":12.277,"cumulative_distance_km":30.901,"amap_marker_url":"https://uri.amap.com/marker?position=112.800425,33.870625&name=%E5%8A%A8%E7%89%A9%E7%96%AB%E8%8B%97&src=vetmap&coordinate=gaode&callnative=1","route_id":"r1","route_name":"第1段"},{"name":"梁洼镇兽医站","address":"梁洼镇","phone":"0375-5958262;15893477799","category":"医疗保健服务;动物医疗场所;兽医站","area":"","lng":112.927994,"lat":33.845581,"amap_id":"B0FFFRKQ2G","order":4,"prev_distance_km":12.104,"cumulative_distance_km":43.005,"amap_marker_url":"https://uri.amap.com/marker?position=112.927994,33.845581&name=%E6%A2%81%E6%B4%BC%E9%95%87%E5%85%BD%E5%8C%BB%E7%AB%99&src=vetmap&coordinate=gaode&callnative=1","route_id":"r1","route_name":"第1段"},{"name":"鲁尧牧业畜牧服务站","address":"刘营社区东侧50米","phone":"","category":"医疗保健服务;动物医疗场所;兽医站","area":"","lng":112.902319,"lat":33.756284,"amap_id":"B0K6AUPCMO","order":5,"prev_distance_km":10.209,"cumulative_distance_km":53.214,"amap_marker_url":"https://uri.amap.com/marker?position=112.902319,33.756284&name=%E9%B2%81%E5%B0%A7%E7%89%A7%E4%B8%9A%E7%95%9C%E7%89%A7%E6%9C%8D%E5%8A%A1%E7%AB%99&src=vetmap&coordinate=gaode&callnative=1","route_id":"r1","route_name":"第1段"},{"name":"宠爱(人民路店)","address":"人民路与钢厂路交叉口西南60米","phone":"","category":"医疗保健服务;动物医疗场所;动物医疗场所","area":"","lng":112.896283,"lat":33.743773,"amap_id":"B0LRLNMRTJ","order":6,"prev_distance_km":1.499,"cumulative_distance_km":54.713,"amap_marker_url":"https://uri.amap.com/marker?position=112.896283,33.743773&name=%E5%AE%A0%E7%88%B1%28%E4%BA%BA%E6%B0%91%E8%B7%AF%E5%BA%97%29&src=vetmap&coordinate=gaode&callnative=1","route_id":"r1","route_name":"第1段"},{"name":"高升宠物门诊","address":"昊盛源·现代城北区东南门西60米","phone":"13782456258","category":"医疗保健服务;动物医疗场所;宠物诊所","area":"","lng":112.916518,"lat":33.732113,"amap_id":"B0FFH8J20T","order":7,"prev_distance_km":2.276,"cumulative_distance_km":56.989,"amap_marker_url":"https://uri.amap.com/marker?position=112.916518,33.732113&name=%E9%AB%98%E5%8D%87%E5%AE%A0%E7%89%A9%E9%97%A8%E8%AF%8A&src=vetmap&coordinate=gaode&callnative=1","route_id":"r1","route_name":"第1段"},{"name":"霍德宠物中心医院","address":"花园路48号","phone":"17537526188","category":"医疗保健服务;动物医疗场所;宠物诊所","area":"露峰","lng":112.918632,"lat":33.741886,"amap_id":"B0L67SMQHN","order":8,"prev_distance_km":1.104,"cumulative_distance_km":58.094,"amap_marker_url":"https://uri.amap.com/marker?position=112.918632,33.741886&name=%E9%9C%8D%E5%BE%B7%E5%AE%A0%E7%89%A9%E4%B8%AD%E5%BF%83%E5%8C%BB%E9%99%A2&src=vetmap&coordinate=gaode&callnative=1","route_id":"r1","route_name":"第1段"},{"name":"惠牧兽药店","address":"人民路东段利达加油站北200米","phone":"","category":"医疗保健服务;动物医疗场所;动物医疗场所","area":"","lng":112.921325,"lat":33.750825,"amap_id":"B0KDFS60WP","order":9,"prev_distance_km":1.025,"cumulative_distance_km":59.118,"amap_marker_url":"https://uri.amap.com/marker?position=112.921325,33.750825&name=%E6%83%A0%E7%89%A7%E5%85%BD%E8%8D%AF%E5%BA%97&src=vetmap&coordinate=gaode&callnative=1","route_id":"r1","route_name":"第1段"},{"name":"鲁山县惠牧养殖技术服务中心","address":"人民路民生家园北侧约40米","phone":"0375-5969888","category":"医疗保健服务;动物医疗场所;兽医站","area":"","lng":112.921318,"lat":33.750854,"amap_id":"B0IDD7HJV9","order":10,"prev_distance_km":0.003,"cumulative_distance_km":59.122,"amap_marker_url":"https://uri.amap.com/marker?position=112.921318,33.750854&name=%E9%B2%81%E5%B1%B1%E5%8E%BF%E6%83%A0%E7%89%A7%E5%85%BB%E6%AE%96%E6%8A%80%E6%9C%AF%E6%9C%8D%E5%8A%A1%E4%B8%AD%E5%BF%83&src=vetmap&coordinate=gaode&callnative=1","route_id":"r1","route_name":"第1段"},{"name":"鲁山丁海鸽诊所","address":"人民路与鲁兴路交叉口东北440米","phone":"","category":"医疗保健服务;动物医疗场所;宠物诊所","area":"","lng":112.940144,"lat":33.756468,"amap_id":"B0KAS4JK4E","order":11,"prev_distance_km":1.849,"cumulative_distance_km":60.971,"amap_marker_url":"https://uri.amap.com/marker?position=112.940144,33.756468&name=%E9%B2%81%E5%B1%B1%E4%B8%81%E6%B5%B7%E9%B8%BD%E8%AF%8A%E6%89%80&src=vetmap&coordinate=gaode&callnative=1","route_id":"r1","route_name":"第1段"},{"name":"康盈兽药店","address":"鲁平大道爱心医院转盘东150米鲁兴路口","phone":"13569572551;13569590342","category":"医疗保健服务;动物医疗场所;动物医疗场所","area":"","lng":112.941368,"lat":33.737004,"amap_id":"B0L1YAD9CK","order":12,"prev_distance_km":2.167,"cumulative_distance_km":63.138,"amap_marker_url":"https://uri.amap.com/marker?position=112.941368,33.737004&name=%E5%BA%B7%E7%9B%88%E5%85%BD%E8%8D%AF%E5%BA%97&src=vetmap&coordinate=gaode&callnative=1","route_id":"r1","route_name":"第1段"},{"name":"大成千牧兽药店","address":"振兴路与尧山大道交叉口东北360米","phone":"","category":"医疗保健服务;动物医疗场所;动物医疗场所","area":"","lng":112.941575,"lat":33.729475,"amap_id":"B0M6F110S3","order":13,"prev_distance_km":0.837,"cumulative_distance_km":63.975,"amap_marker_url":"https://uri.amap.com/marker?position=112.941575,33.729475&name=%E5%A4%A7%E6%88%90%E5%8D%83%E7%89%A7%E5%85%BD%E8%8D%AF%E5%BA%97&src=vetmap&coordinate=gaode&callnative=1","route_id":"r1","route_name":"第1段"},{"name":"兽医门诊","address":"马楼乡政府路口东50米路北","phone":"13782433388","category":"医疗保健服务;动物医疗场所;兽医站","area":"","lng":112.996799,"lat":33.681117,"amap_id":"B0FFH40ESW","order":14,"prev_distance_km":7.417,"cumulative_distance_km":71.392,"amap_marker_url":"https://uri.amap.com/marker?position=112.996799,33.681117&name=%E5%85%BD%E5%8C%BB%E9%97%A8%E8%AF%8A&src=vetmap&coordinate=gaode&callnative=1","route_id":"r1","route_name":"第1段"},{"name":"宠物诊所","address":"洼陈村民委员会西南侧90米","phone":"","category":"医疗保健服务;动物医疗场所;宠物诊所","area":"","lng":113.150585,"lat":33.685204,"amap_id":"B0JRHGCP9G","order":15,"prev_distance_km":14.237,"cumulative_distance_km":85.629,"amap_marker_url":"https://uri.amap.com/marker?position=113.150585,33.685204&name=%E5%AE%A0%E7%89%A9%E8%AF%8A%E6%89%80&src=vetmap&coordinate=gaode&callnative=1","route_id":"r1","route_name":"第1段"},{"name":"兽药门诊","address":"014乡道与311国道交叉口东100米","phone":"13939962049","category":"医疗保健服务;动物医疗场所;兽医站","area":"","lng":113.150596,"lat":33.685117,"amap_id":"B0GK1UZL1I","order":16,"prev_distance_km":0.01,"cumulative_distance_km":85.639,"amap_marker_url":"https://uri.amap.com/marker?position=113.150596,33.685117&name=%E5%85%BD%E8%8D%AF%E9%97%A8%E8%AF%8A&src=vetmap&coordinate=gaode&callnative=1","route_id":"r1","route_name":"第1段"}]}],"rows":[{"name":"下汤镇兽医站","address":"G311(徐峡线)","phone":"13569591583","category":"医疗保健服务;动物医疗场所;兽医站","area":"","lng":112.683542,"lat":33.72051,"amap_id":"B0FFHUIV5I","order":1,"prev_distance_km":0.0,"cumulative_distance_km":0.0,"amap_marker_url":"https://uri.amap.com/marker?position=112.683542,33.720510&name=%E4%B8%8B%E6%B1%A4%E9%95%87%E5%85%BD%E5%8C%BB%E7%AB%99&src=vetmap&coordinate=gaode&callnative=1","route_id":"r1","route_name":"第1段","global_order":1},{"name":"瓦屋兽医服务站","address":"中心路与大桥路交叉口东20米","phone":"","category":"医疗保健服务;动物医疗场所;兽医站","area":"","lng":112.669011,"lat":33.887564,"amap_id":"B0I2XC19OT","order":2,"prev_distance_km":18.624,"cumulative_distance_km":18.624,"amap_marker_url":"https://uri.amap.com/marker?position=112.669011,33.887564&name=%E7%93%A6%E5%B1%8B%E5%85%BD%E5%8C%BB%E6%9C%8D%E5%8A%A1%E7%AB%99&src=vetmap&coordinate=gaode&callnative=1","route_id":"r1","route_name":"第1段","global_order":2},{"name":"动物疫苗","address":"仓颉路与寨北路交叉口东20米","phone":"","category":"医疗保健服务;动物医疗场所;动物医疗场所","area":"","lng":112.800425,"lat":33.870625,"amap_id":"B0M6H7CBNV","order":3,"prev_distance_km":12.277,"cumulative_distance_km":30.901,"amap_marker_url":"https://uri.amap.com/marker?position=112.800425,33.870625&name=%E5%8A%A8%E7%89%A9%E7%96%AB%E8%8B%97&src=vetmap&coordinate=gaode&callnative=1","route_id":"r1","route_name":"第1段","global_order":3},{"name":"梁洼镇兽医站","address":"梁洼镇","phone":"0375-5958262;15893477799","category":"医疗保健服务;动物医疗场所;兽医站","area":"","lng":112.927994,"lat":33.845581,"amap_id":"B0FFFRKQ2G","order":4,"prev_distance_km":12.104,"cumulative_distance_km":43.005,"amap_marker_url":"https://uri.amap.com/marker?position=112.927994,33.845581&name=%E6%A2%81%E6%B4%BC%E9%95%87%E5%85%BD%E5%8C%BB%E7%AB%99&src=vetmap&coordinate=gaode&callnative=1","route_id":"r1","route_name":"第1段","global_order":4},{"name":"鲁尧牧业畜牧服务站","address":"刘营社区东侧50米","phone":"","category":"医疗保健服务;动物医疗场所;兽医站","area":"","lng":112.902319,"lat":33.756284,"amap_id":"B0K6AUPCMO","order":5,"prev_distance_km":10.209,"cumulative_distance_km":53.214,"amap_marker_url":"https://uri.amap.com/marker?position=112.902319,33.756284&name=%E9%B2%81%E5%B0%A7%E7%89%A7%E4%B8%9A%E7%95%9C%E7%89%A7%E6%9C%8D%E5%8A%A1%E7%AB%99&src=vetmap&coordinate=gaode&callnative=1","route_id":"r1","route_name":"第1段","global_order":5},{"name":"宠爱(人民路店)","address":"人民路与钢厂路交叉口西南60米","phone":"","category":"医疗保健服务;动物医疗场所;动物医疗场所","area":"","lng":112.896283,"lat":33.743773,"amap_id":"B0LRLNMRTJ","order":6,"prev_distance_km":1.499,"cumulative_distance_km":54.713,"amap_marker_url":"https://uri.amap.com/marker?position=112.896283,33.743773&name=%E5%AE%A0%E7%88%B1%28%E4%BA%BA%E6%B0%91%E8%B7%AF%E5%BA%97%29&src=vetmap&coordinate=gaode&callnative=1","route_id":"r1","route_name":"第1段","global_order":6},{"name":"高升宠物门诊","address":"昊盛源·现代城北区东南门西60米","phone":"13782456258","category":"医疗保健服务;动物医疗场所;宠物诊所","area":"","lng":112.916518,"lat":33.732113,"amap_id":"B0FFH8J20T","order":7,"prev_distance_km":2.276,"cumulative_distance_km":56.989,"amap_marker_url":"https://uri.amap.com/marker?position=112.916518,33.732113&name=%E9%AB%98%E5%8D%87%E5%AE%A0%E7%89%A9%E9%97%A8%E8%AF%8A&src=vetmap&coordinate=gaode&callnative=1","route_id":"r1","route_name":"第1段","global_order":7},{"name":"霍德宠物中心医院","address":"花园路48号","phone":"17537526188","category":"医疗保健服务;动物医疗场所;宠物诊所","area":"露峰","lng":112.918632,"lat":33.741886,"amap_id":"B0L67SMQHN","order":8,"prev_distance_km":1.104,"cumulative_distance_km":58.094,"amap_marker_url":"https://uri.amap.com/marker?position=112.918632,33.741886&name=%E9%9C%8D%E5%BE%B7%E5%AE%A0%E7%89%A9%E4%B8%AD%E5%BF%83%E5%8C%BB%E9%99%A2&src=vetmap&coordinate=gaode&callnative=1","route_id":"r1","route_name":"第1段","global_order":8},{"name":"惠牧兽药店","address":"人民路东段利达加油站北200米","phone":"","category":"医疗保健服务;动物医疗场所;动物医疗场所","area":"","lng":112.921325,"lat":33.750825,"amap_id":"B0KDFS60WP","order":9,"prev_distance_km":1.025,"cumulative_distance_km":59.118,"amap_marker_url":"https://uri.amap.com/marker?position=112.921325,33.750825&name=%E6%83%A0%E7%89%A7%E5%85%BD%E8%8D%AF%E5%BA%97&src=vetmap&coordinate=gaode&callnative=1","route_id":"r1","route_name":"第1段","global_order":9},{"name":"鲁山县惠牧养殖技术服务中心","address":"人民路民生家园北侧约40米","phone":"0375-5969888","category":"医疗保健服务;动物医疗场所;兽医站","area":"","lng":112.921318,"lat":33.750854,"amap_id":"B0IDD7HJV9","order":10,"prev_distance_km":0.003,"cumulative_distance_km":59.122,"amap_marker_url":"https://uri.amap.com/marker?position=112.921318,33.750854&name=%E9%B2%81%E5%B1%B1%E5%8E%BF%E6%83%A0%E7%89%A7%E5%85%BB%E6%AE%96%E6%8A%80%E6%9C%AF%E6%9C%8D%E5%8A%A1%E4%B8%AD%E5%BF%83&src=vetmap&coordinate=gaode&callnative=1","route_id":"r1","route_name":"第1段","global_order":10},{"name":"鲁山丁海鸽诊所","address":"人民路与鲁兴路交叉口东北440米","phone":"","category":"医疗保健服务;动物医疗场所;宠物诊所","area":"","lng":112.940144,"lat":33.756468,"amap_id":"B0KAS4JK4E","order":11,"prev_distance_km":1.849,"cumulative_distance_km":60.971,"amap_marker_url":"https://uri.amap.com/marker?position=112.940144,33.756468&name=%E9%B2%81%E5%B1%B1%E4%B8%81%E6%B5%B7%E9%B8%BD%E8%AF%8A%E6%89%80&src=vetmap&coordinate=gaode&callnative=1","route_id":"r1","route_name":"第1段","global_order":11},{"name":"康盈兽药店","address":"鲁平大道爱心医院转盘东150米鲁兴路口","phone":"13569572551;13569590342","category":"医疗保健服务;动物医疗场所;动物医疗场所","area":"","lng":112.941368,"lat":33.737004,"amap_id":"B0L1YAD9CK","order":12,"prev_distance_km":2.167,"cumulative_distance_km":63.138,"amap_marker_url":"https://uri.amap.com/marker?position=112.941368,33.737004&name=%E5%BA%B7%E7%9B%88%E5%85%BD%E8%8D%AF%E5%BA%97&src=vetmap&coordinate=gaode&callnative=1","route_id":"r1","route_name":"第1段","global_order":12},{"name":"大成千牧兽药店","address":"振兴路与尧山大道交叉口东北360米","phone":"","category":"医疗保健服务;动物医疗场所;动物医疗场所","area":"","lng":112.941575,"lat":33.729475,"amap_id":"B0M6F110S3","order":13,"prev_distance_km":0.837,"cumulative_distance_km":63.975,"amap_marker_url":"https://uri.amap.com/marker?position=112.941575,33.729475&name=%E5%A4%A7%E6%88%90%E5%8D%83%E7%89%A7%E5%85%BD%E8%8D%AF%E5%BA%97&src=vetmap&coordinate=gaode&callnative=1","route_id":"r1","route_name":"第1段","global_order":13},{"name":"兽医门诊","address":"马楼乡政府路口东50米路北","phone":"13782433388","category":"医疗保健服务;动物医疗场所;兽医站","area":"","lng":112.996799,"lat":33.681117,"amap_id":"B0FFH40ESW","order":14,"prev_distance_km":7.417,"cumulative_distance_km":71.392,"amap_marker_url":"https://uri.amap.com/marker?position=112.996799,33.681117&name=%E5%85%BD%E5%8C%BB%E9%97%A8%E8%AF%8A&src=vetmap&coordinate=gaode&callnative=1","route_id":"r1","route_name":"第1段","global_order":14},{"name":"宠物诊所","address":"洼陈村民委员会西南侧90米","phone":"","category":"医疗保健服务;动物医疗场所;宠物诊所","area":"","lng":113.150585,"lat":33.685204,"amap_id":"B0JRHGCP9G","order":15,"prev_distance_km":14.237,"cumulative_distance_km":85.629,"amap_marker_url":"https://uri.amap.com/marker?position=113.150585,33.685204&name=%E5%AE%A0%E7%89%A9%E8%AF%8A%E6%89%80&src=vetmap&coordinate=gaode&callnative=1","route_id":"r1","route_name":"第1段","global_order":15},{"name":"兽药门诊","address":"014乡道与311国道交叉口东100米","phone":"13939962049","category":"医疗保健服务;动物医疗场所;兽医站","area":"","lng":113.150596,"lat":33.685117,"amap_id":"B0GK1UZL1I","order":16,"prev_distance_km":0.01,"cumulative_distance_km":85.639,"amap_marker_url":"https://uri.amap.com/marker?position=113.150596,33.685117&name=%E5%85%BD%E8%8D%AF%E9%97%A8%E8%AF%8A&src=vetmap&coordinate=gaode&callnative=1","route_id":"r1","route_name":"第1段","global_order":16}]}