{"summary":{"id":"d01259","province":"河南省","city":"许昌市","district":"禹州市","count":17,"route_count":1,"max_route_clinics":17,"total_distance_km":77.784,"coordinate_system":"GCJ-02 / Amap","generated_at":"2026-05-08 19:46:57"},"routes":[{"id":"r1","name":"第1段","count":17,"total_distance_km":77.784,"rows":[{"name":"张得街兽医站","address":"张得古民居中段路西","phone":"15136837882","category":"医疗保健服务;动物医疗场所;兽医站","area":"","lng":113.406195,"lat":34.056484,"amap_id":"B0G0TSF88J","order":1,"prev_distance_km":0.0,"cumulative_distance_km":0.0,"amap_marker_url":"https://uri.amap.com/marker?position=113.406195,34.056484&name=%E5%BC%A0%E5%BE%97%E8%A1%97%E5%85%BD%E5%8C%BB%E7%AB%99&src=vetmap&coordinate=gaode&callnative=1","route_id":"r1","route_name":"第1段"},{"name":"旺宠宠物乐园(宠物医院)","address":"禹王大道与药城路交叉口向南20米路西02号","phone":"19836176222","category":"医疗保健服务;动物医疗场所;宠物诊所","area":"药城路","lng":113.482388,"lat":34.141655,"amap_id":"B0LRD56RMG","order":2,"prev_distance_km":11.786,"cumulative_distance_km":11.786,"amap_marker_url":"https://uri.amap.com/marker?position=113.482388,34.141655&name=%E6%97%BA%E5%AE%A0%E5%AE%A0%E7%89%A9%E4%B9%90%E5%9B%AD%28%E5%AE%A0%E7%89%A9%E5%8C%BB%E9%99%A2%29&src=vetmap&coordinate=gaode&callnative=1","route_id":"r1","route_name":"第1段"},{"name":"宠一动物诊所","address":"府东路22号","phone":"18839995297","category":"医疗保健服务;动物医疗场所;宠物诊所","area":"府东路","lng":113.490607,"lat":34.14366,"amap_id":"B0JKUSJQB8","order":3,"prev_distance_km":0.789,"cumulative_distance_km":12.575,"amap_marker_url":"https://uri.amap.com/marker?position=113.490607,34.143660&name=%E5%AE%A0%E4%B8%80%E5%8A%A8%E7%89%A9%E8%AF%8A%E6%89%80&src=vetmap&coordinate=gaode&callnative=1","route_id":"r1","route_name":"第1段"},{"name":"爱宠有家宠物酒店","address":"颍川路150号","phone":"0374-6666657;15090257632","category":"医疗保健服务;动物医疗场所;宠物诊所","area":"","lng":113.497616,"lat":34.140704,"amap_id":"B0FFLFORF8","order":4,"prev_distance_km":0.724,"cumulative_distance_km":13.299,"amap_marker_url":"https://uri.amap.com/marker?position=113.497616,34.140704&name=%E7%88%B1%E5%AE%A0%E6%9C%89%E5%AE%B6%E5%AE%A0%E7%89%A9%E9%85%92%E5%BA%97&src=vetmap&coordinate=gaode&callnative=1","route_id":"r1","route_name":"第1段"},{"name":"爱宠有家宠物医院(颍川路分院)","address":"颍川路150号","phone":"0374-6666657;18839968558","category":"医疗保健服务;动物医疗场所;宠物诊所","area":"","lng":113.497804,"lat":34.140709,"amap_id":"B0KDHZII4K","order":5,"prev_distance_km":0.017,"cumulative_distance_km":13.316,"amap_marker_url":"https://uri.amap.com/marker?position=113.497804,34.140709&name=%E7%88%B1%E5%AE%A0%E6%9C%89%E5%AE%B6%E5%AE%A0%E7%89%A9%E5%8C%BB%E9%99%A2%28%E9%A2%8D%E5%B7%9D%E8%B7%AF%E5%88%86%E9%99%A2%29&src=vetmap&coordinate=gaode&callnative=1","route_id":"r1","route_name":"第1段"},{"name":"安颐动物医院","address":"恒达熙郡13号楼104","phone":"19143997120","category":"医疗保健服务;动物医疗场所;宠物诊所","area":"","lng":113.49821,"lat":34.141838,"amap_id":"B0JGH7U231","order":6,"prev_distance_km":0.131,"cumulative_distance_km":13.447,"amap_marker_url":"https://uri.amap.com/marker?position=113.498210,34.141838&name=%E5%AE%89%E9%A2%90%E5%8A%A8%E7%89%A9%E5%8C%BB%E9%99%A2&src=vetmap&coordinate=gaode&callnative=1","route_id":"r1","route_name":"第1段"},{"name":"阿沐沐宠物医院","address":"颖川路建设路交叉头向西100米路北","phone":"13273079251;18039910730","category":"医疗保健服务;动物医疗场所;宠物诊所","area":"","lng":113.496439,"lat":34.144081,"amap_id":"B0KAPHNDRE","order":7,"prev_distance_km":0.298,"cumulative_distance_km":13.745,"amap_marker_url":"https://uri.amap.com/marker?position=113.496439,34.144081&name=%E9%98%BF%E6%B2%90%E6%B2%90%E5%AE%A0%E7%89%A9%E5%8C%BB%E9%99%A2&src=vetmap&coordinate=gaode&callnative=1","route_id":"r1","route_name":"第1段"},{"name":"医直宠宠物","address":"恒达阳光城美园西1门旁","phone":"","category":"医疗保健服务;动物医疗场所;宠物诊所","area":"","lng":113.50075,"lat":34.147686,"amap_id":"B0L6RXMKX0","order":8,"prev_distance_km":0.564,"cumulative_distance_km":14.309,"amap_marker_url":"https://uri.amap.com/marker?position=113.500750,34.147686&name=%E5%8C%BB%E7%9B%B4%E5%AE%A0%E5%AE%A0%E7%89%A9&src=vetmap&coordinate=gaode&callnative=1","route_id":"r1","route_name":"第1段"},{"name":"爱丽丝宠物医院","address":"滨河路中段东城区派出所隔壁","phone":"13938911082","category":"医疗保健服务;动物医疗场所;宠物诊所","area":"滨河大道","lng":113.484991,"lat":34.151879,"amap_id":"B0HR4AXY57","order":9,"prev_distance_km":1.523,"cumulative_distance_km":15.832,"amap_marker_url":"https://uri.amap.com/marker?position=113.484991,34.151879&name=%E7%88%B1%E4%B8%BD%E4%B8%9D%E5%AE%A0%E7%89%A9%E5%8C%BB%E9%99%A2&src=vetmap&coordinate=gaode&callnative=1","route_id":"r1","route_name":"第1段"},{"name":"乐可多宠物诊所","address":"钧州大街541号","phone":"15837473778","category":"医疗保健服务;动物医疗场所;宠物诊所","area":"滨河大道","lng":113.474989,"lat":34.152434,"amap_id":"B0FFG9440Y","order":10,"prev_distance_km":0.922,"cumulative_distance_km":16.755,"amap_marker_url":"https://uri.amap.com/marker?position=113.474989,34.152434&name=%E4%B9%90%E5%8F%AF%E5%A4%9A%E5%AE%A0%E7%89%A9%E8%AF%8A%E6%89%80&src=vetmap&coordinate=gaode&callnative=1","route_id":"r1","route_name":"第1段"},{"name":"关爱宠物医院(顺河北路店)","address":"顺河北路130号","phone":"13462107894","category":"医疗保健服务;动物医疗场所;宠物诊所","area":"","lng":113.483279,"lat":34.159088,"amap_id":"B0LK2ZQGGT","order":11,"prev_distance_km":1.063,"cumulative_distance_km":17.817,"amap_marker_url":"https://uri.amap.com/marker?position=113.483279,34.159088&name=%E5%85%B3%E7%88%B1%E5%AE%A0%E7%89%A9%E5%8C%BB%E9%99%A2%28%E9%A1%BA%E6%B2%B3%E5%8C%97%E8%B7%AF%E5%BA%97%29&src=vetmap&coordinate=gaode&callnative=1","route_id":"r1","route_name":"第1段"},{"name":"伴侣宠物医院诊疗中心·骨科·皮肤科·犬猫专科","address":"药城路413号","phone":"18237480013","category":"医疗保健服务;动物医疗场所;宠物诊所","area":"药城路","lng":113.489225,"lat":34.157962,"amap_id":"B0FFICO27G","order":12,"prev_distance_km":0.561,"cumulative_distance_km":18.378,"amap_marker_url":"https://uri.amap.com/marker?position=113.489225,34.157962&name=%E4%BC%B4%E4%BE%A3%E5%AE%A0%E7%89%A9%E5%8C%BB%E9%99%A2%E8%AF%8A%E7%96%97%E4%B8%AD%E5%BF%83%C2%B7%E9%AA%A8%E7%A7%91%C2%B7%E7%9A%AE%E8%82%A4%E7%A7%91%C2%B7%E7%8A%AC%E7%8C%AB%E4%B8%93%E7%A7%91&src=vetmap&coordinate=gaode&callnative=1","route_id":"r1","route_name":"第1段"},{"name":"禹州市峰康兽药店","address":"观上路与无梁大道交叉口北80米","phone":"","category":"医疗保健服务;动物医疗场所;动物医疗场所","area":"","lng":113.559625,"lat":34.269275,"amap_id":"B0LD9NWNWK","order":13,"prev_distance_km":13.968,"cumulative_distance_km":32.347,"amap_marker_url":"https://uri.amap.com/marker?position=113.559625,34.269275&name=%E7%A6%B9%E5%B7%9E%E5%B8%82%E5%B3%B0%E5%BA%B7%E5%85%BD%E8%8D%AF%E5%BA%97&src=vetmap&coordinate=gaode&callnative=1","route_id":"r1","route_name":"第1段"},{"name":"海大集团畜禽技术服务站","address":"006乡道与003乡道交叉口北180米","phone":"","category":"医疗保健服务;动物医疗场所;兽医站","area":"","lng":113.357317,"lat":34.271214,"amap_id":"B0JUFDKAB6","order":14,"prev_distance_km":18.591,"cumulative_distance_km":50.938,"amap_marker_url":"https://uri.amap.com/marker?position=113.357317,34.271214&name=%E6%B5%B7%E5%A4%A7%E9%9B%86%E5%9B%A2%E7%95%9C%E7%A6%BD%E6%8A%80%E6%9C%AF%E6%9C%8D%E5%8A%A1%E7%AB%99&src=vetmap&coordinate=gaode&callnative=1","route_id":"r1","route_name":"第1段"},{"name":"多多宠物诊所","address":"","phone":"15836559525","category":"医疗保健服务;动物医疗场所;宠物诊所","area":"","lng":113.349325,"lat":34.242754,"amap_id":"B0H6C7Z2XB","order":15,"prev_distance_km":3.249,"cumulative_distance_km":54.187,"amap_marker_url":"https://uri.amap.com/marker?position=113.349325,34.242754&name=%E5%A4%9A%E5%A4%9A%E5%AE%A0%E7%89%A9%E8%AF%8A%E6%89%80&src=vetmap&coordinate=gaode&callnative=1","route_id":"r1","route_name":"第1段"},{"name":"爱丽丝宠物医院神垕分院","address":"解放路182号","phone":"13938911082","category":"医疗保健服务;动物医疗场所;宠物诊所","area":"","lng":113.22591,"lat":34.12867,"amap_id":"B0KRYCUZQE","order":16,"prev_distance_km":17.023,"cumulative_distance_km":71.21,"amap_marker_url":"https://uri.amap.com/marker?position=113.225910,34.128670&name=%E7%88%B1%E4%B8%BD%E4%B8%9D%E5%AE%A0%E7%89%A9%E5%8C%BB%E9%99%A2%E7%A5%9E%E5%9E%95%E5%88%86%E9%99%A2&src=vetmap&coordinate=gaode&callnative=1","route_id":"r1","route_name":"第1段"},{"name":"磨街畜禽门诊","address":"磨街乡派出所路北西200米","phone":"18337484157;18638631808","category":"医疗保健服务;动物医疗场所;兽医站","area":"","lng":113.162285,"lat":34.155548,"amap_id":"B0FFJBCNYX","order":17,"prev_distance_km":6.574,"cumulative_distance_km":77.784,"amap_marker_url":"https://uri.amap.com/marker?position=113.162285,34.155548&name=%E7%A3%A8%E8%A1%97%E7%95%9C%E7%A6%BD%E9%97%A8%E8%AF%8A&src=vetmap&coordinate=gaode&callnative=1","route_id":"r1","route_name":"第1段"}]}],"rows":[{"name":"张得街兽医站","address":"张得古民居中段路西","phone":"15136837882","category":"医疗保健服务;动物医疗场所;兽医站","area":"","lng":113.406195,"lat":34.056484,"amap_id":"B0G0TSF88J","order":1,"prev_distance_km":0.0,"cumulative_distance_km":0.0,"amap_marker_url":"https://uri.amap.com/marker?position=113.406195,34.056484&name=%E5%BC%A0%E5%BE%97%E8%A1%97%E5%85%BD%E5%8C%BB%E7%AB%99&src=vetmap&coordinate=gaode&callnative=1","route_id":"r1","route_name":"第1段","global_order":1},{"name":"旺宠宠物乐园(宠物医院)","address":"禹王大道与药城路交叉口向南20米路西02号","phone":"19836176222","category":"医疗保健服务;动物医疗场所;宠物诊所","area":"药城路","lng":113.482388,"lat":34.141655,"amap_id":"B0LRD56RMG","order":2,"prev_distance_km":11.786,"cumulative_distance_km":11.786,"amap_marker_url":"https://uri.amap.com/marker?position=113.482388,34.141655&name=%E6%97%BA%E5%AE%A0%E5%AE%A0%E7%89%A9%E4%B9%90%E5%9B%AD%28%E5%AE%A0%E7%89%A9%E5%8C%BB%E9%99%A2%29&src=vetmap&coordinate=gaode&callnative=1","route_id":"r1","route_name":"第1段","global_order":2},{"name":"宠一动物诊所","address":"府东路22号","phone":"18839995297","category":"医疗保健服务;动物医疗场所;宠物诊所","area":"府东路","lng":113.490607,"lat":34.14366,"amap_id":"B0JKUSJQB8","order":3,"prev_distance_km":0.789,"cumulative_distance_km":12.575,"amap_marker_url":"https://uri.amap.com/marker?position=113.490607,34.143660&name=%E5%AE%A0%E4%B8%80%E5%8A%A8%E7%89%A9%E8%AF%8A%E6%89%80&src=vetmap&coordinate=gaode&callnative=1","route_id":"r1","route_name":"第1段","global_order":3},{"name":"爱宠有家宠物酒店","address":"颍川路150号","phone":"0374-6666657;15090257632","category":"医疗保健服务;动物医疗场所;宠物诊所","area":"","lng":113.497616,"lat":34.140704,"amap_id":"B0FFLFORF8","order":4,"prev_distance_km":0.724,"cumulative_distance_km":13.299,"amap_marker_url":"https://uri.amap.com/marker?position=113.497616,34.140704&name=%E7%88%B1%E5%AE%A0%E6%9C%89%E5%AE%B6%E5%AE%A0%E7%89%A9%E9%85%92%E5%BA%97&src=vetmap&coordinate=gaode&callnative=1","route_id":"r1","route_name":"第1段","global_order":4},{"name":"爱宠有家宠物医院(颍川路分院)","address":"颍川路150号","phone":"0374-6666657;18839968558","category":"医疗保健服务;动物医疗场所;宠物诊所","area":"","lng":113.497804,"lat":34.140709,"amap_id":"B0KDHZII4K","order":5,"prev_distance_km":0.017,"cumulative_distance_km":13.316,"amap_marker_url":"https://uri.amap.com/marker?position=113.497804,34.140709&name=%E7%88%B1%E5%AE%A0%E6%9C%89%E5%AE%B6%E5%AE%A0%E7%89%A9%E5%8C%BB%E9%99%A2%28%E9%A2%8D%E5%B7%9D%E8%B7%AF%E5%88%86%E9%99%A2%29&src=vetmap&coordinate=gaode&callnative=1","route_id":"r1","route_name":"第1段","global_order":5},{"name":"安颐动物医院","address":"恒达熙郡13号楼104","phone":"19143997120","category":"医疗保健服务;动物医疗场所;宠物诊所","area":"","lng":113.49821,"lat":34.141838,"amap_id":"B0JGH7U231","order":6,"prev_distance_km":0.131,"cumulative_distance_km":13.447,"amap_marker_url":"https://uri.amap.com/marker?position=113.498210,34.141838&name=%E5%AE%89%E9%A2%90%E5%8A%A8%E7%89%A9%E5%8C%BB%E9%99%A2&src=vetmap&coordinate=gaode&callnative=1","route_id":"r1","route_name":"第1段","global_order":6},{"name":"阿沐沐宠物医院","address":"颖川路建设路交叉头向西100米路北","phone":"13273079251;18039910730","category":"医疗保健服务;动物医疗场所;宠物诊所","area":"","lng":113.496439,"lat":34.144081,"amap_id":"B0KAPHNDRE","order":7,"prev_distance_km":0.298,"cumulative_distance_km":13.745,"amap_marker_url":"https://uri.amap.com/marker?position=113.496439,34.144081&name=%E9%98%BF%E6%B2%90%E6%B2%90%E5%AE%A0%E7%89%A9%E5%8C%BB%E9%99%A2&src=vetmap&coordinate=gaode&callnative=1","route_id":"r1","route_name":"第1段","global_order":7},{"name":"医直宠宠物","address":"恒达阳光城美园西1门旁","phone":"","category":"医疗保健服务;动物医疗场所;宠物诊所","area":"","lng":113.50075,"lat":34.147686,"amap_id":"B0L6RXMKX0","order":8,"prev_distance_km":0.564,"cumulative_distance_km":14.309,"amap_marker_url":"https://uri.amap.com/marker?position=113.500750,34.147686&name=%E5%8C%BB%E7%9B%B4%E5%AE%A0%E5%AE%A0%E7%89%A9&src=vetmap&coordinate=gaode&callnative=1","route_id":"r1","route_name":"第1段","global_order":8},{"name":"爱丽丝宠物医院","address":"滨河路中段东城区派出所隔壁","phone":"13938911082","category":"医疗保健服务;动物医疗场所;宠物诊所","area":"滨河大道","lng":113.484991,"lat":34.151879,"amap_id":"B0HR4AXY57","order":9,"prev_distance_km":1.523,"cumulative_distance_km":15.832,"amap_marker_url":"https://uri.amap.com/marker?position=113.484991,34.151879&name=%E7%88%B1%E4%B8%BD%E4%B8%9D%E5%AE%A0%E7%89%A9%E5%8C%BB%E9%99%A2&src=vetmap&coordinate=gaode&callnative=1","route_id":"r1","route_name":"第1段","global_order":9},{"name":"乐可多宠物诊所","address":"钧州大街541号","phone":"15837473778","category":"医疗保健服务;动物医疗场所;宠物诊所","area":"滨河大道","lng":113.474989,"lat":34.152434,"amap_id":"B0FFG9440Y","order":10,"prev_distance_km":0.922,"cumulative_distance_km":16.755,"amap_marker_url":"https://uri.amap.com/marker?position=113.474989,34.152434&name=%E4%B9%90%E5%8F%AF%E5%A4%9A%E5%AE%A0%E7%89%A9%E8%AF%8A%E6%89%80&src=vetmap&coordinate=gaode&callnative=1","route_id":"r1","route_name":"第1段","global_order":10},{"name":"关爱宠物医院(顺河北路店)","address":"顺河北路130号","phone":"13462107894","category":"医疗保健服务;动物医疗场所;宠物诊所","area":"","lng":113.483279,"lat":34.159088,"amap_id":"B0LK2ZQGGT","order":11,"prev_distance_km":1.063,"cumulative_distance_km":17.817,"amap_marker_url":"https://uri.amap.com/marker?position=113.483279,34.159088&name=%E5%85%B3%E7%88%B1%E5%AE%A0%E7%89%A9%E5%8C%BB%E9%99%A2%28%E9%A1%BA%E6%B2%B3%E5%8C%97%E8%B7%AF%E5%BA%97%29&src=vetmap&coordinate=gaode&callnative=1","route_id":"r1","route_name":"第1段","global_order":11},{"name":"伴侣宠物医院诊疗中心·骨科·皮肤科·犬猫专科","address":"药城路413号","phone":"18237480013","category":"医疗保健服务;动物医疗场所;宠物诊所","area":"药城路","lng":113.489225,"lat":34.157962,"amap_id":"B0FFICO27G","order":12,"prev_distance_km":0.561,"cumulative_distance_km":18.378,"amap_marker_url":"https://uri.amap.com/marker?position=113.489225,34.157962&name=%E4%BC%B4%E4%BE%A3%E5%AE%A0%E7%89%A9%E5%8C%BB%E9%99%A2%E8%AF%8A%E7%96%97%E4%B8%AD%E5%BF%83%C2%B7%E9%AA%A8%E7%A7%91%C2%B7%E7%9A%AE%E8%82%A4%E7%A7%91%C2%B7%E7%8A%AC%E7%8C%AB%E4%B8%93%E7%A7%91&src=vetmap&coordinate=gaode&callnative=1","route_id":"r1","route_name":"第1段","global_order":12},{"name":"禹州市峰康兽药店","address":"观上路与无梁大道交叉口北80米","phone":"","category":"医疗保健服务;动物医疗场所;动物医疗场所","area":"","lng":113.559625,"lat":34.269275,"amap_id":"B0LD9NWNWK","order":13,"prev_distance_km":13.968,"cumulative_distance_km":32.347,"amap_marker_url":"https://uri.amap.com/marker?position=113.559625,34.269275&name=%E7%A6%B9%E5%B7%9E%E5%B8%82%E5%B3%B0%E5%BA%B7%E5%85%BD%E8%8D%AF%E5%BA%97&src=vetmap&coordinate=gaode&callnative=1","route_id":"r1","route_name":"第1段","global_order":13},{"name":"海大集团畜禽技术服务站","address":"006乡道与003乡道交叉口北180米","phone":"","category":"医疗保健服务;动物医疗场所;兽医站","area":"","lng":113.357317,"lat":34.271214,"amap_id":"B0JUFDKAB6","order":14,"prev_distance_km":18.591,"cumulative_distance_km":50.938,"amap_marker_url":"https://uri.amap.com/marker?position=113.357317,34.271214&name=%E6%B5%B7%E5%A4%A7%E9%9B%86%E5%9B%A2%E7%95%9C%E7%A6%BD%E6%8A%80%E6%9C%AF%E6%9C%8D%E5%8A%A1%E7%AB%99&src=vetmap&coordinate=gaode&callnative=1","route_id":"r1","route_name":"第1段","global_order":14},{"name":"多多宠物诊所","address":"","phone":"15836559525","category":"医疗保健服务;动物医疗场所;宠物诊所","area":"","lng":113.349325,"lat":34.242754,"amap_id":"B0H6C7Z2XB","order":15,"prev_distance_km":3.249,"cumulative_distance_km":54.187,"amap_marker_url":"https://uri.amap.com/marker?position=113.349325,34.242754&name=%E5%A4%9A%E5%A4%9A%E5%AE%A0%E7%89%A9%E8%AF%8A%E6%89%80&src=vetmap&coordinate=gaode&callnative=1","route_id":"r1","route_name":"第1段","global_order":15},{"name":"爱丽丝宠物医院神垕分院","address":"解放路182号","phone":"13938911082","category":"医疗保健服务;动物医疗场所;宠物诊所","area":"","lng":113.22591,"lat":34.12867,"amap_id":"B0KRYCUZQE","order":16,"prev_distance_km":17.023,"cumulative_distance_km":71.21,"amap_marker_url":"https://uri.amap.com/marker?position=113.225910,34.128670&name=%E7%88%B1%E4%B8%BD%E4%B8%9D%E5%AE%A0%E7%89%A9%E5%8C%BB%E9%99%A2%E7%A5%9E%E5%9E%95%E5%88%86%E9%99%A2&src=vetmap&coordinate=gaode&callnative=1","route_id":"r1","route_name":"第1段","global_order":16},{"name":"磨街畜禽门诊","address":"磨街乡派出所路北西200米","phone":"18337484157;18638631808","category":"医疗保健服务;动物医疗场所;兽医站","area":"","lng":113.162285,"lat":34.155548,"amap_id":"B0FFJBCNYX","order":17,"prev_distance_km":6.574,"cumulative_distance_km":77.784,"amap_marker_url":"https://uri.amap.com/marker?position=113.162285,34.155548&name=%E7%A3%A8%E8%A1%97%E7%95%9C%E7%A6%BD%E9%97%A8%E8%AF%8A&src=vetmap&coordinate=gaode&callnative=1","route_id":"r1","route_name":"第1段","global_order":17}]}