{"summary":{"id":"d01230","province":"河南省","city":"洛阳市","district":"洛宁县","count":13,"total_distance_km":73.121,"coordinate_system":"GCJ-02 / Amap","generated_at":"2026-05-07 19:57:40"},"rows":[{"name":"兽医门诊","address":"343国道与026乡道交叉口东120米","phone":"","category":"医疗保健服务;动物医疗场所;兽医站","area":"","lng":111.258104,"lat":34.351385,"amap_id":"B0FFMH9TYO","order":1,"prev_distance_km":0.0,"cumulative_distance_km":0.0,"amap_marker_url":"https://uri.amap.com/marker?position=111.258104,34.351385&name=%E5%85%BD%E5%8C%BB%E9%97%A8%E8%AF%8A&src=vetmap&coordinate=gaode&callnative=1"},{"name":"老李兽医门诊","address":"罗岭加油站(罗岭乡)西侧160米","phone":"","category":"医疗保健服务;动物医疗场所;兽医站","area":"","lng":111.395322,"lat":34.371791,"amap_id":"B0JBMR48IT","order":2,"prev_distance_km":12.798,"cumulative_distance_km":12.798,"amap_marker_url":"https://uri.amap.com/marker?position=111.395322,34.371791&name=%E8%80%81%E6%9D%8E%E5%85%BD%E5%8C%BB%E9%97%A8%E8%AF%8A&src=vetmap&coordinate=gaode&callnative=1"},{"name":"兽医站","address":"洛书东路与八号胡同交叉口西北20米","phone":"","category":"医疗保健服务;动物医疗场所;兽医站","area":"","lng":111.460505,"lat":34.343609,"amap_id":"B0I33UUEOD","order":3,"prev_distance_km":6.754,"cumulative_distance_km":19.552,"amap_marker_url":"https://uri.amap.com/marker?position=111.460505,34.343609&name=%E5%85%BD%E5%8C%BB%E7%AB%99&src=vetmap&coordinate=gaode&callnative=1"},{"name":"洛宁县畜牧局兴华畜牧兽医中心站","address":"全圣路与翠竹路交叉口北200米","phone":"","category":"医疗保健服务;动物医疗场所;兽医站","area":"","lng":111.436351,"lat":34.25903,"amap_id":"B0GK1SY4NW","order":4,"prev_distance_km":9.663,"cumulative_distance_km":29.215,"amap_marker_url":"https://uri.amap.com/marker?position=111.436351,34.259030&name=%E6%B4%9B%E5%AE%81%E5%8E%BF%E7%95%9C%E7%89%A7%E5%B1%80%E5%85%B4%E5%8D%8E%E7%95%9C%E7%89%A7%E5%85%BD%E5%8C%BB%E4%B8%AD%E5%BF%83%E7%AB%99&src=vetmap&coordinate=gaode&callnative=1"},{"name":"朋益兽药技术服务部","address":"西王村小学西侧140米","phone":"","category":"医疗保健服务;动物医疗场所;动物医疗场所","area":"","lng":111.591674,"lat":34.354763,"amap_id":"B0LRYKUBNW","order":5,"prev_distance_km":17.8,"cumulative_distance_km":47.016,"amap_marker_url":"https://uri.amap.com/marker?position=111.591674,34.354763&name=%E6%9C%8B%E7%9B%8A%E5%85%BD%E8%8D%AF%E6%8A%80%E6%9C%AF%E6%9C%8D%E5%8A%A1%E9%83%A8&src=vetmap&coordinate=gaode&callnative=1"},{"name":"吉祥宠物门诊","address":"长虹路公园壹号一期13栋门面","phone":"13015599862;15781087759","category":"医疗保健服务;动物医疗场所;宠物诊所","area":"","lng":111.642759,"lat":34.378695,"amap_id":"B0KA4LJAIB","order":6,"prev_distance_km":5.391,"cumulative_distance_km":52.407,"amap_marker_url":"https://uri.amap.com/marker?position=111.642759,34.378695&name=%E5%90%89%E7%A5%A5%E5%AE%A0%E7%89%A9%E9%97%A8%E8%AF%8A&src=vetmap&coordinate=gaode&callnative=1"},{"name":"老张宠物诊所","address":"回族镇","phone":"13838811127","category":"医疗保健服务;动物医疗场所;宠物诊所","area":"","lng":111.636948,"lat":34.386749,"amap_id":"B0FFG3FYHK","order":7,"prev_distance_km":1.042,"cumulative_distance_km":53.449,"amap_marker_url":"https://uri.amap.com/marker?position=111.636948,34.386749&name=%E8%80%81%E5%BC%A0%E5%AE%A0%E7%89%A9%E8%AF%8A%E6%89%80&src=vetmap&coordinate=gaode&callnative=1"},{"name":"范玉梅兽药门市","address":"洛浦西路医药公司楼下过道东侧第三四间","phone":"15037958998","category":"医疗保健服务;动物医疗场所;兽医站","area":"","lng":111.646565,"lat":34.386492,"amap_id":"B0FFH45RQG","order":8,"prev_distance_km":0.883,"cumulative_distance_km":54.332,"amap_marker_url":"https://uri.amap.com/marker?position=111.646565,34.386492&name=%E8%8C%83%E7%8E%89%E6%A2%85%E5%85%BD%E8%8D%AF%E9%97%A8%E5%B8%82&src=vetmap&coordinate=gaode&callnative=1"},{"name":"洛宁县狗窝宠物医院","address":"福宁大道金沙酒店东200米路北金海福地小区门口","phone":"15037937999","category":"医疗保健服务;动物医疗场所;宠物诊所","area":"","lng":111.653558,"lat":34.380826,"amap_id":"B0ID47NR19","order":9,"prev_distance_km":0.899,"cumulative_distance_km":55.232,"amap_marker_url":"https://uri.amap.com/marker?position=111.653558,34.380826&name=%E6%B4%9B%E5%AE%81%E5%8E%BF%E7%8B%97%E7%AA%9D%E5%AE%A0%E7%89%A9%E5%8C%BB%E9%99%A2&src=vetmap&coordinate=gaode&callnative=1"},{"name":"爱宠一生宠物店","address":"文昌路与永宁大道交叉口北200米","phone":"13526906050;18336744714","category":"医疗保健服务;动物医疗场所;宠物诊所","area":"","lng":111.666956,"lat":34.386804,"amap_id":"B0FFIFPKSQ","order":10,"prev_distance_km":1.398,"cumulative_distance_km":56.629,"amap_marker_url":"https://uri.amap.com/marker?position=111.666956,34.386804&name=%E7%88%B1%E5%AE%A0%E4%B8%80%E7%94%9F%E5%AE%A0%E7%89%A9%E5%BA%97&src=vetmap&coordinate=gaode&callnative=1"},{"name":"恒缘宠物医院(洛宁永宁大道分店)","address":"永宁大道与建设路交叉口向东150米路北","phone":"15238379717","category":"医疗保健服务;动物医疗场所;宠物诊所","area":"","lng":111.67496,"lat":34.386676,"amap_id":"B0HRZCNC2H","order":11,"prev_distance_km":0.735,"cumulative_distance_km":57.364,"amap_marker_url":"https://uri.amap.com/marker?position=111.674960,34.386676&name=%E6%81%92%E7%BC%98%E5%AE%A0%E7%89%A9%E5%8C%BB%E9%99%A2%28%E6%B4%9B%E5%AE%81%E6%B0%B8%E5%AE%81%E5%A4%A7%E9%81%93%E5%88%86%E5%BA%97%29&src=vetmap&coordinate=gaode&callnative=1"},{"name":"畜牧服务站","address":"崛马线与广安路交叉口东南300米","phone":"","category":"医疗保健服务;动物医疗场所;兽医站","area":"","lng":111.718425,"lat":34.453423,"amap_id":"B0HBTL3R50","order":12,"prev_distance_km":8.425,"cumulative_distance_km":65.789,"amap_marker_url":"https://uri.amap.com/marker?position=111.718425,34.453423&name=%E7%95%9C%E7%89%A7%E6%9C%8D%E5%8A%A1%E7%AB%99&src=vetmap&coordinate=gaode&callnative=1"},{"name":"杨坡兽医站","address":"杨牛路与后官线交叉口东南120米","phone":"","category":"医疗保健服务;动物医疗场所;兽医站","area":"","lng":111.730249,"lat":34.518636,"amap_id":"B0H6B5E382","order":13,"prev_distance_km":7.332,"cumulative_distance_km":73.121,"amap_marker_url":"https://uri.amap.com/marker?position=111.730249,34.518636&name=%E6%9D%A8%E5%9D%A1%E5%85%BD%E5%8C%BB%E7%AB%99&src=vetmap&coordinate=gaode&callnative=1"}]}