{"summary":{"id":"d01209","province":"河南省","city":"开封市","district":"龙亭区","count":37,"route_count":1,"max_route_clinics":37,"total_distance_km":34.501,"coordinate_system":"GCJ-02 / Amap","generated_at":"2026-05-07 21:29:36"},"routes":[{"id":"r1","name":"第1段","count":37,"total_distance_km":34.501,"rows":[{"name":"华夏祥源动物医院(御景湾店)","address":"晋开御景湾西门南110米","phone":"19837896725","category":"医疗保健服务;动物医疗场所;宠物诊所","area":"","lng":114.381077,"lat":34.815808,"amap_id":"B0H6NSFFZM","order":1,"prev_distance_km":0.0,"cumulative_distance_km":0.0,"amap_marker_url":"https://uri.amap.com/marker?position=114.381077,34.815808&name=%E5%8D%8E%E5%A4%8F%E7%A5%A5%E6%BA%90%E5%8A%A8%E7%89%A9%E5%8C%BB%E9%99%A2%28%E5%BE%A1%E6%99%AF%E6%B9%BE%E5%BA%97%29&src=vetmap&coordinate=gaode&callnative=1","route_id":"r1","route_name":"第1段"},{"name":"佑宠动物医院门诊部","address":"东环北路与仁和馨园北路交叉口南220米","phone":"","category":"医疗保健服务;动物医疗场所;宠物诊所","area":"","lng":114.377119,"lat":34.821766,"amap_id":"B0I077OBJG","order":2,"prev_distance_km":0.755,"cumulative_distance_km":0.755,"amap_marker_url":"https://uri.amap.com/marker?position=114.377119,34.821766&name=%E4%BD%91%E5%AE%A0%E5%8A%A8%E7%89%A9%E5%8C%BB%E9%99%A2%E9%97%A8%E8%AF%8A%E9%83%A8&src=vetmap&coordinate=gaode&callnative=1","route_id":"r1","route_name":"第1段"},{"name":"宠爱康黄河动物诊所","address":"亿兴乳业南门旁","phone":"13083889042;13623782392","category":"医疗保健服务;动物医疗场所;宠物诊所","area":"","lng":114.359484,"lat":34.829668,"amap_id":"B0HRVUT7S6","order":3,"prev_distance_km":1.834,"cumulative_distance_km":2.589,"amap_marker_url":"https://uri.amap.com/marker?position=114.359484,34.829668&name=%E5%AE%A0%E7%88%B1%E5%BA%B7%E9%BB%84%E6%B2%B3%E5%8A%A8%E7%89%A9%E8%AF%8A%E6%89%80&src=vetmap&coordinate=gaode&callnative=1","route_id":"r1","route_name":"第1段"},{"name":"王龙宠物诊所","address":"西环路与东京大道交叉口南220米","phone":"13592126182","category":"医疗保健服务;动物医疗场所;宠物诊所","area":"","lng":114.328405,"lat":34.822356,"amap_id":"B0IDDCJ5IE","order":4,"prev_distance_km":2.951,"cumulative_distance_km":5.54,"amap_marker_url":"https://uri.amap.com/marker?position=114.328405,34.822356&name=%E7%8E%8B%E9%BE%99%E5%AE%A0%E7%89%A9%E8%AF%8A%E6%89%80&src=vetmap&coordinate=gaode&callnative=1","route_id":"r1","route_name":"第1段"},{"name":"巧虎动物医疗门诊","address":"黄河大街海洋幸福里西门南50米路东14号楼1-2层102铺","phone":"15837870896","category":"医疗保健服务;动物医疗场所;宠物诊所","area":"","lng":114.32412,"lat":34.828607,"amap_id":"B0L11RM57Y","order":5,"prev_distance_km":0.798,"cumulative_distance_km":6.337,"amap_marker_url":"https://uri.amap.com/marker?position=114.324120,34.828607&name=%E5%B7%A7%E8%99%8E%E5%8A%A8%E7%89%A9%E5%8C%BB%E7%96%97%E9%97%A8%E8%AF%8A&src=vetmap&coordinate=gaode&callnative=1","route_id":"r1","route_name":"第1段"},{"name":"田大夫宠物医院鼎立店","address":"西郊乡黄河大街北段鼎立国际A区19号楼108号营业房1-2层","phone":"15736884499","category":"医疗保健服务;动物医疗场所;宠物诊所","area":"","lng":114.322418,"lat":34.822659,"amap_id":"B0GKXADDW1","order":6,"prev_distance_km":0.679,"cumulative_distance_km":7.017,"amap_marker_url":"https://uri.amap.com/marker?position=114.322418,34.822659&name=%E7%94%B0%E5%A4%A7%E5%A4%AB%E5%AE%A0%E7%89%A9%E5%8C%BB%E9%99%A2%E9%BC%8E%E7%AB%8B%E5%BA%97&src=vetmap&coordinate=gaode&callnative=1","route_id":"r1","route_name":"第1段"},{"name":"初欣宠物医院","address":"金耀路26号","phone":"","category":"医疗保健服务;动物医疗场所;宠物诊所","area":"","lng":114.320971,"lat":34.812628,"amap_id":"B0MBNUSYFI","order":7,"prev_distance_km":1.123,"cumulative_distance_km":8.14,"amap_marker_url":"https://uri.amap.com/marker?position=114.320971,34.812628&name=%E5%88%9D%E6%AC%A3%E5%AE%A0%E7%89%A9%E5%8C%BB%E9%99%A2&src=vetmap&coordinate=gaode&callnative=1","route_id":"r1","route_name":"第1段"},{"name":"江南宠物医院","address":"金耀路西段32号","phone":"19939588835","category":"医疗保健服务;动物医疗场所;宠物诊所","area":"","lng":114.320582,"lat":34.812486,"amap_id":"B0LUTA68LL","order":8,"prev_distance_km":0.039,"cumulative_distance_km":8.179,"amap_marker_url":"https://uri.amap.com/marker?position=114.320582,34.812486&name=%E6%B1%9F%E5%8D%97%E5%AE%A0%E7%89%A9%E5%8C%BB%E9%99%A2&src=vetmap&coordinate=gaode&callnative=1","route_id":"r1","route_name":"第1段"},{"name":"开封宠健宠物医院(星光天地店)","address":"黄河大街北段金悦湾7号楼1130临街商铺1-2层","phone":"0371-23259789;13693900624;19137976456","category":"医疗保健服务;动物医疗场所;宠物诊所","area":"","lng":114.323185,"lat":34.809268,"amap_id":"B0H0BRZAR5","order":9,"prev_distance_km":0.43,"cumulative_distance_km":8.608,"amap_marker_url":"https://uri.amap.com/marker?position=114.323185,34.809268&name=%E5%BC%80%E5%B0%81%E5%AE%A0%E5%81%A5%E5%AE%A0%E7%89%A9%E5%8C%BB%E9%99%A2%28%E6%98%9F%E5%85%89%E5%A4%A9%E5%9C%B0%E5%BA%97%29&src=vetmap&coordinate=gaode&callnative=1","route_id":"r1","route_name":"第1段"},{"name":"晓晓宠物诊所(金耀路店)","address":"金耀路省一监斜对面小北岗新村1号","phone":"18637816546","category":"医疗保健服务;动物医疗场所;宠物诊所","area":"","lng":114.328495,"lat":34.812035,"amap_id":"B0KAKSPUP8","order":10,"prev_distance_km":0.574,"cumulative_distance_km":9.182,"amap_marker_url":"https://uri.amap.com/marker?position=114.328495,34.812035&name=%E6%99%93%E6%99%93%E5%AE%A0%E7%89%A9%E8%AF%8A%E6%89%80%28%E9%87%91%E8%80%80%E8%B7%AF%E5%BA%97%29&src=vetmap&coordinate=gaode&callnative=1","route_id":"r1","route_name":"第1段"},{"name":"星云宠物医院","address":"育新街雅居美域1号楼6号","phone":"15237831212","category":"医疗保健服务;动物医疗场所;宠物诊所","area":"","lng":114.328009,"lat":34.804955,"amap_id":"B0FFK087K3","order":11,"prev_distance_km":0.789,"cumulative_distance_km":9.971,"amap_marker_url":"https://uri.amap.com/marker?position=114.328009,34.804955&name=%E6%98%9F%E4%BA%91%E5%AE%A0%E7%89%A9%E5%8C%BB%E9%99%A2&src=vetmap&coordinate=gaode&callnative=1","route_id":"r1","route_name":"第1段"},{"name":"宠信宠物诊所(大梁路店)","address":"大梁路马市街小学北口往东100米路南","phone":"","category":"医疗保健服务;动物医疗场所;宠物诊所","area":"","lng":114.327752,"lat":34.8013,"amap_id":"B0FFLDL6H4","order":12,"prev_distance_km":0.407,"cumulative_distance_km":10.378,"amap_marker_url":"https://uri.amap.com/marker?position=114.327752,34.801300&name=%E5%AE%A0%E4%BF%A1%E5%AE%A0%E7%89%A9%E8%AF%8A%E6%89%80%28%E5%A4%A7%E6%A2%81%E8%B7%AF%E5%BA%97%29&src=vetmap&coordinate=gaode&callnative=1","route_id":"r1","route_name":"第1段"},{"name":"东京宠物医院","address":"黄河路与晋安路交叉口往北50米路东","phone":"13723265734","category":"医疗保健服务;动物医疗场所;宠物诊所","area":"","lng":114.322072,"lat":34.797557,"amap_id":"B017A0N277","order":13,"prev_distance_km":0.665,"cumulative_distance_km":11.043,"amap_marker_url":"https://uri.amap.com/marker?position=114.322072,34.797557&name=%E4%B8%9C%E4%BA%AC%E5%AE%A0%E7%89%A9%E5%8C%BB%E9%99%A2&src=vetmap&coordinate=gaode&callnative=1","route_id":"r1","route_name":"第1段"},{"name":"小蓝宠物医院","address":"汉兴路汉兴上品南门1号楼1/2层7号门面房","phone":"16697848866","category":"医疗保健服务;动物医疗场所;宠物诊所","area":"汉兴路沿线","lng":114.325289,"lat":34.791587,"amap_id":"B0M6NSELC3","order":14,"prev_distance_km":0.726,"cumulative_distance_km":11.769,"amap_marker_url":"https://uri.amap.com/marker?position=114.325289,34.791587&name=%E5%B0%8F%E8%93%9D%E5%AE%A0%E7%89%A9%E5%8C%BB%E9%99%A2&src=vetmap&coordinate=gaode&callnative=1","route_id":"r1","route_name":"第1段"},{"name":"优越宠物诊疗","address":"弘福花园西门北80米","phone":"15565128120","category":"医疗保健服务;动物医疗场所;宠物诊所","area":"汉兴路沿线","lng":114.321635,"lat":34.793337,"amap_id":"B0JA7AXPHN","order":15,"prev_distance_km":0.386,"cumulative_distance_km":12.155,"amap_marker_url":"https://uri.amap.com/marker?position=114.321635,34.793337&name=%E4%BC%98%E8%B6%8A%E5%AE%A0%E7%89%A9%E8%AF%8A%E7%96%97&src=vetmap&coordinate=gaode&callnative=1","route_id":"r1","route_name":"第1段"},{"name":"德宠动物医院","address":"汉兴路永合花园南排2号楼东数1号","phone":"","category":"医疗保健服务;动物医疗场所;宠物诊所","area":"汉兴路沿线","lng":114.318185,"lat":34.792163,"amap_id":"B0LKKCO043","order":16,"prev_distance_km":0.341,"cumulative_distance_km":12.496,"amap_marker_url":"https://uri.amap.com/marker?position=114.318185,34.792163&name=%E5%BE%B7%E5%AE%A0%E5%8A%A8%E7%89%A9%E5%8C%BB%E9%99%A2&src=vetmap&coordinate=gaode&callnative=1","route_id":"r1","route_name":"第1段"},{"name":"乐贝宠物生活馆(康乐家园西赵屯集资楼店)","address":"黄河大街康乐家园西赵屯集资楼一号楼一号","phone":"18737851177","category":"医疗保健服务;动物医疗场所;宠物诊所","area":"汉兴路沿线","lng":114.317432,"lat":34.789312,"amap_id":"B0FFJRCTOA","order":17,"prev_distance_km":0.324,"cumulative_distance_km":12.821,"amap_marker_url":"https://uri.amap.com/marker?position=114.317432,34.789312&name=%E4%B9%90%E8%B4%9D%E5%AE%A0%E7%89%A9%E7%94%9F%E6%B4%BB%E9%A6%86%28%E5%BA%B7%E4%B9%90%E5%AE%B6%E5%9B%AD%E8%A5%BF%E8%B5%B5%E5%B1%AF%E9%9B%86%E8%B5%84%E6%A5%BC%E5%BA%97%29&src=vetmap&coordinate=gaode&callnative=1","route_id":"r1","route_name":"第1段"},{"name":"宠爱医生宠物医疗美容诊所","address":"宋城路康太家园","phone":"17839217699","category":"医疗保健服务;动物医疗场所;宠物诊所","area":"","lng":114.318828,"lat":34.786419,"amap_id":"B0FFLA7FW5","order":18,"prev_distance_km":0.346,"cumulative_distance_km":13.167,"amap_marker_url":"https://uri.amap.com/marker?position=114.318828,34.786419&name=%E5%AE%A0%E7%88%B1%E5%8C%BB%E7%94%9F%E5%AE%A0%E7%89%A9%E5%8C%BB%E7%96%97%E7%BE%8E%E5%AE%B9%E8%AF%8A%E6%89%80&src=vetmap&coordinate=gaode&callnative=1","route_id":"r1","route_name":"第1段"},{"name":"阿超宠物诊所","address":"黄河大街紫竹苑小区5号营业房","phone":"16697848866","category":"医疗保健服务;动物医疗场所;宠物诊所","area":"","lng":114.319807,"lat":34.782395,"amap_id":"B0ID4SNVIT","order":19,"prev_distance_km":0.456,"cumulative_distance_km":13.623,"amap_marker_url":"https://uri.amap.com/marker?position=114.319807,34.782395&name=%E9%98%BF%E8%B6%85%E5%AE%A0%E7%89%A9%E8%AF%8A%E6%89%80&src=vetmap&coordinate=gaode&callnative=1","route_id":"r1","route_name":"第1段"},{"name":"联宠福泽嘉宠动物中心医院","address":"夷山大街","phone":"13353815120;16568743456","category":"医疗保健服务;动物医疗场所;宠物诊所","area":"汉兴路沿线","lng":114.311531,"lat":34.794396,"amap_id":"B0H1N9CNZA","order":20,"prev_distance_km":1.534,"cumulative_distance_km":15.156,"amap_marker_url":"https://uri.amap.com/marker?position=114.311531,34.794396&name=%E8%81%94%E5%AE%A0%E7%A6%8F%E6%B3%BD%E5%98%89%E5%AE%A0%E5%8A%A8%E7%89%A9%E4%B8%AD%E5%BF%83%E5%8C%BB%E9%99%A2&src=vetmap&coordinate=gaode&callnative=1","route_id":"r1","route_name":"第1段"},{"name":"瑞宠国际动物医院·CT.内窥镜转诊中心","address":"夷山苑小区1号楼南段一、二层连体02、03号","phone":"13353815120;13937899872","category":"医疗保健服务;动物医疗场所;宠物诊所","area":"汉兴路沿线","lng":114.311586,"lat":34.794513,"amap_id":"B0LA27JBK9","order":21,"prev_distance_km":0.014,"cumulative_distance_km":15.17,"amap_marker_url":"https://uri.amap.com/marker?position=114.311586,34.794513&name=%E7%91%9E%E5%AE%A0%E5%9B%BD%E9%99%85%E5%8A%A8%E7%89%A9%E5%8C%BB%E9%99%A2%C2%B7CT.%E5%86%85%E7%AA%A5%E9%95%9C%E8%BD%AC%E8%AF%8A%E4%B8%AD%E5%BF%83&src=vetmap&coordinate=gaode&callnative=1","route_id":"r1","route_name":"第1段"},{"name":"宠乐佳宠物医疗诊所","address":"集英街96号","phone":"18568640361","category":"医疗保健服务;动物医疗场所;宠物诊所","area":"汉兴路沿线","lng":114.291025,"lat":34.791223,"amap_id":"B0FFFYSJTC","order":22,"prev_distance_km":1.913,"cumulative_distance_km":17.083,"amap_marker_url":"https://uri.amap.com/marker?position=114.291025,34.791223&name=%E5%AE%A0%E4%B9%90%E4%BD%B3%E5%AE%A0%E7%89%A9%E5%8C%BB%E7%96%97%E8%AF%8A%E6%89%80&src=vetmap&coordinate=gaode&callnative=1","route_id":"r1","route_name":"第1段"},{"name":"骄阳宠物诊疗中心(集英街店)","address":"回龙庙新村东1门北100米","phone":"","category":"医疗保健服务;动物医疗场所;宠物诊所","area":"汉兴路沿线","lng":114.290284,"lat":34.790936,"amap_id":"B0L6UASQAL","order":23,"prev_distance_km":0.075,"cumulative_distance_km":17.158,"amap_marker_url":"https://uri.amap.com/marker?position=114.290284,34.790936&name=%E9%AA%84%E9%98%B3%E5%AE%A0%E7%89%A9%E8%AF%8A%E7%96%97%E4%B8%AD%E5%BF%83%28%E9%9B%86%E8%8B%B1%E8%A1%97%E5%BA%97%29&src=vetmap&coordinate=gaode&callnative=1","route_id":"r1","route_name":"第1段"},{"name":"田大夫宠物医疗转诊中心·犬猫影像科(西湖翠庭院区)","address":"西湖翠庭小区1号楼9号","phone":"13837867910","category":"医疗保健服务;动物医疗场所;宠物诊所","area":"汉兴路沿线","lng":114.289346,"lat":34.791578,"amap_id":"B0LB45HV66","order":24,"prev_distance_km":0.112,"cumulative_distance_km":17.27,"amap_marker_url":"https://uri.amap.com/marker?position=114.289346,34.791578&name=%E7%94%B0%E5%A4%A7%E5%A4%AB%E5%AE%A0%E7%89%A9%E5%8C%BB%E7%96%97%E8%BD%AC%E8%AF%8A%E4%B8%AD%E5%BF%83%C2%B7%E7%8A%AC%E7%8C%AB%E5%BD%B1%E5%83%8F%E7%A7%91%28%E8%A5%BF%E6%B9%96%E7%BF%A0%E5%BA%AD%E9%99%A2%E5%8C%BA%29&src=vetmap&coordinate=gaode&callnative=1","route_id":"r1","route_name":"第1段"},{"name":"郑州宠健宠物医院开元店","address":"集英街晋安路交叉口向东100米路南晋安路403号","phone":"19337829456","category":"医疗保健服务;动物医疗场所;宠物诊所","area":"","lng":114.291983,"lat":34.796799,"amap_id":"B0HBFR053G","order":25,"prev_distance_km":0.629,"cumulative_distance_km":17.898,"amap_marker_url":"https://uri.amap.com/marker?position=114.291983,34.796799&name=%E9%83%91%E5%B7%9E%E5%AE%A0%E5%81%A5%E5%AE%A0%E7%89%A9%E5%8C%BB%E9%99%A2%E5%BC%80%E5%85%83%E5%BA%97&src=vetmap&coordinate=gaode&callnative=1","route_id":"r1","route_name":"第1段"},{"name":"宠添福宠物诊疗","address":"八一商业街","phone":"16613888816","category":"医疗保健服务;动物医疗场所;宠物诊所","area":"","lng":114.29244,"lat":34.802901,"amap_id":"B0H3J62OWT","order":26,"prev_distance_km":0.68,"cumulative_distance_km":18.578,"amap_marker_url":"https://uri.amap.com/marker?position=114.292440,34.802901&name=%E5%AE%A0%E6%B7%BB%E7%A6%8F%E5%AE%A0%E7%89%A9%E8%AF%8A%E7%96%97&src=vetmap&coordinate=gaode&callnative=1","route_id":"r1","route_name":"第1段"},{"name":"康园宠物诊所","address":"郑开大道与集英街交叉口东100米路北(八一商业街33号)","phone":"18937831533","category":"医疗保健服务;动物医疗场所;宠物诊所","area":"","lng":114.292295,"lat":34.803666,"amap_id":"B0FFI6TXLZ","order":27,"prev_distance_km":0.086,"cumulative_distance_km":18.664,"amap_marker_url":"https://uri.amap.com/marker?position=114.292295,34.803666&name=%E5%BA%B7%E5%9B%AD%E5%AE%A0%E7%89%A9%E8%AF%8A%E6%89%80&src=vetmap&coordinate=gaode&callnative=1","route_id":"r1","route_name":"第1段"},{"name":"乐来宠物医院","address":"晖达·温莎尚郡","phone":"18697781005","category":"医疗保健服务;动物医疗场所;宠物诊所","area":"","lng":114.299531,"lat":34.809275,"amap_id":"B0HGRHN127","order":28,"prev_distance_km":0.909,"cumulative_distance_km":19.573,"amap_marker_url":"https://uri.amap.com/marker?position=114.299531,34.809275&name=%E4%B9%90%E6%9D%A5%E5%AE%A0%E7%89%A9%E5%8C%BB%E9%99%A2&src=vetmap&coordinate=gaode&callnative=1","route_id":"r1","route_name":"第1段"},{"name":"开封宠健宠物医院(文绣店)","address":"龙亭区示范区集英街北段文绣花园商业房27号","phone":"13353830599","category":"医疗保健服务;动物医疗场所;宠物诊所","area":"","lng":114.290786,"lat":34.811303,"amap_id":"B0JD75F2R8","order":29,"prev_distance_km":0.83,"cumulative_distance_km":20.402,"amap_marker_url":"https://uri.amap.com/marker?position=114.290786,34.811303&name=%E5%BC%80%E5%B0%81%E5%AE%A0%E5%81%A5%E5%AE%A0%E7%89%A9%E5%8C%BB%E9%99%A2%28%E6%96%87%E7%BB%A3%E5%BA%97%29&src=vetmap&coordinate=gaode&callnative=1","route_id":"r1","route_name":"第1段"},{"name":"它爱宠物医院","address":"示范区集英街星联岚溪府15号楼108商铺","phone":"19603789191","category":"医疗保健服务;动物医疗场所;宠物诊所","area":"","lng":114.295395,"lat":34.820765,"amap_id":"B0JKO5JW1Z","order":30,"prev_distance_km":1.133,"cumulative_distance_km":21.535,"amap_marker_url":"https://uri.amap.com/marker?position=114.295395,34.820765&name=%E5%AE%83%E7%88%B1%E5%AE%A0%E7%89%A9%E5%8C%BB%E9%99%A2&src=vetmap&coordinate=gaode&callnative=1","route_id":"r1","route_name":"第1段"},{"name":"萌之宠动物诊疗中心","address":"安平路与二大街交叉口东100米","phone":"","category":"医疗保健服务;动物医疗场所;宠物诊所","area":"","lng":114.272571,"lat":34.814658,"amap_id":"B0KK41YS5K","order":31,"prev_distance_km":2.191,"cumulative_distance_km":23.727,"amap_marker_url":"https://uri.amap.com/marker?position=114.272571,34.814658&name=%E8%90%8C%E4%B9%8B%E5%AE%A0%E5%8A%A8%E7%89%A9%E8%AF%8A%E7%96%97%E4%B8%AD%E5%BF%83&src=vetmap&coordinate=gaode&callnative=1","route_id":"r1","route_name":"第1段"},{"name":"佰特动物医院","address":"金耀路湖畔家苑c9号楼1-2层104号","phone":"15540755016","category":"医疗保健服务;动物医疗场所;宠物诊所","area":"","lng":114.252648,"lat":34.817461,"amap_id":"B0L0LH9MB4","order":32,"prev_distance_km":1.845,"cumulative_distance_km":25.572,"amap_marker_url":"https://uri.amap.com/marker?position=114.252648,34.817461&name=%E4%BD%B0%E7%89%B9%E5%8A%A8%E7%89%A9%E5%8C%BB%E9%99%A2&src=vetmap&coordinate=gaode&callnative=1","route_id":"r1","route_name":"第1段"},{"name":"晓晓宠物医院","address":"中意湖路恒大帝景北苑5号楼104商铺","phone":"18637815327;18637816544","category":"医疗保健服务;动物医疗场所;宠物诊所","area":"","lng":114.240491,"lat":34.809302,"amap_id":"B0LGSARD3I","order":33,"prev_distance_km":1.433,"cumulative_distance_km":27.005,"amap_marker_url":"https://uri.amap.com/marker?position=114.240491,34.809302&name=%E6%99%93%E6%99%93%E5%AE%A0%E7%89%A9%E5%8C%BB%E9%99%A2&src=vetmap&coordinate=gaode&callnative=1","route_id":"r1","route_name":"第1段"},{"name":"开封宠健宠物医院(碧桂园店)","address":"晋安路四大街碧桂园小区1-3-08","phone":"18317836808","category":"医疗保健服务;动物医疗场所;宠物诊所","area":"","lng":114.261003,"lat":34.797058,"amap_id":"B0FFLPUE9D","order":34,"prev_distance_km":2.315,"cumulative_distance_km":29.321,"amap_marker_url":"https://uri.amap.com/marker?position=114.261003,34.797058&name=%E5%BC%80%E5%B0%81%E5%AE%A0%E5%81%A5%E5%AE%A0%E7%89%A9%E5%8C%BB%E9%99%A2%28%E7%A2%A7%E6%A1%82%E5%9B%AD%E5%BA%97%29&src=vetmap&coordinate=gaode&callnative=1","route_id":"r1","route_name":"第1段"},{"name":"乐宠宠物医院(万达店)","address":"悦都商铺10号","phone":"18537828603","category":"医疗保健服务;动物医疗场所;宠物诊所","area":"","lng":114.266599,"lat":34.798118,"amap_id":"B0HG9HP8KW","order":35,"prev_distance_km":0.524,"cumulative_distance_km":29.845,"amap_marker_url":"https://uri.amap.com/marker?position=114.266599,34.798118&name=%E4%B9%90%E5%AE%A0%E5%AE%A0%E7%89%A9%E5%8C%BB%E9%99%A2%28%E4%B8%87%E8%BE%BE%E5%BA%97%29&src=vetmap&coordinate=gaode&callnative=1","route_id":"r1","route_name":"第1段"},{"name":"郑州牧专兽医院(开封分院)","address":"榆杏大道与陇海三路交叉口北140米","phone":"0371-23111456","category":"医疗保健服务;动物医疗场所;兽医站","area":"","lng":114.261054,"lat":34.766118,"amap_id":"B0G0XS02G7","order":36,"prev_distance_km":3.594,"cumulative_distance_km":33.439,"amap_marker_url":"https://uri.amap.com/marker?position=114.261054,34.766118&name=%E9%83%91%E5%B7%9E%E7%89%A7%E4%B8%93%E5%85%BD%E5%8C%BB%E9%99%A2%28%E5%BC%80%E5%B0%81%E5%88%86%E9%99%A2%29&src=vetmap&coordinate=gaode&callnative=1","route_id":"r1","route_name":"第1段"},{"name":"饲料经销","address":"杏花营镇榆杏大道18号","phone":"15093647221","category":"医疗保健服务;动物医疗场所;宠物诊所","area":"","lng":114.261379,"lat":34.756575,"amap_id":"B0FFL0B286","order":37,"prev_distance_km":1.062,"cumulative_distance_km":34.501,"amap_marker_url":"https://uri.amap.com/marker?position=114.261379,34.756575&name=%E9%A5%B2%E6%96%99%E7%BB%8F%E9%94%80&src=vetmap&coordinate=gaode&callnative=1","route_id":"r1","route_name":"第1段"}]}],"rows":[{"name":"华夏祥源动物医院(御景湾店)","address":"晋开御景湾西门南110米","phone":"19837896725","category":"医疗保健服务;动物医疗场所;宠物诊所","area":"","lng":114.381077,"lat":34.815808,"amap_id":"B0H6NSFFZM","order":1,"prev_distance_km":0.0,"cumulative_distance_km":0.0,"amap_marker_url":"https://uri.amap.com/marker?position=114.381077,34.815808&name=%E5%8D%8E%E5%A4%8F%E7%A5%A5%E6%BA%90%E5%8A%A8%E7%89%A9%E5%8C%BB%E9%99%A2%28%E5%BE%A1%E6%99%AF%E6%B9%BE%E5%BA%97%29&src=vetmap&coordinate=gaode&callnative=1","route_id":"r1","route_name":"第1段","global_order":1},{"name":"佑宠动物医院门诊部","address":"东环北路与仁和馨园北路交叉口南220米","phone":"","category":"医疗保健服务;动物医疗场所;宠物诊所","area":"","lng":114.377119,"lat":34.821766,"amap_id":"B0I077OBJG","order":2,"prev_distance_km":0.755,"cumulative_distance_km":0.755,"amap_marker_url":"https://uri.amap.com/marker?position=114.377119,34.821766&name=%E4%BD%91%E5%AE%A0%E5%8A%A8%E7%89%A9%E5%8C%BB%E9%99%A2%E9%97%A8%E8%AF%8A%E9%83%A8&src=vetmap&coordinate=gaode&callnative=1","route_id":"r1","route_name":"第1段","global_order":2},{"name":"宠爱康黄河动物诊所","address":"亿兴乳业南门旁","phone":"13083889042;13623782392","category":"医疗保健服务;动物医疗场所;宠物诊所","area":"","lng":114.359484,"lat":34.829668,"amap_id":"B0HRVUT7S6","order":3,"prev_distance_km":1.834,"cumulative_distance_km":2.589,"amap_marker_url":"https://uri.amap.com/marker?position=114.359484,34.829668&name=%E5%AE%A0%E7%88%B1%E5%BA%B7%E9%BB%84%E6%B2%B3%E5%8A%A8%E7%89%A9%E8%AF%8A%E6%89%80&src=vetmap&coordinate=gaode&callnative=1","route_id":"r1","route_name":"第1段","global_order":3},{"name":"王龙宠物诊所","address":"西环路与东京大道交叉口南220米","phone":"13592126182","category":"医疗保健服务;动物医疗场所;宠物诊所","area":"","lng":114.328405,"lat":34.822356,"amap_id":"B0IDDCJ5IE","order":4,"prev_distance_km":2.951,"cumulative_distance_km":5.54,"amap_marker_url":"https://uri.amap.com/marker?position=114.328405,34.822356&name=%E7%8E%8B%E9%BE%99%E5%AE%A0%E7%89%A9%E8%AF%8A%E6%89%80&src=vetmap&coordinate=gaode&callnative=1","route_id":"r1","route_name":"第1段","global_order":4},{"name":"巧虎动物医疗门诊","address":"黄河大街海洋幸福里西门南50米路东14号楼1-2层102铺","phone":"15837870896","category":"医疗保健服务;动物医疗场所;宠物诊所","area":"","lng":114.32412,"lat":34.828607,"amap_id":"B0L11RM57Y","order":5,"prev_distance_km":0.798,"cumulative_distance_km":6.337,"amap_marker_url":"https://uri.amap.com/marker?position=114.324120,34.828607&name=%E5%B7%A7%E8%99%8E%E5%8A%A8%E7%89%A9%E5%8C%BB%E7%96%97%E9%97%A8%E8%AF%8A&src=vetmap&coordinate=gaode&callnative=1","route_id":"r1","route_name":"第1段","global_order":5},{"name":"田大夫宠物医院鼎立店","address":"西郊乡黄河大街北段鼎立国际A区19号楼108号营业房1-2层","phone":"15736884499","category":"医疗保健服务;动物医疗场所;宠物诊所","area":"","lng":114.322418,"lat":34.822659,"amap_id":"B0GKXADDW1","order":6,"prev_distance_km":0.679,"cumulative_distance_km":7.017,"amap_marker_url":"https://uri.amap.com/marker?position=114.322418,34.822659&name=%E7%94%B0%E5%A4%A7%E5%A4%AB%E5%AE%A0%E7%89%A9%E5%8C%BB%E9%99%A2%E9%BC%8E%E7%AB%8B%E5%BA%97&src=vetmap&coordinate=gaode&callnative=1","route_id":"r1","route_name":"第1段","global_order":6},{"name":"初欣宠物医院","address":"金耀路26号","phone":"","category":"医疗保健服务;动物医疗场所;宠物诊所","area":"","lng":114.320971,"lat":34.812628,"amap_id":"B0MBNUSYFI","order":7,"prev_distance_km":1.123,"cumulative_distance_km":8.14,"amap_marker_url":"https://uri.amap.com/marker?position=114.320971,34.812628&name=%E5%88%9D%E6%AC%A3%E5%AE%A0%E7%89%A9%E5%8C%BB%E9%99%A2&src=vetmap&coordinate=gaode&callnative=1","route_id":"r1","route_name":"第1段","global_order":7},{"name":"江南宠物医院","address":"金耀路西段32号","phone":"19939588835","category":"医疗保健服务;动物医疗场所;宠物诊所","area":"","lng":114.320582,"lat":34.812486,"amap_id":"B0LUTA68LL","order":8,"prev_distance_km":0.039,"cumulative_distance_km":8.179,"amap_marker_url":"https://uri.amap.com/marker?position=114.320582,34.812486&name=%E6%B1%9F%E5%8D%97%E5%AE%A0%E7%89%A9%E5%8C%BB%E9%99%A2&src=vetmap&coordinate=gaode&callnative=1","route_id":"r1","route_name":"第1段","global_order":8},{"name":"开封宠健宠物医院(星光天地店)","address":"黄河大街北段金悦湾7号楼1130临街商铺1-2层","phone":"0371-23259789;13693900624;19137976456","category":"医疗保健服务;动物医疗场所;宠物诊所","area":"","lng":114.323185,"lat":34.809268,"amap_id":"B0H0BRZAR5","order":9,"prev_distance_km":0.43,"cumulative_distance_km":8.608,"amap_marker_url":"https://uri.amap.com/marker?position=114.323185,34.809268&name=%E5%BC%80%E5%B0%81%E5%AE%A0%E5%81%A5%E5%AE%A0%E7%89%A9%E5%8C%BB%E9%99%A2%28%E6%98%9F%E5%85%89%E5%A4%A9%E5%9C%B0%E5%BA%97%29&src=vetmap&coordinate=gaode&callnative=1","route_id":"r1","route_name":"第1段","global_order":9},{"name":"晓晓宠物诊所(金耀路店)","address":"金耀路省一监斜对面小北岗新村1号","phone":"18637816546","category":"医疗保健服务;动物医疗场所;宠物诊所","area":"","lng":114.328495,"lat":34.812035,"amap_id":"B0KAKSPUP8","order":10,"prev_distance_km":0.574,"cumulative_distance_km":9.182,"amap_marker_url":"https://uri.amap.com/marker?position=114.328495,34.812035&name=%E6%99%93%E6%99%93%E5%AE%A0%E7%89%A9%E8%AF%8A%E6%89%80%28%E9%87%91%E8%80%80%E8%B7%AF%E5%BA%97%29&src=vetmap&coordinate=gaode&callnative=1","route_id":"r1","route_name":"第1段","global_order":10},{"name":"星云宠物医院","address":"育新街雅居美域1号楼6号","phone":"15237831212","category":"医疗保健服务;动物医疗场所;宠物诊所","area":"","lng":114.328009,"lat":34.804955,"amap_id":"B0FFK087K3","order":11,"prev_distance_km":0.789,"cumulative_distance_km":9.971,"amap_marker_url":"https://uri.amap.com/marker?position=114.328009,34.804955&name=%E6%98%9F%E4%BA%91%E5%AE%A0%E7%89%A9%E5%8C%BB%E9%99%A2&src=vetmap&coordinate=gaode&callnative=1","route_id":"r1","route_name":"第1段","global_order":11},{"name":"宠信宠物诊所(大梁路店)","address":"大梁路马市街小学北口往东100米路南","phone":"","category":"医疗保健服务;动物医疗场所;宠物诊所","area":"","lng":114.327752,"lat":34.8013,"amap_id":"B0FFLDL6H4","order":12,"prev_distance_km":0.407,"cumulative_distance_km":10.378,"amap_marker_url":"https://uri.amap.com/marker?position=114.327752,34.801300&name=%E5%AE%A0%E4%BF%A1%E5%AE%A0%E7%89%A9%E8%AF%8A%E6%89%80%28%E5%A4%A7%E6%A2%81%E8%B7%AF%E5%BA%97%29&src=vetmap&coordinate=gaode&callnative=1","route_id":"r1","route_name":"第1段","global_order":12},{"name":"东京宠物医院","address":"黄河路与晋安路交叉口往北50米路东","phone":"13723265734","category":"医疗保健服务;动物医疗场所;宠物诊所","area":"","lng":114.322072,"lat":34.797557,"amap_id":"B017A0N277","order":13,"prev_distance_km":0.665,"cumulative_distance_km":11.043,"amap_marker_url":"https://uri.amap.com/marker?position=114.322072,34.797557&name=%E4%B8%9C%E4%BA%AC%E5%AE%A0%E7%89%A9%E5%8C%BB%E9%99%A2&src=vetmap&coordinate=gaode&callnative=1","route_id":"r1","route_name":"第1段","global_order":13},{"name":"小蓝宠物医院","address":"汉兴路汉兴上品南门1号楼1/2层7号门面房","phone":"16697848866","category":"医疗保健服务;动物医疗场所;宠物诊所","area":"汉兴路沿线","lng":114.325289,"lat":34.791587,"amap_id":"B0M6NSELC3","order":14,"prev_distance_km":0.726,"cumulative_distance_km":11.769,"amap_marker_url":"https://uri.amap.com/marker?position=114.325289,34.791587&name=%E5%B0%8F%E8%93%9D%E5%AE%A0%E7%89%A9%E5%8C%BB%E9%99%A2&src=vetmap&coordinate=gaode&callnative=1","route_id":"r1","route_name":"第1段","global_order":14},{"name":"优越宠物诊疗","address":"弘福花园西门北80米","phone":"15565128120","category":"医疗保健服务;动物医疗场所;宠物诊所","area":"汉兴路沿线","lng":114.321635,"lat":34.793337,"amap_id":"B0JA7AXPHN","order":15,"prev_distance_km":0.386,"cumulative_distance_km":12.155,"amap_marker_url":"https://uri.amap.com/marker?position=114.321635,34.793337&name=%E4%BC%98%E8%B6%8A%E5%AE%A0%E7%89%A9%E8%AF%8A%E7%96%97&src=vetmap&coordinate=gaode&callnative=1","route_id":"r1","route_name":"第1段","global_order":15},{"name":"德宠动物医院","address":"汉兴路永合花园南排2号楼东数1号","phone":"","category":"医疗保健服务;动物医疗场所;宠物诊所","area":"汉兴路沿线","lng":114.318185,"lat":34.792163,"amap_id":"B0LKKCO043","order":16,"prev_distance_km":0.341,"cumulative_distance_km":12.496,"amap_marker_url":"https://uri.amap.com/marker?position=114.318185,34.792163&name=%E5%BE%B7%E5%AE%A0%E5%8A%A8%E7%89%A9%E5%8C%BB%E9%99%A2&src=vetmap&coordinate=gaode&callnative=1","route_id":"r1","route_name":"第1段","global_order":16},{"name":"乐贝宠物生活馆(康乐家园西赵屯集资楼店)","address":"黄河大街康乐家园西赵屯集资楼一号楼一号","phone":"18737851177","category":"医疗保健服务;动物医疗场所;宠物诊所","area":"汉兴路沿线","lng":114.317432,"lat":34.789312,"amap_id":"B0FFJRCTOA","order":17,"prev_distance_km":0.324,"cumulative_distance_km":12.821,"amap_marker_url":"https://uri.amap.com/marker?position=114.317432,34.789312&name=%E4%B9%90%E8%B4%9D%E5%AE%A0%E7%89%A9%E7%94%9F%E6%B4%BB%E9%A6%86%28%E5%BA%B7%E4%B9%90%E5%AE%B6%E5%9B%AD%E8%A5%BF%E8%B5%B5%E5%B1%AF%E9%9B%86%E8%B5%84%E6%A5%BC%E5%BA%97%29&src=vetmap&coordinate=gaode&callnative=1","route_id":"r1","route_name":"第1段","global_order":17},{"name":"宠爱医生宠物医疗美容诊所","address":"宋城路康太家园","phone":"17839217699","category":"医疗保健服务;动物医疗场所;宠物诊所","area":"","lng":114.318828,"lat":34.786419,"amap_id":"B0FFLA7FW5","order":18,"prev_distance_km":0.346,"cumulative_distance_km":13.167,"amap_marker_url":"https://uri.amap.com/marker?position=114.318828,34.786419&name=%E5%AE%A0%E7%88%B1%E5%8C%BB%E7%94%9F%E5%AE%A0%E7%89%A9%E5%8C%BB%E7%96%97%E7%BE%8E%E5%AE%B9%E8%AF%8A%E6%89%80&src=vetmap&coordinate=gaode&callnative=1","route_id":"r1","route_name":"第1段","global_order":18},{"name":"阿超宠物诊所","address":"黄河大街紫竹苑小区5号营业房","phone":"16697848866","category":"医疗保健服务;动物医疗场所;宠物诊所","area":"","lng":114.319807,"lat":34.782395,"amap_id":"B0ID4SNVIT","order":19,"prev_distance_km":0.456,"cumulative_distance_km":13.623,"amap_marker_url":"https://uri.amap.com/marker?position=114.319807,34.782395&name=%E9%98%BF%E8%B6%85%E5%AE%A0%E7%89%A9%E8%AF%8A%E6%89%80&src=vetmap&coordinate=gaode&callnative=1","route_id":"r1","route_name":"第1段","global_order":19},{"name":"联宠福泽嘉宠动物中心医院","address":"夷山大街","phone":"13353815120;16568743456","category":"医疗保健服务;动物医疗场所;宠物诊所","area":"汉兴路沿线","lng":114.311531,"lat":34.794396,"amap_id":"B0H1N9CNZA","order":20,"prev_distance_km":1.534,"cumulative_distance_km":15.156,"amap_marker_url":"https://uri.amap.com/marker?position=114.311531,34.794396&name=%E8%81%94%E5%AE%A0%E7%A6%8F%E6%B3%BD%E5%98%89%E5%AE%A0%E5%8A%A8%E7%89%A9%E4%B8%AD%E5%BF%83%E5%8C%BB%E9%99%A2&src=vetmap&coordinate=gaode&callnative=1","route_id":"r1","route_name":"第1段","global_order":20},{"name":"瑞宠国际动物医院·CT.内窥镜转诊中心","address":"夷山苑小区1号楼南段一、二层连体02、03号","phone":"13353815120;13937899872","category":"医疗保健服务;动物医疗场所;宠物诊所","area":"汉兴路沿线","lng":114.311586,"lat":34.794513,"amap_id":"B0LA27JBK9","order":21,"prev_distance_km":0.014,"cumulative_distance_km":15.17,"amap_marker_url":"https://uri.amap.com/marker?position=114.311586,34.794513&name=%E7%91%9E%E5%AE%A0%E5%9B%BD%E9%99%85%E5%8A%A8%E7%89%A9%E5%8C%BB%E9%99%A2%C2%B7CT.%E5%86%85%E7%AA%A5%E9%95%9C%E8%BD%AC%E8%AF%8A%E4%B8%AD%E5%BF%83&src=vetmap&coordinate=gaode&callnative=1","route_id":"r1","route_name":"第1段","global_order":21},{"name":"宠乐佳宠物医疗诊所","address":"集英街96号","phone":"18568640361","category":"医疗保健服务;动物医疗场所;宠物诊所","area":"汉兴路沿线","lng":114.291025,"lat":34.791223,"amap_id":"B0FFFYSJTC","order":22,"prev_distance_km":1.913,"cumulative_distance_km":17.083,"amap_marker_url":"https://uri.amap.com/marker?position=114.291025,34.791223&name=%E5%AE%A0%E4%B9%90%E4%BD%B3%E5%AE%A0%E7%89%A9%E5%8C%BB%E7%96%97%E8%AF%8A%E6%89%80&src=vetmap&coordinate=gaode&callnative=1","route_id":"r1","route_name":"第1段","global_order":22},{"name":"骄阳宠物诊疗中心(集英街店)","address":"回龙庙新村东1门北100米","phone":"","category":"医疗保健服务;动物医疗场所;宠物诊所","area":"汉兴路沿线","lng":114.290284,"lat":34.790936,"amap_id":"B0L6UASQAL","order":23,"prev_distance_km":0.075,"cumulative_distance_km":17.158,"amap_marker_url":"https://uri.amap.com/marker?position=114.290284,34.790936&name=%E9%AA%84%E9%98%B3%E5%AE%A0%E7%89%A9%E8%AF%8A%E7%96%97%E4%B8%AD%E5%BF%83%28%E9%9B%86%E8%8B%B1%E8%A1%97%E5%BA%97%29&src=vetmap&coordinate=gaode&callnative=1","route_id":"r1","route_name":"第1段","global_order":23},{"name":"田大夫宠物医疗转诊中心·犬猫影像科(西湖翠庭院区)","address":"西湖翠庭小区1号楼9号","phone":"13837867910","category":"医疗保健服务;动物医疗场所;宠物诊所","area":"汉兴路沿线","lng":114.289346,"lat":34.791578,"amap_id":"B0LB45HV66","order":24,"prev_distance_km":0.112,"cumulative_distance_km":17.27,"amap_marker_url":"https://uri.amap.com/marker?position=114.289346,34.791578&name=%E7%94%B0%E5%A4%A7%E5%A4%AB%E5%AE%A0%E7%89%A9%E5%8C%BB%E7%96%97%E8%BD%AC%E8%AF%8A%E4%B8%AD%E5%BF%83%C2%B7%E7%8A%AC%E7%8C%AB%E5%BD%B1%E5%83%8F%E7%A7%91%28%E8%A5%BF%E6%B9%96%E7%BF%A0%E5%BA%AD%E9%99%A2%E5%8C%BA%29&src=vetmap&coordinate=gaode&callnative=1","route_id":"r1","route_name":"第1段","global_order":24},{"name":"郑州宠健宠物医院开元店","address":"集英街晋安路交叉口向东100米路南晋安路403号","phone":"19337829456","category":"医疗保健服务;动物医疗场所;宠物诊所","area":"","lng":114.291983,"lat":34.796799,"amap_id":"B0HBFR053G","order":25,"prev_distance_km":0.629,"cumulative_distance_km":17.898,"amap_marker_url":"https://uri.amap.com/marker?position=114.291983,34.796799&name=%E9%83%91%E5%B7%9E%E5%AE%A0%E5%81%A5%E5%AE%A0%E7%89%A9%E5%8C%BB%E9%99%A2%E5%BC%80%E5%85%83%E5%BA%97&src=vetmap&coordinate=gaode&callnative=1","route_id":"r1","route_name":"第1段","global_order":25},{"name":"宠添福宠物诊疗","address":"八一商业街","phone":"16613888816","category":"医疗保健服务;动物医疗场所;宠物诊所","area":"","lng":114.29244,"lat":34.802901,"amap_id":"B0H3J62OWT","order":26,"prev_distance_km":0.68,"cumulative_distance_km":18.578,"amap_marker_url":"https://uri.amap.com/marker?position=114.292440,34.802901&name=%E5%AE%A0%E6%B7%BB%E7%A6%8F%E5%AE%A0%E7%89%A9%E8%AF%8A%E7%96%97&src=vetmap&coordinate=gaode&callnative=1","route_id":"r1","route_name":"第1段","global_order":26},{"name":"康园宠物诊所","address":"郑开大道与集英街交叉口东100米路北(八一商业街33号)","phone":"18937831533","category":"医疗保健服务;动物医疗场所;宠物诊所","area":"","lng":114.292295,"lat":34.803666,"amap_id":"B0FFI6TXLZ","order":27,"prev_distance_km":0.086,"cumulative_distance_km":18.664,"amap_marker_url":"https://uri.amap.com/marker?position=114.292295,34.803666&name=%E5%BA%B7%E5%9B%AD%E5%AE%A0%E7%89%A9%E8%AF%8A%E6%89%80&src=vetmap&coordinate=gaode&callnative=1","route_id":"r1","route_name":"第1段","global_order":27},{"name":"乐来宠物医院","address":"晖达·温莎尚郡","phone":"18697781005","category":"医疗保健服务;动物医疗场所;宠物诊所","area":"","lng":114.299531,"lat":34.809275,"amap_id":"B0HGRHN127","order":28,"prev_distance_km":0.909,"cumulative_distance_km":19.573,"amap_marker_url":"https://uri.amap.com/marker?position=114.299531,34.809275&name=%E4%B9%90%E6%9D%A5%E5%AE%A0%E7%89%A9%E5%8C%BB%E9%99%A2&src=vetmap&coordinate=gaode&callnative=1","route_id":"r1","route_name":"第1段","global_order":28},{"name":"开封宠健宠物医院(文绣店)","address":"龙亭区示范区集英街北段文绣花园商业房27号","phone":"13353830599","category":"医疗保健服务;动物医疗场所;宠物诊所","area":"","lng":114.290786,"lat":34.811303,"amap_id":"B0JD75F2R8","order":29,"prev_distance_km":0.83,"cumulative_distance_km":20.402,"amap_marker_url":"https://uri.amap.com/marker?position=114.290786,34.811303&name=%E5%BC%80%E5%B0%81%E5%AE%A0%E5%81%A5%E5%AE%A0%E7%89%A9%E5%8C%BB%E9%99%A2%28%E6%96%87%E7%BB%A3%E5%BA%97%29&src=vetmap&coordinate=gaode&callnative=1","route_id":"r1","route_name":"第1段","global_order":29},{"name":"它爱宠物医院","address":"示范区集英街星联岚溪府15号楼108商铺","phone":"19603789191","category":"医疗保健服务;动物医疗场所;宠物诊所","area":"","lng":114.295395,"lat":34.820765,"amap_id":"B0JKO5JW1Z","order":30,"prev_distance_km":1.133,"cumulative_distance_km":21.535,"amap_marker_url":"https://uri.amap.com/marker?position=114.295395,34.820765&name=%E5%AE%83%E7%88%B1%E5%AE%A0%E7%89%A9%E5%8C%BB%E9%99%A2&src=vetmap&coordinate=gaode&callnative=1","route_id":"r1","route_name":"第1段","global_order":30},{"name":"萌之宠动物诊疗中心","address":"安平路与二大街交叉口东100米","phone":"","category":"医疗保健服务;动物医疗场所;宠物诊所","area":"","lng":114.272571,"lat":34.814658,"amap_id":"B0KK41YS5K","order":31,"prev_distance_km":2.191,"cumulative_distance_km":23.727,"amap_marker_url":"https://uri.amap.com/marker?position=114.272571,34.814658&name=%E8%90%8C%E4%B9%8B%E5%AE%A0%E5%8A%A8%E7%89%A9%E8%AF%8A%E7%96%97%E4%B8%AD%E5%BF%83&src=vetmap&coordinate=gaode&callnative=1","route_id":"r1","route_name":"第1段","global_order":31},{"name":"佰特动物医院","address":"金耀路湖畔家苑c9号楼1-2层104号","phone":"15540755016","category":"医疗保健服务;动物医疗场所;宠物诊所","area":"","lng":114.252648,"lat":34.817461,"amap_id":"B0L0LH9MB4","order":32,"prev_distance_km":1.845,"cumulative_distance_km":25.572,"amap_marker_url":"https://uri.amap.com/marker?position=114.252648,34.817461&name=%E4%BD%B0%E7%89%B9%E5%8A%A8%E7%89%A9%E5%8C%BB%E9%99%A2&src=vetmap&coordinate=gaode&callnative=1","route_id":"r1","route_name":"第1段","global_order":32},{"name":"晓晓宠物医院","address":"中意湖路恒大帝景北苑5号楼104商铺","phone":"18637815327;18637816544","category":"医疗保健服务;动物医疗场所;宠物诊所","area":"","lng":114.240491,"lat":34.809302,"amap_id":"B0LGSARD3I","order":33,"prev_distance_km":1.433,"cumulative_distance_km":27.005,"amap_marker_url":"https://uri.amap.com/marker?position=114.240491,34.809302&name=%E6%99%93%E6%99%93%E5%AE%A0%E7%89%A9%E5%8C%BB%E9%99%A2&src=vetmap&coordinate=gaode&callnative=1","route_id":"r1","route_name":"第1段","global_order":33},{"name":"开封宠健宠物医院(碧桂园店)","address":"晋安路四大街碧桂园小区1-3-08","phone":"18317836808","category":"医疗保健服务;动物医疗场所;宠物诊所","area":"","lng":114.261003,"lat":34.797058,"amap_id":"B0FFLPUE9D","order":34,"prev_distance_km":2.315,"cumulative_distance_km":29.321,"amap_marker_url":"https://uri.amap.com/marker?position=114.261003,34.797058&name=%E5%BC%80%E5%B0%81%E5%AE%A0%E5%81%A5%E5%AE%A0%E7%89%A9%E5%8C%BB%E9%99%A2%28%E7%A2%A7%E6%A1%82%E5%9B%AD%E5%BA%97%29&src=vetmap&coordinate=gaode&callnative=1","route_id":"r1","route_name":"第1段","global_order":34},{"name":"乐宠宠物医院(万达店)","address":"悦都商铺10号","phone":"18537828603","category":"医疗保健服务;动物医疗场所;宠物诊所","area":"","lng":114.266599,"lat":34.798118,"amap_id":"B0HG9HP8KW","order":35,"prev_distance_km":0.524,"cumulative_distance_km":29.845,"amap_marker_url":"https://uri.amap.com/marker?position=114.266599,34.798118&name=%E4%B9%90%E5%AE%A0%E5%AE%A0%E7%89%A9%E5%8C%BB%E9%99%A2%28%E4%B8%87%E8%BE%BE%E5%BA%97%29&src=vetmap&coordinate=gaode&callnative=1","route_id":"r1","route_name":"第1段","global_order":35},{"name":"郑州牧专兽医院(开封分院)","address":"榆杏大道与陇海三路交叉口北140米","phone":"0371-23111456","category":"医疗保健服务;动物医疗场所;兽医站","area":"","lng":114.261054,"lat":34.766118,"amap_id":"B0G0XS02G7","order":36,"prev_distance_km":3.594,"cumulative_distance_km":33.439,"amap_marker_url":"https://uri.amap.com/marker?position=114.261054,34.766118&name=%E9%83%91%E5%B7%9E%E7%89%A7%E4%B8%93%E5%85%BD%E5%8C%BB%E9%99%A2%28%E5%BC%80%E5%B0%81%E5%88%86%E9%99%A2%29&src=vetmap&coordinate=gaode&callnative=1","route_id":"r1","route_name":"第1段","global_order":36},{"name":"饲料经销","address":"杏花营镇榆杏大道18号","phone":"15093647221","category":"医疗保健服务;动物医疗场所;宠物诊所","area":"","lng":114.261379,"lat":34.756575,"amap_id":"B0FFL0B286","order":37,"prev_distance_km":1.062,"cumulative_distance_km":34.501,"amap_marker_url":"https://uri.amap.com/marker?position=114.261379,34.756575&name=%E9%A5%B2%E6%96%99%E7%BB%8F%E9%94%80&src=vetmap&coordinate=gaode&callnative=1","route_id":"r1","route_name":"第1段","global_order":37}]}