{"summary":{"id":"d01221","province":"河南省","city":"新乡市","district":"长垣市","count":15,"total_distance_km":54.308,"coordinate_system":"GCJ-02 / Amap","generated_at":"2026-05-07 20:23:26"},"rows":[{"name":"诚信动物保健","address":"匡亭路","phone":"","category":"医疗保健服务;动物医疗场所;动物医疗场所","area":"","lng":114.564339,"lat":35.182676,"amap_id":"B0K6SC2V4K","order":1,"prev_distance_km":0.0,"cumulative_distance_km":0.0,"amap_marker_url":"https://uri.amap.com/marker?position=114.564339,35.182676&name=%E8%AF%9A%E4%BF%A1%E5%8A%A8%E7%89%A9%E4%BF%9D%E5%81%A5&src=vetmap&coordinate=gaode&callnative=1"},{"name":"瑞宠国际动物医院24h急重症·特色骨科·猫专科(长垣店)","address":"蒲西欧洲小镇一期32号商铺(临文化街ABCD座32号商铺)","phone":"16627572345","category":"医疗保健服务;动物医疗场所;宠物诊所","area":"","lng":114.657112,"lat":35.186852,"amap_id":"B0LAJCTL4W","order":2,"prev_distance_km":8.444,"cumulative_distance_km":8.444,"amap_marker_url":"https://uri.amap.com/marker?position=114.657112,35.186852&name=%E7%91%9E%E5%AE%A0%E5%9B%BD%E9%99%85%E5%8A%A8%E7%89%A9%E5%8C%BB%E9%99%A224h%E6%80%A5%E9%87%8D%E7%97%87%C2%B7%E7%89%B9%E8%89%B2%E9%AA%A8%E7%A7%91%C2%B7%E7%8C%AB%E4%B8%93%E7%A7%91%28%E9%95%BF%E5%9E%A3%E5%BA%97%29&src=vetmap&coordinate=gaode&callnative=1"},{"name":"长垣市动物疫苗接种点","address":"博爱路与如意路交叉口西南140米","phone":"","category":"医疗保健服务;动物医疗场所;动物医疗场所","area":"","lng":114.658118,"lat":35.188525,"amap_id":"B0LB4ANY8V","order":3,"prev_distance_km":0.207,"cumulative_distance_km":8.651,"amap_marker_url":"https://uri.amap.com/marker?position=114.658118,35.188525&name=%E9%95%BF%E5%9E%A3%E5%B8%82%E5%8A%A8%E7%89%A9%E7%96%AB%E8%8B%97%E6%8E%A5%E7%A7%8D%E7%82%B9&src=vetmap&coordinate=gaode&callnative=1"},{"name":"宠康宠物医院","address":"博爱路256号","phone":"18317589889;19513566088","category":"医疗保健服务;动物医疗场所;宠物诊所","area":"","lng":114.658142,"lat":35.188661,"amap_id":"B0I0M54CGX","order":4,"prev_distance_km":0.015,"cumulative_distance_km":8.667,"amap_marker_url":"https://uri.amap.com/marker?position=114.658142,35.188661&name=%E5%AE%A0%E5%BA%B7%E5%AE%A0%E7%89%A9%E5%8C%BB%E9%99%A2&src=vetmap&coordinate=gaode&callnative=1"},{"name":"名门汪族宠物医院","address":"匡城路与宏力大道交叉东北角向东20米","phone":"","category":"医疗保健服务;动物医疗场所;宠物诊所","area":"蒲西","lng":114.669153,"lat":35.185849,"amap_id":"B0IA9CRG9U","order":5,"prev_distance_km":1.048,"cumulative_distance_km":9.715,"amap_marker_url":"https://uri.amap.com/marker?position=114.669153,35.185849&name=%E5%90%8D%E9%97%A8%E6%B1%AA%E6%97%8F%E5%AE%A0%E7%89%A9%E5%8C%BB%E9%99%A2&src=vetmap&coordinate=gaode&callnative=1"},{"name":"希旺宠物医院","address":"南蒲街道至德路阔寨社区A-21号","phone":"15090436863","category":"医疗保健服务;动物医疗场所;宠物诊所","area":"","lng":114.671109,"lat":35.175702,"amap_id":"B0H0FZNEW5","order":6,"prev_distance_km":1.142,"cumulative_distance_km":10.857,"amap_marker_url":"https://uri.amap.com/marker?position=114.671109,35.175702&name=%E5%B8%8C%E6%97%BA%E5%AE%A0%E7%89%A9%E5%8C%BB%E9%99%A2&src=vetmap&coordinate=gaode&callnative=1"},{"name":"宠壹生动物医院(猫科·皮肤科特色诊疗中心)","address":"桂陵大道与山海大道路口往南100米路东","phone":"19103830308","category":"医疗保健服务;动物医疗场所;宠物诊所","area":"","lng":114.681009,"lat":35.175623,"amap_id":"B0JKRSYIDV","order":7,"prev_distance_km":0.9,"cumulative_distance_km":11.757,"amap_marker_url":"https://uri.amap.com/marker?position=114.681009,35.175623&name=%E5%AE%A0%E5%A3%B9%E7%94%9F%E5%8A%A8%E7%89%A9%E5%8C%BB%E9%99%A2%28%E7%8C%AB%E7%A7%91%C2%B7%E7%9A%AE%E8%82%A4%E7%A7%91%E7%89%B9%E8%89%B2%E8%AF%8A%E7%96%97%E4%B8%AD%E5%BF%83%29&src=vetmap&coordinate=gaode&callnative=1"},{"name":"宠尚宠物(原北关宠物医院)","address":"市富景苑小区北门西侧1号楼2单元101商铺宠尚宠物(崇德路店)","phone":"13707654052","category":"医疗保健服务;动物医疗场所;宠物诊所","area":"","lng":114.68345,"lat":35.172375,"amap_id":"B0JK9SDH65","order":8,"prev_distance_km":0.424,"cumulative_distance_km":12.181,"amap_marker_url":"https://uri.amap.com/marker?position=114.683450,35.172375&name=%E5%AE%A0%E5%B0%9A%E5%AE%A0%E7%89%A9%28%E5%8E%9F%E5%8C%97%E5%85%B3%E5%AE%A0%E7%89%A9%E5%8C%BB%E9%99%A2%29&src=vetmap&coordinate=gaode&callnative=1"},{"name":"杨超宠物","address":"长恼路与山海大道交叉口南160米","phone":"","category":"购物服务;专卖店;宠物用品店|医疗保健服务;动物医疗场所;动物医疗场所","area":"","lng":114.694825,"lat":35.174925,"amap_id":"B0L0K7PNDF","order":9,"prev_distance_km":1.072,"cumulative_distance_km":13.253,"amap_marker_url":"https://uri.amap.com/marker?position=114.694825,35.174925&name=%E6%9D%A8%E8%B6%85%E5%AE%A0%E7%89%A9&src=vetmap&coordinate=gaode&callnative=1"},{"name":"长垣市犬猫门诊","address":"","phone":"13837346985","category":"医疗保健服务;动物医疗场所;宠物诊所","area":"","lng":114.681399,"lat":35.188469,"amap_id":"B0HAUHS9NX","order":10,"prev_distance_km":1.938,"cumulative_distance_km":15.191,"amap_marker_url":"https://uri.amap.com/marker?position=114.681399,35.188469&name=%E9%95%BF%E5%9E%A3%E5%B8%82%E7%8A%AC%E7%8C%AB%E9%97%A8%E8%AF%8A&src=vetmap&coordinate=gaode&callnative=1"},{"name":"康莱宠物医院","address":"宏力大道710号","phone":"16650363876","category":"医疗保健服务;动物医疗场所;宠物诊所","area":"","lng":114.67142,"lat":35.202043,"amap_id":"B0H2DSCZVC","order":11,"prev_distance_km":1.761,"cumulative_distance_km":16.952,"amap_marker_url":"https://uri.amap.com/marker?position=114.671420,35.202043&name=%E5%BA%B7%E8%8E%B1%E5%AE%A0%E7%89%A9%E5%8C%BB%E9%99%A2&src=vetmap&coordinate=gaode&callnative=1"},{"name":"恩宠爱宠物(长垣蒲茂路店自助洗护)","address":"蒲茂路57号","phone":"16638502922;17719956917","category":"医疗保健服务;动物医疗场所;动物医疗场所","area":"","lng":114.704266,"lat":35.204907,"amap_id":"B0LRMHY8RX","order":12,"prev_distance_km":3.001,"cumulative_distance_km":19.953,"amap_marker_url":"https://uri.amap.com/marker?position=114.704266,35.204907&name=%E6%81%A9%E5%AE%A0%E7%88%B1%E5%AE%A0%E7%89%A9%28%E9%95%BF%E5%9E%A3%E8%92%B2%E8%8C%82%E8%B7%AF%E5%BA%97%E8%87%AA%E5%8A%A9%E6%B4%97%E6%8A%A4%29&src=vetmap&coordinate=gaode&callnative=1"},{"name":"樊相兽医站","address":"001乡道与220省道交叉口东南60米","phone":"","category":"医疗保健服务;动物医疗场所;兽医站","area":"","lng":114.651257,"lat":35.281267,"amap_id":"B0FFG56W3T","order":13,"prev_distance_km":9.761,"cumulative_distance_km":29.714,"amap_marker_url":"https://uri.amap.com/marker?position=114.651257,35.281267&name=%E6%A8%8A%E7%9B%B8%E5%85%BD%E5%8C%BB%E7%AB%99&src=vetmap&coordinate=gaode&callnative=1"},{"name":"方里镇兽医站","address":"方里镇人民政府西南侧50米","phone":"18539315522","category":"医疗保健服务;动物医疗场所;兽医站","area":"","lng":114.839677,"lat":35.276658,"amap_id":"B0FFM7ZOXV","order":14,"prev_distance_km":17.111,"cumulative_distance_km":46.825,"amap_marker_url":"https://uri.amap.com/marker?position=114.839677,35.276658&name=%E6%96%B9%E9%87%8C%E9%95%87%E5%85%BD%E5%8C%BB%E7%AB%99&src=vetmap&coordinate=gaode&callnative=1"},{"name":"赵堤镇畜牧兽医服务站","address":"斗趣街与林海路交叉口西北260米","phone":"","category":"医疗保健服务;动物医疗场所;兽医站","area":"","lng":114.898058,"lat":35.32418,"amap_id":"B0G3NMPQ0A","order":15,"prev_distance_km":7.483,"cumulative_distance_km":54.308,"amap_marker_url":"https://uri.amap.com/marker?position=114.898058,35.324180&name=%E8%B5%B5%E5%A0%A4%E9%95%87%E7%95%9C%E7%89%A7%E5%85%BD%E5%8C%BB%E6%9C%8D%E5%8A%A1%E7%AB%99&src=vetmap&coordinate=gaode&callnative=1"}]}