{"summary":{"id":"d01276","province":"河南省","city":"驻马店市","district":"上蔡县","count":15,"route_count":1,"max_route_clinics":15,"total_distance_km":87.757,"coordinate_system":"GCJ-02 / Amap","generated_at":"2026-05-08 19:47:17"},"routes":[{"id":"r1","name":"第1段","count":15,"total_distance_km":87.757,"rows":[{"name":"刘科研兽药门市","address":"武津街与新通街交叉口西400米","phone":"","category":"购物服务;购物相关场所;购物相关场所|医疗保健服务;动物医疗场所;动物医疗场所","area":"","lng":114.423725,"lat":33.404675,"amap_id":"B0LGALN8OI","order":1,"prev_distance_km":0.0,"cumulative_distance_km":0.0,"amap_marker_url":"https://uri.amap.com/marker?position=114.423725,33.404675&name=%E5%88%98%E7%A7%91%E7%A0%94%E5%85%BD%E8%8D%AF%E9%97%A8%E5%B8%82&src=vetmap&coordinate=gaode&callnative=1","route_id":"r1","route_name":"第1段"},{"name":"郏氏兽医门诊","address":"朱里镇","phone":"","category":"医疗保健服务;动物医疗场所;兽医站","area":"","lng":114.429246,"lat":33.403544,"amap_id":"B0FFG7ODD2","order":2,"prev_distance_km":0.528,"cumulative_distance_km":0.528,"amap_marker_url":"https://uri.amap.com/marker?position=114.429246,33.403544&name=%E9%83%8F%E6%B0%8F%E5%85%BD%E5%8C%BB%E9%97%A8%E8%AF%8A&src=vetmap&coordinate=gaode&callnative=1","route_id":"r1","route_name":"第1段"},{"name":"动物医院","address":"社区路与德政街交叉口南200米","phone":"","category":"医疗保健服务;动物医疗场所;宠物诊所","area":"","lng":114.43345,"lat":33.401367,"amap_id":"B0K1D1BFRS","order":3,"prev_distance_km":0.459,"cumulative_distance_km":0.987,"amap_marker_url":"https://uri.amap.com/marker?position=114.433450,33.401367&name=%E5%8A%A8%E7%89%A9%E5%8C%BB%E9%99%A2&src=vetmap&coordinate=gaode&callnative=1","route_id":"r1","route_name":"第1段"},{"name":"艺馨畜牧养殖服务中心","address":"和谐路201号","phone":"13949133663;18239628768","category":"医疗保健服务;动物医疗场所;兽医站","area":"","lng":114.543782,"lat":33.326862,"amap_id":"B0L25HC66T","order":4,"prev_distance_km":13.177,"cumulative_distance_km":14.164,"amap_marker_url":"https://uri.amap.com/marker?position=114.543782,33.326862&name=%E8%89%BA%E9%A6%A8%E7%95%9C%E7%89%A7%E5%85%BB%E6%AE%96%E6%9C%8D%E5%8A%A1%E4%B8%AD%E5%BF%83&src=vetmap&coordinate=gaode&callnative=1","route_id":"r1","route_name":"第1段"},{"name":"杨集镇兽医站","address":"杨集镇中心小学南150米路西","phone":"13937385592","category":"医疗保健服务;动物医疗场所;兽医站","area":"","lng":114.698316,"lat":33.262302,"amap_id":"B0FFH6IN3K","order":5,"prev_distance_km":16.057,"cumulative_distance_km":30.221,"amap_marker_url":"https://uri.amap.com/marker?position=114.698316,33.262302&name=%E6%9D%A8%E9%9B%86%E9%95%87%E5%85%BD%E5%8C%BB%E7%AB%99&src=vetmap&coordinate=gaode&callnative=1","route_id":"r1","route_name":"第1段"},{"name":"党店饲料宠物医院","address":"党店一中南侧120米","phone":"","category":"医疗保健服务;动物医疗场所;宠物诊所","area":"","lng":114.554775,"lat":33.200825,"amap_id":"B0M63C9XQD","order":6,"prev_distance_km":14.999,"cumulative_distance_km":45.22,"amap_marker_url":"https://uri.amap.com/marker?position=114.554775,33.200825&name=%E5%85%9A%E5%BA%97%E9%A5%B2%E6%96%99%E5%AE%A0%E7%89%A9%E5%8C%BB%E9%99%A2&src=vetmap&coordinate=gaode&callnative=1","route_id":"r1","route_name":"第1段"},{"name":"党店兽医站服务中心","address":"党店镇兽医站","phone":"","category":"医疗保健服务;动物医疗场所;兽医站","area":"","lng":114.54365,"lat":33.201225,"amap_id":"B0JRHZE87W","order":7,"prev_distance_km":1.036,"cumulative_distance_km":46.256,"amap_marker_url":"https://uri.amap.com/marker?position=114.543650,33.201225&name=%E5%85%9A%E5%BA%97%E5%85%BD%E5%8C%BB%E7%AB%99%E6%9C%8D%E5%8A%A1%E4%B8%AD%E5%BF%83&src=vetmap&coordinate=gaode&callnative=1","route_id":"r1","route_name":"第1段"},{"name":"玉龙兽医门诊","address":"五龙乡政府西侧玉龙兽医门诊","phone":"13513968845","category":"医疗保健服务;动物医疗场所;兽医站","area":"","lng":114.369373,"lat":33.22883,"amap_id":"B0FFKP0E3I","order":8,"prev_distance_km":16.501,"cumulative_distance_km":62.756,"amap_marker_url":"https://uri.amap.com/marker?position=114.369373,33.228830&name=%E7%8E%89%E9%BE%99%E5%85%BD%E5%8C%BB%E9%97%A8%E8%AF%8A&src=vetmap&coordinate=gaode&callnative=1","route_id":"r1","route_name":"第1段"},{"name":"卓越牧星宠物医院","address":"005县道北50米","phone":"13783966788","category":"医疗保健服务;动物医疗场所;宠物诊所","area":"","lng":114.28617,"lat":33.261845,"amap_id":"B0FFI2F2GS","order":9,"prev_distance_km":8.564,"cumulative_distance_km":71.321,"amap_marker_url":"https://uri.amap.com/marker?position=114.286170,33.261845&name=%E5%8D%93%E8%B6%8A%E7%89%A7%E6%98%9F%E5%AE%A0%E7%89%A9%E5%8C%BB%E9%99%A2&src=vetmap&coordinate=gaode&callnative=1","route_id":"r1","route_name":"第1段"},{"name":"牧星宠物医院(鹏宇店)","address":"鹏宇国际城1期东门南100米","phone":"","category":"医疗保健服务;动物医疗场所;宠物诊所","area":"","lng":114.254379,"lat":33.274656,"amap_id":"B0K6KU0GXD","order":10,"prev_distance_km":3.281,"cumulative_distance_km":74.602,"amap_marker_url":"https://uri.amap.com/marker?position=114.254379,33.274656&name=%E7%89%A7%E6%98%9F%E5%AE%A0%E7%89%A9%E5%8C%BB%E9%99%A2%28%E9%B9%8F%E5%AE%87%E5%BA%97%29&src=vetmap&coordinate=gaode&callnative=1","route_id":"r1","route_name":"第1段"},{"name":"宠一生24小时宠物医院(上蔡总院)","address":"西大街与秦相大道交叉口东140米","phone":"18339688255","category":"医疗保健服务;动物医疗场所;宠物诊所","area":"","lng":114.256466,"lat":33.267265,"amap_id":"B0K6NC5F5V","order":11,"prev_distance_km":0.844,"cumulative_distance_km":75.446,"amap_marker_url":"https://uri.amap.com/marker?position=114.256466,33.267265&name=%E5%AE%A0%E4%B8%80%E7%94%9F24%E5%B0%8F%E6%97%B6%E5%AE%A0%E7%89%A9%E5%8C%BB%E9%99%A2%28%E4%B8%8A%E8%94%A1%E6%80%BB%E9%99%A2%29&src=vetmap&coordinate=gaode&callnative=1","route_id":"r1","route_name":"第1段"},{"name":"乐多宠物医院","address":"蔡都大道197号","phone":"15939031554","category":"医疗保健服务;动物医疗场所;宠物诊所","area":"","lng":114.260525,"lat":33.262287,"amap_id":"B0G1Y5U9O4","order":12,"prev_distance_km":0.67,"cumulative_distance_km":76.116,"amap_marker_url":"https://uri.amap.com/marker?position=114.260525,33.262287&name=%E4%B9%90%E5%A4%9A%E5%AE%A0%E7%89%A9%E5%8C%BB%E9%99%A2&src=vetmap&coordinate=gaode&callnative=1","route_id":"r1","route_name":"第1段"},{"name":"广爱宠物医院(上蔡店)","address":"重阳街道蔡明园南门对面中部礼品城8栋131号","phone":"","category":"医疗保健服务;动物医疗场所;宠物诊所","area":"","lng":114.257416,"lat":33.251865,"amap_id":"B0FFL3YGHT","order":13,"prev_distance_km":1.194,"cumulative_distance_km":77.311,"amap_marker_url":"https://uri.amap.com/marker?position=114.257416,33.251865&name=%E5%B9%BF%E7%88%B1%E5%AE%A0%E7%89%A9%E5%8C%BB%E9%99%A2%28%E4%B8%8A%E8%94%A1%E5%BA%97%29&src=vetmap&coordinate=gaode&callnative=1","route_id":"r1","route_name":"第1段"},{"name":"威强宠物医院","address":"秦相大道与重阳大道交叉口东南220米","phone":"","category":"医疗保健服务;动物医疗场所;宠物诊所","area":"","lng":114.257465,"lat":33.251848,"amap_id":"B0K06HVGFH","order":14,"prev_distance_km":0.005,"cumulative_distance_km":77.315,"amap_marker_url":"https://uri.amap.com/marker?position=114.257465,33.251848&name=%E5%A8%81%E5%BC%BA%E5%AE%A0%E7%89%A9%E5%8C%BB%E9%99%A2&src=vetmap&coordinate=gaode&callnative=1","route_id":"r1","route_name":"第1段"},{"name":"邵店兽医防疫站","address":"卧龙大道","phone":"0396-6540685","category":"医疗保健服务;动物医疗场所;兽医站","area":"","lng":114.298702,"lat":33.164511,"amap_id":"B0FFLB5C7T","order":15,"prev_distance_km":10.442,"cumulative_distance_km":87.757,"amap_marker_url":"https://uri.amap.com/marker?position=114.298702,33.164511&name=%E9%82%B5%E5%BA%97%E5%85%BD%E5%8C%BB%E9%98%B2%E7%96%AB%E7%AB%99&src=vetmap&coordinate=gaode&callnative=1","route_id":"r1","route_name":"第1段"}]}],"rows":[{"name":"刘科研兽药门市","address":"武津街与新通街交叉口西400米","phone":"","category":"购物服务;购物相关场所;购物相关场所|医疗保健服务;动物医疗场所;动物医疗场所","area":"","lng":114.423725,"lat":33.404675,"amap_id":"B0LGALN8OI","order":1,"prev_distance_km":0.0,"cumulative_distance_km":0.0,"amap_marker_url":"https://uri.amap.com/marker?position=114.423725,33.404675&name=%E5%88%98%E7%A7%91%E7%A0%94%E5%85%BD%E8%8D%AF%E9%97%A8%E5%B8%82&src=vetmap&coordinate=gaode&callnative=1","route_id":"r1","route_name":"第1段","global_order":1},{"name":"郏氏兽医门诊","address":"朱里镇","phone":"","category":"医疗保健服务;动物医疗场所;兽医站","area":"","lng":114.429246,"lat":33.403544,"amap_id":"B0FFG7ODD2","order":2,"prev_distance_km":0.528,"cumulative_distance_km":0.528,"amap_marker_url":"https://uri.amap.com/marker?position=114.429246,33.403544&name=%E9%83%8F%E6%B0%8F%E5%85%BD%E5%8C%BB%E9%97%A8%E8%AF%8A&src=vetmap&coordinate=gaode&callnative=1","route_id":"r1","route_name":"第1段","global_order":2},{"name":"动物医院","address":"社区路与德政街交叉口南200米","phone":"","category":"医疗保健服务;动物医疗场所;宠物诊所","area":"","lng":114.43345,"lat":33.401367,"amap_id":"B0K1D1BFRS","order":3,"prev_distance_km":0.459,"cumulative_distance_km":0.987,"amap_marker_url":"https://uri.amap.com/marker?position=114.433450,33.401367&name=%E5%8A%A8%E7%89%A9%E5%8C%BB%E9%99%A2&src=vetmap&coordinate=gaode&callnative=1","route_id":"r1","route_name":"第1段","global_order":3},{"name":"艺馨畜牧养殖服务中心","address":"和谐路201号","phone":"13949133663;18239628768","category":"医疗保健服务;动物医疗场所;兽医站","area":"","lng":114.543782,"lat":33.326862,"amap_id":"B0L25HC66T","order":4,"prev_distance_km":13.177,"cumulative_distance_km":14.164,"amap_marker_url":"https://uri.amap.com/marker?position=114.543782,33.326862&name=%E8%89%BA%E9%A6%A8%E7%95%9C%E7%89%A7%E5%85%BB%E6%AE%96%E6%9C%8D%E5%8A%A1%E4%B8%AD%E5%BF%83&src=vetmap&coordinate=gaode&callnative=1","route_id":"r1","route_name":"第1段","global_order":4},{"name":"杨集镇兽医站","address":"杨集镇中心小学南150米路西","phone":"13937385592","category":"医疗保健服务;动物医疗场所;兽医站","area":"","lng":114.698316,"lat":33.262302,"amap_id":"B0FFH6IN3K","order":5,"prev_distance_km":16.057,"cumulative_distance_km":30.221,"amap_marker_url":"https://uri.amap.com/marker?position=114.698316,33.262302&name=%E6%9D%A8%E9%9B%86%E9%95%87%E5%85%BD%E5%8C%BB%E7%AB%99&src=vetmap&coordinate=gaode&callnative=1","route_id":"r1","route_name":"第1段","global_order":5},{"name":"党店饲料宠物医院","address":"党店一中南侧120米","phone":"","category":"医疗保健服务;动物医疗场所;宠物诊所","area":"","lng":114.554775,"lat":33.200825,"amap_id":"B0M63C9XQD","order":6,"prev_distance_km":14.999,"cumulative_distance_km":45.22,"amap_marker_url":"https://uri.amap.com/marker?position=114.554775,33.200825&name=%E5%85%9A%E5%BA%97%E9%A5%B2%E6%96%99%E5%AE%A0%E7%89%A9%E5%8C%BB%E9%99%A2&src=vetmap&coordinate=gaode&callnative=1","route_id":"r1","route_name":"第1段","global_order":6},{"name":"党店兽医站服务中心","address":"党店镇兽医站","phone":"","category":"医疗保健服务;动物医疗场所;兽医站","area":"","lng":114.54365,"lat":33.201225,"amap_id":"B0JRHZE87W","order":7,"prev_distance_km":1.036,"cumulative_distance_km":46.256,"amap_marker_url":"https://uri.amap.com/marker?position=114.543650,33.201225&name=%E5%85%9A%E5%BA%97%E5%85%BD%E5%8C%BB%E7%AB%99%E6%9C%8D%E5%8A%A1%E4%B8%AD%E5%BF%83&src=vetmap&coordinate=gaode&callnative=1","route_id":"r1","route_name":"第1段","global_order":7},{"name":"玉龙兽医门诊","address":"五龙乡政府西侧玉龙兽医门诊","phone":"13513968845","category":"医疗保健服务;动物医疗场所;兽医站","area":"","lng":114.369373,"lat":33.22883,"amap_id":"B0FFKP0E3I","order":8,"prev_distance_km":16.501,"cumulative_distance_km":62.756,"amap_marker_url":"https://uri.amap.com/marker?position=114.369373,33.228830&name=%E7%8E%89%E9%BE%99%E5%85%BD%E5%8C%BB%E9%97%A8%E8%AF%8A&src=vetmap&coordinate=gaode&callnative=1","route_id":"r1","route_name":"第1段","global_order":8},{"name":"卓越牧星宠物医院","address":"005县道北50米","phone":"13783966788","category":"医疗保健服务;动物医疗场所;宠物诊所","area":"","lng":114.28617,"lat":33.261845,"amap_id":"B0FFI2F2GS","order":9,"prev_distance_km":8.564,"cumulative_distance_km":71.321,"amap_marker_url":"https://uri.amap.com/marker?position=114.286170,33.261845&name=%E5%8D%93%E8%B6%8A%E7%89%A7%E6%98%9F%E5%AE%A0%E7%89%A9%E5%8C%BB%E9%99%A2&src=vetmap&coordinate=gaode&callnative=1","route_id":"r1","route_name":"第1段","global_order":9},{"name":"牧星宠物医院(鹏宇店)","address":"鹏宇国际城1期东门南100米","phone":"","category":"医疗保健服务;动物医疗场所;宠物诊所","area":"","lng":114.254379,"lat":33.274656,"amap_id":"B0K6KU0GXD","order":10,"prev_distance_km":3.281,"cumulative_distance_km":74.602,"amap_marker_url":"https://uri.amap.com/marker?position=114.254379,33.274656&name=%E7%89%A7%E6%98%9F%E5%AE%A0%E7%89%A9%E5%8C%BB%E9%99%A2%28%E9%B9%8F%E5%AE%87%E5%BA%97%29&src=vetmap&coordinate=gaode&callnative=1","route_id":"r1","route_name":"第1段","global_order":10},{"name":"宠一生24小时宠物医院(上蔡总院)","address":"西大街与秦相大道交叉口东140米","phone":"18339688255","category":"医疗保健服务;动物医疗场所;宠物诊所","area":"","lng":114.256466,"lat":33.267265,"amap_id":"B0K6NC5F5V","order":11,"prev_distance_km":0.844,"cumulative_distance_km":75.446,"amap_marker_url":"https://uri.amap.com/marker?position=114.256466,33.267265&name=%E5%AE%A0%E4%B8%80%E7%94%9F24%E5%B0%8F%E6%97%B6%E5%AE%A0%E7%89%A9%E5%8C%BB%E9%99%A2%28%E4%B8%8A%E8%94%A1%E6%80%BB%E9%99%A2%29&src=vetmap&coordinate=gaode&callnative=1","route_id":"r1","route_name":"第1段","global_order":11},{"name":"乐多宠物医院","address":"蔡都大道197号","phone":"15939031554","category":"医疗保健服务;动物医疗场所;宠物诊所","area":"","lng":114.260525,"lat":33.262287,"amap_id":"B0G1Y5U9O4","order":12,"prev_distance_km":0.67,"cumulative_distance_km":76.116,"amap_marker_url":"https://uri.amap.com/marker?position=114.260525,33.262287&name=%E4%B9%90%E5%A4%9A%E5%AE%A0%E7%89%A9%E5%8C%BB%E9%99%A2&src=vetmap&coordinate=gaode&callnative=1","route_id":"r1","route_name":"第1段","global_order":12},{"name":"广爱宠物医院(上蔡店)","address":"重阳街道蔡明园南门对面中部礼品城8栋131号","phone":"","category":"医疗保健服务;动物医疗场所;宠物诊所","area":"","lng":114.257416,"lat":33.251865,"amap_id":"B0FFL3YGHT","order":13,"prev_distance_km":1.194,"cumulative_distance_km":77.311,"amap_marker_url":"https://uri.amap.com/marker?position=114.257416,33.251865&name=%E5%B9%BF%E7%88%B1%E5%AE%A0%E7%89%A9%E5%8C%BB%E9%99%A2%28%E4%B8%8A%E8%94%A1%E5%BA%97%29&src=vetmap&coordinate=gaode&callnative=1","route_id":"r1","route_name":"第1段","global_order":13},{"name":"威强宠物医院","address":"秦相大道与重阳大道交叉口东南220米","phone":"","category":"医疗保健服务;动物医疗场所;宠物诊所","area":"","lng":114.257465,"lat":33.251848,"amap_id":"B0K06HVGFH","order":14,"prev_distance_km":0.005,"cumulative_distance_km":77.315,"amap_marker_url":"https://uri.amap.com/marker?position=114.257465,33.251848&name=%E5%A8%81%E5%BC%BA%E5%AE%A0%E7%89%A9%E5%8C%BB%E9%99%A2&src=vetmap&coordinate=gaode&callnative=1","route_id":"r1","route_name":"第1段","global_order":14},{"name":"邵店兽医防疫站","address":"卧龙大道","phone":"0396-6540685","category":"医疗保健服务;动物医疗场所;兽医站","area":"","lng":114.298702,"lat":33.164511,"amap_id":"B0FFLB5C7T","order":15,"prev_distance_km":10.442,"cumulative_distance_km":87.757,"amap_marker_url":"https://uri.amap.com/marker?position=114.298702,33.164511&name=%E9%82%B5%E5%BA%97%E5%85%BD%E5%8C%BB%E9%98%B2%E7%96%AB%E7%AB%99&src=vetmap&coordinate=gaode&callnative=1","route_id":"r1","route_name":"第1段","global_order":15}]}