{"summary":{"id":"d01289","province":"河南省","city":"鹤壁市","district":"淇滨区","count":19,"route_count":1,"max_route_clinics":19,"total_distance_km":19.954,"coordinate_system":"GCJ-02 / Amap","generated_at":"2026-05-07 21:29:47"},"routes":[{"id":"r1","name":"第1段","count":19,"total_distance_km":19.954,"rows":[{"name":"宠爱一生宠物医院","address":"黄山路与昆仑山路交叉口向东五十米路北永安里101","phone":"13839221333","category":"医疗保健服务;动物医疗场所;宠物诊所","area":"","lng":114.278535,"lat":35.681198,"amap_id":"B0KR3UY5OW","order":1,"prev_distance_km":0.0,"cumulative_distance_km":0.0,"amap_marker_url":"https://uri.amap.com/marker?position=114.278535,35.681198&name=%E5%AE%A0%E7%88%B1%E4%B8%80%E7%94%9F%E5%AE%A0%E7%89%A9%E5%8C%BB%E9%99%A2&src=vetmap&coordinate=gaode&callnative=1","route_id":"r1","route_name":"第1段"},{"name":"我宠我宠宠物医院(朝歌里分院)","address":"黄山路与万泉河路交叉口南50米路西","phone":"","category":"医疗保健服务;动物医疗场所;宠物诊所","area":"","lng":114.280882,"lat":35.685461,"amap_id":"B0JGM56OS6","order":2,"prev_distance_km":0.519,"cumulative_distance_km":0.519,"amap_marker_url":"https://uri.amap.com/marker?position=114.280882,35.685461&name=%E6%88%91%E5%AE%A0%E6%88%91%E5%AE%A0%E5%AE%A0%E7%89%A9%E5%8C%BB%E9%99%A2%28%E6%9C%9D%E6%AD%8C%E9%87%8C%E5%88%86%E9%99%A2%29&src=vetmap&coordinate=gaode&callnative=1","route_id":"r1","route_name":"第1段"},{"name":"宠康动物医院","address":"建业壹号城邦2期南门西70米","phone":"13839256627;16799184444","category":"医疗保健服务;动物医疗场所;宠物诊所","area":"","lng":114.266496,"lat":35.694706,"amap_id":"B0JGO5U3YL","order":3,"prev_distance_km":1.657,"cumulative_distance_km":2.176,"amap_marker_url":"https://uri.amap.com/marker?position=114.266496,35.694706&name=%E5%AE%A0%E5%BA%B7%E5%8A%A8%E7%89%A9%E5%8C%BB%E9%99%A2&src=vetmap&coordinate=gaode&callnative=1","route_id":"r1","route_name":"第1段"},{"name":"我宠我宠宠物医院(双水湾分院)","address":"天山路双水湾西门右侧9-12门面房","phone":"0392-2279120","category":"医疗保健服务;动物医疗场所;宠物诊所","area":"","lng":114.276459,"lat":35.7141,"amap_id":"B0K697P3W8","order":4,"prev_distance_km":2.337,"cumulative_distance_km":4.513,"amap_marker_url":"https://uri.amap.com/marker?position=114.276459,35.714100&name=%E6%88%91%E5%AE%A0%E6%88%91%E5%AE%A0%E5%AE%A0%E7%89%A9%E5%8C%BB%E9%99%A2%28%E5%8F%8C%E6%B0%B4%E6%B9%BE%E5%88%86%E9%99%A2%29&src=vetmap&coordinate=gaode&callnative=1","route_id":"r1","route_name":"第1段"},{"name":"一佳宠物诊所","address":"大辛庄东门","phone":"17538135460","category":"医疗保健服务;动物医疗场所;宠物诊所","area":"","lng":114.291206,"lat":35.704526,"amap_id":"B0KAKZRW7K","order":5,"prev_distance_km":1.705,"cumulative_distance_km":6.217,"amap_marker_url":"https://uri.amap.com/marker?position=114.291206,35.704526&name=%E4%B8%80%E4%BD%B3%E5%AE%A0%E7%89%A9%E8%AF%8A%E6%89%80&src=vetmap&coordinate=gaode&callnative=1","route_id":"r1","route_name":"第1段"},{"name":"温心宠物医院(漓江路店)","address":"橄榄嘉园北区东北门北110米","phone":"17719906120","category":"医疗保健服务;动物医疗场所;宠物诊所","area":"","lng":114.293985,"lat":35.719578,"amap_id":"B0FFKFH252","order":6,"prev_distance_km":1.692,"cumulative_distance_km":7.91,"amap_marker_url":"https://uri.amap.com/marker?position=114.293985,35.719578&name=%E6%B8%A9%E5%BF%83%E5%AE%A0%E7%89%A9%E5%8C%BB%E9%99%A2%28%E6%BC%93%E6%B1%9F%E8%B7%AF%E5%BA%97%29&src=vetmap&coordinate=gaode&callnative=1","route_id":"r1","route_name":"第1段"},{"name":"顽皮宠物医院(漓江路店)","address":"漓江柳岸北门东90米","phone":"17596001200","category":"医疗保健服务;动物医疗场所;宠物诊所","area":"","lng":114.29061,"lat":35.719443,"amap_id":"B0JDM94DTA","order":7,"prev_distance_km":0.305,"cumulative_distance_km":8.215,"amap_marker_url":"https://uri.amap.com/marker?position=114.290610,35.719443&name=%E9%A1%BD%E7%9A%AE%E5%AE%A0%E7%89%A9%E5%8C%BB%E9%99%A2%28%E6%BC%93%E6%B1%9F%E8%B7%AF%E5%BA%97%29&src=vetmap&coordinate=gaode&callnative=1","route_id":"r1","route_name":"第1段"},{"name":"鹤壁悠悠宠物医院","address":"湘江路西头路北龙德嘉园南门7-114商铺","phone":"15839253589","category":"医疗保健服务;动物医疗场所;宠物诊所","area":"湘江","lng":114.283634,"lat":35.724521,"amap_id":"B0G23ZBYMC","order":8,"prev_distance_km":0.846,"cumulative_distance_km":9.061,"amap_marker_url":"https://uri.amap.com/marker?position=114.283634,35.724521&name=%E9%B9%A4%E5%A3%81%E6%82%A0%E6%82%A0%E5%AE%A0%E7%89%A9%E5%8C%BB%E9%99%A2&src=vetmap&coordinate=gaode&callnative=1","route_id":"r1","route_name":"第1段"},{"name":"安志宠物医院","address":"菁华园南门西120米","phone":"0392-3886269","category":"医疗保健服务;动物医疗场所;宠物诊所","area":"鹤煤大道","lng":114.2853,"lat":35.732628,"amap_id":"B0FFLECPZD","order":9,"prev_distance_km":0.914,"cumulative_distance_km":9.975,"amap_marker_url":"https://uri.amap.com/marker?position=114.285300,35.732628&name=%E5%AE%89%E5%BF%97%E5%AE%A0%E7%89%A9%E5%8C%BB%E9%99%A2&src=vetmap&coordinate=gaode&callnative=1","route_id":"r1","route_name":"第1段"},{"name":"润宠宠物医疗门诊部","address":"鹤煤大道与衡山路交叉口西南角","phone":"15539273677","category":"医疗保健服务;动物医疗场所;宠物诊所","area":"鹤煤大道","lng":114.307645,"lat":35.731826,"amap_id":"B0JGYRXL9T","order":10,"prev_distance_km":2.019,"cumulative_distance_km":11.993,"amap_marker_url":"https://uri.amap.com/marker?position=114.307645,35.731826&name=%E6%B6%A6%E5%AE%A0%E5%AE%A0%E7%89%A9%E5%8C%BB%E7%96%97%E9%97%A8%E8%AF%8A%E9%83%A8&src=vetmap&coordinate=gaode&callnative=1","route_id":"r1","route_name":"第1段"},{"name":"顽皮宠物医院(清华园店)","address":"淮河路清华园小区北门东6号商铺","phone":"19903928885","category":"医疗保健服务;动物医疗场所;宠物诊所","area":"淮河路","lng":114.310483,"lat":35.739089,"amap_id":"B0L627TDAA","order":11,"prev_distance_km":0.847,"cumulative_distance_km":12.841,"amap_marker_url":"https://uri.amap.com/marker?position=114.310483,35.739089&name=%E9%A1%BD%E7%9A%AE%E5%AE%A0%E7%89%A9%E5%8C%BB%E9%99%A2%28%E6%B8%85%E5%8D%8E%E5%9B%AD%E5%BA%97%29&src=vetmap&coordinate=gaode&callnative=1","route_id":"r1","route_name":"第1段"},{"name":"康淇宠物医院","address":"华夏南路与紫荆巷交叉口向西一百米路北","phone":"0392-2567120;15303926760","category":"医疗保健服务;动物医疗场所;动物医疗场所","area":"","lng":114.295729,"lat":35.741281,"amap_id":"B0FFLGFMK4","order":12,"prev_distance_km":1.354,"cumulative_distance_km":14.194,"amap_marker_url":"https://uri.amap.com/marker?position=114.295729,35.741281&name=%E5%BA%B7%E6%B7%87%E5%AE%A0%E7%89%A9%E5%8C%BB%E9%99%A2&src=vetmap&coordinate=gaode&callnative=1","route_id":"r1","route_name":"第1段"},{"name":"永健宠物诊所","address":"九州路中国茶业旁","phone":"13939281777;17639220088","category":"医疗保健服务;动物医疗场所;宠物诊所","area":"世纪广场","lng":114.299361,"lat":35.746045,"amap_id":"B0FFKUA3IK","order":13,"prev_distance_km":0.623,"cumulative_distance_km":14.817,"amap_marker_url":"https://uri.amap.com/marker?position=114.299361,35.746045&name=%E6%B0%B8%E5%81%A5%E5%AE%A0%E7%89%A9%E8%AF%8A%E6%89%80&src=vetmap&coordinate=gaode&callnative=1","route_id":"r1","route_name":"第1段"},{"name":"宜宠动物医院","address":"嵩山路与九州路交叉口南20米路西","phone":"15139201270","category":"医疗保健服务;动物医疗场所;宠物诊所","area":"九州","lng":114.302362,"lat":35.745863,"amap_id":"B0L0HMQ1W7","order":14,"prev_distance_km":0.272,"cumulative_distance_km":15.089,"amap_marker_url":"https://uri.amap.com/marker?position=114.302362,35.745863&name=%E5%AE%9C%E5%AE%A0%E5%8A%A8%E7%89%A9%E5%8C%BB%E9%99%A2&src=vetmap&coordinate=gaode&callnative=1","route_id":"r1","route_name":"第1段"},{"name":"乐康宠物医疗","address":"军民花园十字街北侧路东第十号商铺","phone":"16697967658","category":"医疗保健服务;动物医疗场所;宠物诊所","area":"黎阳路","lng":114.31117,"lat":35.755444,"amap_id":"B0M6SS3J2I","order":15,"prev_distance_km":1.329,"cumulative_distance_km":16.418,"amap_marker_url":"https://uri.amap.com/marker?position=114.311170,35.755444&name=%E4%B9%90%E5%BA%B7%E5%AE%A0%E7%89%A9%E5%8C%BB%E7%96%97&src=vetmap&coordinate=gaode&callnative=1","route_id":"r1","route_name":"第1段"},{"name":"滨诚动物医院24h急重症转诊中心","address":"兴鹤大街与梅花巷交叉口东100米","phone":"13939214444;15139229555","category":"医疗保健服务;动物医疗场所;宠物诊所","area":"黎阳路","lng":114.293902,"lat":35.755235,"amap_id":"B0FFICOJQ7","order":16,"prev_distance_km":1.558,"cumulative_distance_km":17.977,"amap_marker_url":"https://uri.amap.com/marker?position=114.293902,35.755235&name=%E6%BB%A8%E8%AF%9A%E5%8A%A8%E7%89%A9%E5%8C%BB%E9%99%A224h%E6%80%A5%E9%87%8D%E7%97%87%E8%BD%AC%E8%AF%8A%E4%B8%AD%E5%BF%83&src=vetmap&coordinate=gaode&callnative=1","route_id":"r1","route_name":"第1段"},{"name":"瑞宠宠物门诊","address":"锦绣江南西2门旁","phone":"","category":"医疗保健服务;动物医疗场所;宠物诊所","area":"","lng":114.292487,"lat":35.763571,"amap_id":"B0LA2UMRK4","order":17,"prev_distance_km":0.936,"cumulative_distance_km":18.912,"amap_marker_url":"https://uri.amap.com/marker?position=114.292487,35.763571&name=%E7%91%9E%E5%AE%A0%E5%AE%A0%E7%89%A9%E9%97%A8%E8%AF%8A&src=vetmap&coordinate=gaode&callnative=1","route_id":"r1","route_name":"第1段"},{"name":"贝康宠物门诊","address":"锦绣江南西2门旁","phone":"13183164777","category":"医疗保健服务;动物医疗场所;宠物诊所","area":"","lng":114.292325,"lat":35.763572,"amap_id":"B0FFH68UDT","order":18,"prev_distance_km":0.015,"cumulative_distance_km":18.927,"amap_marker_url":"https://uri.amap.com/marker?position=114.292325,35.763572&name=%E8%B4%9D%E5%BA%B7%E5%AE%A0%E7%89%A9%E9%97%A8%E8%AF%8A&src=vetmap&coordinate=gaode&callnative=1","route_id":"r1","route_name":"第1段"},{"name":"汇牧佳动物服务门诊部","address":"卫河路6号","phone":"13839226700","category":"医疗保健服务;动物医疗场所;宠物诊所","area":"","lng":114.28134,"lat":35.761162,"amap_id":"B0K3MAR17P","order":19,"prev_distance_km":1.027,"cumulative_distance_km":19.954,"amap_marker_url":"https://uri.amap.com/marker?position=114.281340,35.761162&name=%E6%B1%87%E7%89%A7%E4%BD%B3%E5%8A%A8%E7%89%A9%E6%9C%8D%E5%8A%A1%E9%97%A8%E8%AF%8A%E9%83%A8&src=vetmap&coordinate=gaode&callnative=1","route_id":"r1","route_name":"第1段"}]}],"rows":[{"name":"宠爱一生宠物医院","address":"黄山路与昆仑山路交叉口向东五十米路北永安里101","phone":"13839221333","category":"医疗保健服务;动物医疗场所;宠物诊所","area":"","lng":114.278535,"lat":35.681198,"amap_id":"B0KR3UY5OW","order":1,"prev_distance_km":0.0,"cumulative_distance_km":0.0,"amap_marker_url":"https://uri.amap.com/marker?position=114.278535,35.681198&name=%E5%AE%A0%E7%88%B1%E4%B8%80%E7%94%9F%E5%AE%A0%E7%89%A9%E5%8C%BB%E9%99%A2&src=vetmap&coordinate=gaode&callnative=1","route_id":"r1","route_name":"第1段","global_order":1},{"name":"我宠我宠宠物医院(朝歌里分院)","address":"黄山路与万泉河路交叉口南50米路西","phone":"","category":"医疗保健服务;动物医疗场所;宠物诊所","area":"","lng":114.280882,"lat":35.685461,"amap_id":"B0JGM56OS6","order":2,"prev_distance_km":0.519,"cumulative_distance_km":0.519,"amap_marker_url":"https://uri.amap.com/marker?position=114.280882,35.685461&name=%E6%88%91%E5%AE%A0%E6%88%91%E5%AE%A0%E5%AE%A0%E7%89%A9%E5%8C%BB%E9%99%A2%28%E6%9C%9D%E6%AD%8C%E9%87%8C%E5%88%86%E9%99%A2%29&src=vetmap&coordinate=gaode&callnative=1","route_id":"r1","route_name":"第1段","global_order":2},{"name":"宠康动物医院","address":"建业壹号城邦2期南门西70米","phone":"13839256627;16799184444","category":"医疗保健服务;动物医疗场所;宠物诊所","area":"","lng":114.266496,"lat":35.694706,"amap_id":"B0JGO5U3YL","order":3,"prev_distance_km":1.657,"cumulative_distance_km":2.176,"amap_marker_url":"https://uri.amap.com/marker?position=114.266496,35.694706&name=%E5%AE%A0%E5%BA%B7%E5%8A%A8%E7%89%A9%E5%8C%BB%E9%99%A2&src=vetmap&coordinate=gaode&callnative=1","route_id":"r1","route_name":"第1段","global_order":3},{"name":"我宠我宠宠物医院(双水湾分院)","address":"天山路双水湾西门右侧9-12门面房","phone":"0392-2279120","category":"医疗保健服务;动物医疗场所;宠物诊所","area":"","lng":114.276459,"lat":35.7141,"amap_id":"B0K697P3W8","order":4,"prev_distance_km":2.337,"cumulative_distance_km":4.513,"amap_marker_url":"https://uri.amap.com/marker?position=114.276459,35.714100&name=%E6%88%91%E5%AE%A0%E6%88%91%E5%AE%A0%E5%AE%A0%E7%89%A9%E5%8C%BB%E9%99%A2%28%E5%8F%8C%E6%B0%B4%E6%B9%BE%E5%88%86%E9%99%A2%29&src=vetmap&coordinate=gaode&callnative=1","route_id":"r1","route_name":"第1段","global_order":4},{"name":"一佳宠物诊所","address":"大辛庄东门","phone":"17538135460","category":"医疗保健服务;动物医疗场所;宠物诊所","area":"","lng":114.291206,"lat":35.704526,"amap_id":"B0KAKZRW7K","order":5,"prev_distance_km":1.705,"cumulative_distance_km":6.217,"amap_marker_url":"https://uri.amap.com/marker?position=114.291206,35.704526&name=%E4%B8%80%E4%BD%B3%E5%AE%A0%E7%89%A9%E8%AF%8A%E6%89%80&src=vetmap&coordinate=gaode&callnative=1","route_id":"r1","route_name":"第1段","global_order":5},{"name":"温心宠物医院(漓江路店)","address":"橄榄嘉园北区东北门北110米","phone":"17719906120","category":"医疗保健服务;动物医疗场所;宠物诊所","area":"","lng":114.293985,"lat":35.719578,"amap_id":"B0FFKFH252","order":6,"prev_distance_km":1.692,"cumulative_distance_km":7.91,"amap_marker_url":"https://uri.amap.com/marker?position=114.293985,35.719578&name=%E6%B8%A9%E5%BF%83%E5%AE%A0%E7%89%A9%E5%8C%BB%E9%99%A2%28%E6%BC%93%E6%B1%9F%E8%B7%AF%E5%BA%97%29&src=vetmap&coordinate=gaode&callnative=1","route_id":"r1","route_name":"第1段","global_order":6},{"name":"顽皮宠物医院(漓江路店)","address":"漓江柳岸北门东90米","phone":"17596001200","category":"医疗保健服务;动物医疗场所;宠物诊所","area":"","lng":114.29061,"lat":35.719443,"amap_id":"B0JDM94DTA","order":7,"prev_distance_km":0.305,"cumulative_distance_km":8.215,"amap_marker_url":"https://uri.amap.com/marker?position=114.290610,35.719443&name=%E9%A1%BD%E7%9A%AE%E5%AE%A0%E7%89%A9%E5%8C%BB%E9%99%A2%28%E6%BC%93%E6%B1%9F%E8%B7%AF%E5%BA%97%29&src=vetmap&coordinate=gaode&callnative=1","route_id":"r1","route_name":"第1段","global_order":7},{"name":"鹤壁悠悠宠物医院","address":"湘江路西头路北龙德嘉园南门7-114商铺","phone":"15839253589","category":"医疗保健服务;动物医疗场所;宠物诊所","area":"湘江","lng":114.283634,"lat":35.724521,"amap_id":"B0G23ZBYMC","order":8,"prev_distance_km":0.846,"cumulative_distance_km":9.061,"amap_marker_url":"https://uri.amap.com/marker?position=114.283634,35.724521&name=%E9%B9%A4%E5%A3%81%E6%82%A0%E6%82%A0%E5%AE%A0%E7%89%A9%E5%8C%BB%E9%99%A2&src=vetmap&coordinate=gaode&callnative=1","route_id":"r1","route_name":"第1段","global_order":8},{"name":"安志宠物医院","address":"菁华园南门西120米","phone":"0392-3886269","category":"医疗保健服务;动物医疗场所;宠物诊所","area":"鹤煤大道","lng":114.2853,"lat":35.732628,"amap_id":"B0FFLECPZD","order":9,"prev_distance_km":0.914,"cumulative_distance_km":9.975,"amap_marker_url":"https://uri.amap.com/marker?position=114.285300,35.732628&name=%E5%AE%89%E5%BF%97%E5%AE%A0%E7%89%A9%E5%8C%BB%E9%99%A2&src=vetmap&coordinate=gaode&callnative=1","route_id":"r1","route_name":"第1段","global_order":9},{"name":"润宠宠物医疗门诊部","address":"鹤煤大道与衡山路交叉口西南角","phone":"15539273677","category":"医疗保健服务;动物医疗场所;宠物诊所","area":"鹤煤大道","lng":114.307645,"lat":35.731826,"amap_id":"B0JGYRXL9T","order":10,"prev_distance_km":2.019,"cumulative_distance_km":11.993,"amap_marker_url":"https://uri.amap.com/marker?position=114.307645,35.731826&name=%E6%B6%A6%E5%AE%A0%E5%AE%A0%E7%89%A9%E5%8C%BB%E7%96%97%E9%97%A8%E8%AF%8A%E9%83%A8&src=vetmap&coordinate=gaode&callnative=1","route_id":"r1","route_name":"第1段","global_order":10},{"name":"顽皮宠物医院(清华园店)","address":"淮河路清华园小区北门东6号商铺","phone":"19903928885","category":"医疗保健服务;动物医疗场所;宠物诊所","area":"淮河路","lng":114.310483,"lat":35.739089,"amap_id":"B0L627TDAA","order":11,"prev_distance_km":0.847,"cumulative_distance_km":12.841,"amap_marker_url":"https://uri.amap.com/marker?position=114.310483,35.739089&name=%E9%A1%BD%E7%9A%AE%E5%AE%A0%E7%89%A9%E5%8C%BB%E9%99%A2%28%E6%B8%85%E5%8D%8E%E5%9B%AD%E5%BA%97%29&src=vetmap&coordinate=gaode&callnative=1","route_id":"r1","route_name":"第1段","global_order":11},{"name":"康淇宠物医院","address":"华夏南路与紫荆巷交叉口向西一百米路北","phone":"0392-2567120;15303926760","category":"医疗保健服务;动物医疗场所;动物医疗场所","area":"","lng":114.295729,"lat":35.741281,"amap_id":"B0FFLGFMK4","order":12,"prev_distance_km":1.354,"cumulative_distance_km":14.194,"amap_marker_url":"https://uri.amap.com/marker?position=114.295729,35.741281&name=%E5%BA%B7%E6%B7%87%E5%AE%A0%E7%89%A9%E5%8C%BB%E9%99%A2&src=vetmap&coordinate=gaode&callnative=1","route_id":"r1","route_name":"第1段","global_order":12},{"name":"永健宠物诊所","address":"九州路中国茶业旁","phone":"13939281777;17639220088","category":"医疗保健服务;动物医疗场所;宠物诊所","area":"世纪广场","lng":114.299361,"lat":35.746045,"amap_id":"B0FFKUA3IK","order":13,"prev_distance_km":0.623,"cumulative_distance_km":14.817,"amap_marker_url":"https://uri.amap.com/marker?position=114.299361,35.746045&name=%E6%B0%B8%E5%81%A5%E5%AE%A0%E7%89%A9%E8%AF%8A%E6%89%80&src=vetmap&coordinate=gaode&callnative=1","route_id":"r1","route_name":"第1段","global_order":13},{"name":"宜宠动物医院","address":"嵩山路与九州路交叉口南20米路西","phone":"15139201270","category":"医疗保健服务;动物医疗场所;宠物诊所","area":"九州","lng":114.302362,"lat":35.745863,"amap_id":"B0L0HMQ1W7","order":14,"prev_distance_km":0.272,"cumulative_distance_km":15.089,"amap_marker_url":"https://uri.amap.com/marker?position=114.302362,35.745863&name=%E5%AE%9C%E5%AE%A0%E5%8A%A8%E7%89%A9%E5%8C%BB%E9%99%A2&src=vetmap&coordinate=gaode&callnative=1","route_id":"r1","route_name":"第1段","global_order":14},{"name":"乐康宠物医疗","address":"军民花园十字街北侧路东第十号商铺","phone":"16697967658","category":"医疗保健服务;动物医疗场所;宠物诊所","area":"黎阳路","lng":114.31117,"lat":35.755444,"amap_id":"B0M6SS3J2I","order":15,"prev_distance_km":1.329,"cumulative_distance_km":16.418,"amap_marker_url":"https://uri.amap.com/marker?position=114.311170,35.755444&name=%E4%B9%90%E5%BA%B7%E5%AE%A0%E7%89%A9%E5%8C%BB%E7%96%97&src=vetmap&coordinate=gaode&callnative=1","route_id":"r1","route_name":"第1段","global_order":15},{"name":"滨诚动物医院24h急重症转诊中心","address":"兴鹤大街与梅花巷交叉口东100米","phone":"13939214444;15139229555","category":"医疗保健服务;动物医疗场所;宠物诊所","area":"黎阳路","lng":114.293902,"lat":35.755235,"amap_id":"B0FFICOJQ7","order":16,"prev_distance_km":1.558,"cumulative_distance_km":17.977,"amap_marker_url":"https://uri.amap.com/marker?position=114.293902,35.755235&name=%E6%BB%A8%E8%AF%9A%E5%8A%A8%E7%89%A9%E5%8C%BB%E9%99%A224h%E6%80%A5%E9%87%8D%E7%97%87%E8%BD%AC%E8%AF%8A%E4%B8%AD%E5%BF%83&src=vetmap&coordinate=gaode&callnative=1","route_id":"r1","route_name":"第1段","global_order":16},{"name":"瑞宠宠物门诊","address":"锦绣江南西2门旁","phone":"","category":"医疗保健服务;动物医疗场所;宠物诊所","area":"","lng":114.292487,"lat":35.763571,"amap_id":"B0LA2UMRK4","order":17,"prev_distance_km":0.936,"cumulative_distance_km":18.912,"amap_marker_url":"https://uri.amap.com/marker?position=114.292487,35.763571&name=%E7%91%9E%E5%AE%A0%E5%AE%A0%E7%89%A9%E9%97%A8%E8%AF%8A&src=vetmap&coordinate=gaode&callnative=1","route_id":"r1","route_name":"第1段","global_order":17},{"name":"贝康宠物门诊","address":"锦绣江南西2门旁","phone":"13183164777","category":"医疗保健服务;动物医疗场所;宠物诊所","area":"","lng":114.292325,"lat":35.763572,"amap_id":"B0FFH68UDT","order":18,"prev_distance_km":0.015,"cumulative_distance_km":18.927,"amap_marker_url":"https://uri.amap.com/marker?position=114.292325,35.763572&name=%E8%B4%9D%E5%BA%B7%E5%AE%A0%E7%89%A9%E9%97%A8%E8%AF%8A&src=vetmap&coordinate=gaode&callnative=1","route_id":"r1","route_name":"第1段","global_order":18},{"name":"汇牧佳动物服务门诊部","address":"卫河路6号","phone":"13839226700","category":"医疗保健服务;动物医疗场所;宠物诊所","area":"","lng":114.28134,"lat":35.761162,"amap_id":"B0K3MAR17P","order":19,"prev_distance_km":1.027,"cumulative_distance_km":19.954,"amap_marker_url":"https://uri.amap.com/marker?position=114.281340,35.761162&name=%E6%B1%87%E7%89%A7%E4%BD%B3%E5%8A%A8%E7%89%A9%E6%9C%8D%E5%8A%A1%E9%97%A8%E8%AF%8A%E9%83%A8&src=vetmap&coordinate=gaode&callnative=1","route_id":"r1","route_name":"第1段","global_order":19}]}