{"summary":{"id":"d01254","province":"河南省","city":"焦作市","district":"沁阳市","count":9,"route_count":1,"max_route_clinics":9,"total_distance_km":14.656,"coordinate_system":"GCJ-02 / Amap","generated_at":"2026-05-07 21:29:41"},"routes":[{"id":"r1","name":"第1段","count":9,"total_distance_km":14.656,"rows":[{"name":"心安宠物医院","address":"水岸花园大门(西门)南50米","phone":"","category":"医疗保健服务;动物医疗场所;宠物诊所","area":"","lng":112.94998,"lat":35.074323,"amap_id":"B0KB976F6M","order":1,"prev_distance_km":0.0,"cumulative_distance_km":0.0,"amap_marker_url":"https://uri.amap.com/marker?position=112.949980,35.074323&name=%E5%BF%83%E5%AE%89%E5%AE%A0%E7%89%A9%E5%8C%BB%E9%99%A2&src=vetmap&coordinate=gaode&callnative=1","route_id":"r1","route_name":"第1段"},{"name":"宠壹堂宠物诊所","address":"河内路与南门街交叉口卡贝尔公寓商铺一号","phone":"15538951169","category":"医疗保健服务;动物医疗场所;宠物诊所","area":"","lng":112.942765,"lat":35.079189,"amap_id":"B0JR9AGKIV","order":2,"prev_distance_km":0.851,"cumulative_distance_km":0.851,"amap_marker_url":"https://uri.amap.com/marker?position=112.942765,35.079189&name=%E5%AE%A0%E5%A3%B9%E5%A0%82%E5%AE%A0%E7%89%A9%E8%AF%8A%E6%89%80&src=vetmap&coordinate=gaode&callnative=1","route_id":"r1","route_name":"第1段"},{"name":"怀东宠物","address":"覃怀中路路南102号","phone":"15839100009","category":"医疗保健服务;动物医疗场所;宠物诊所","area":"沁园","lng":112.936766,"lat":35.085329,"amap_id":"B0J06DKLFB","order":3,"prev_distance_km":0.874,"cumulative_distance_km":1.725,"amap_marker_url":"https://uri.amap.com/marker?position=112.936766,35.085329&name=%E6%80%80%E4%B8%9C%E5%AE%A0%E7%89%A9&src=vetmap&coordinate=gaode&callnative=1","route_id":"r1","route_name":"第1段"},{"name":"得宠宠物会所","address":"覃怀西路缤谷生活家居旁边","phone":"15639124544","category":"医疗保健服务;动物医疗场所;动物医疗场所","area":"","lng":112.932425,"lat":35.08527,"amap_id":"B0L2FM1RQ5","order":4,"prev_distance_km":0.395,"cumulative_distance_km":2.12,"amap_marker_url":"https://uri.amap.com/marker?position=112.932425,35.085270&name=%E5%BE%97%E5%AE%A0%E5%AE%A0%E7%89%A9%E4%BC%9A%E6%89%80&src=vetmap&coordinate=gaode&callnative=1","route_id":"r1","route_name":"第1段"},{"name":"宠康动物医院","address":"沁园大街与河内路交叉口南80米","phone":"15993731935","category":"医疗保健服务;动物医疗场所;宠物诊所","area":"","lng":112.924487,"lat":35.080261,"amap_id":"B0IG67H6P0","order":5,"prev_distance_km":0.912,"cumulative_distance_km":3.032,"amap_marker_url":"https://uri.amap.com/marker?position=112.924487,35.080261&name=%E5%AE%A0%E5%BA%B7%E5%8A%A8%E7%89%A9%E5%8C%BB%E9%99%A2&src=vetmap&coordinate=gaode&callnative=1","route_id":"r1","route_name":"第1段"},{"name":"沁阳市乐派宠物诊所","address":"太行大道与覃怀路十字口西北角","phone":"13223920241;13639623014","category":"医疗保健服务;动物医疗场所;宠物诊所","area":"怀府西路","lng":112.918733,"lat":35.087005,"amap_id":"B0FFKQA6ZN","order":6,"prev_distance_km":0.915,"cumulative_distance_km":3.947,"amap_marker_url":"https://uri.amap.com/marker?position=112.918733,35.087005&name=%E6%B2%81%E9%98%B3%E5%B8%82%E4%B9%90%E6%B4%BE%E5%AE%A0%E7%89%A9%E8%AF%8A%E6%89%80&src=vetmap&coordinate=gaode&callnative=1","route_id":"r1","route_name":"第1段"},{"name":"宠益生动物医院","address":"怀府西路与康宁街交叉口西北60米","phone":"18336898317","category":"医疗保健服务;动物医疗场所;宠物诊所","area":"怀府西路","lng":112.911025,"lat":35.093275,"amap_id":"B0LUD9CINO","order":7,"prev_distance_km":0.989,"cumulative_distance_km":4.936,"amap_marker_url":"https://uri.amap.com/marker?position=112.911025,35.093275&name=%E5%AE%A0%E7%9B%8A%E7%94%9F%E5%8A%A8%E7%89%A9%E5%8C%BB%E9%99%A2&src=vetmap&coordinate=gaode&callnative=1","route_id":"r1","route_name":"第1段"},{"name":"仁爱宠物医院","address":"亚特中央城东门底商仁爱宠物医院","phone":"18614927171","category":"医疗保健服务;动物医疗场所;宠物诊所","area":"","lng":112.920204,"lat":35.096322,"amap_id":"B0J0MHZ8QQ","order":8,"prev_distance_km":0.901,"cumulative_distance_km":5.837,"amap_marker_url":"https://uri.amap.com/marker?position=112.920204,35.096322&name=%E4%BB%81%E7%88%B1%E5%AE%A0%E7%89%A9%E5%8C%BB%E9%99%A2&src=vetmap&coordinate=gaode&callnative=1","route_id":"r1","route_name":"第1段"},{"name":"牧兴兽药店","address":"向城大街3号","phone":"","category":"医疗保健服务;动物医疗场所;动物医疗场所","area":"","lng":112.878023,"lat":35.167742,"amap_id":"B0KBF7TGNY","order":9,"prev_distance_km":8.819,"cumulative_distance_km":14.656,"amap_marker_url":"https://uri.amap.com/marker?position=112.878023,35.167742&name=%E7%89%A7%E5%85%B4%E5%85%BD%E8%8D%AF%E5%BA%97&src=vetmap&coordinate=gaode&callnative=1","route_id":"r1","route_name":"第1段"}]}],"rows":[{"name":"心安宠物医院","address":"水岸花园大门(西门)南50米","phone":"","category":"医疗保健服务;动物医疗场所;宠物诊所","area":"","lng":112.94998,"lat":35.074323,"amap_id":"B0KB976F6M","order":1,"prev_distance_km":0.0,"cumulative_distance_km":0.0,"amap_marker_url":"https://uri.amap.com/marker?position=112.949980,35.074323&name=%E5%BF%83%E5%AE%89%E5%AE%A0%E7%89%A9%E5%8C%BB%E9%99%A2&src=vetmap&coordinate=gaode&callnative=1","route_id":"r1","route_name":"第1段","global_order":1},{"name":"宠壹堂宠物诊所","address":"河内路与南门街交叉口卡贝尔公寓商铺一号","phone":"15538951169","category":"医疗保健服务;动物医疗场所;宠物诊所","area":"","lng":112.942765,"lat":35.079189,"amap_id":"B0JR9AGKIV","order":2,"prev_distance_km":0.851,"cumulative_distance_km":0.851,"amap_marker_url":"https://uri.amap.com/marker?position=112.942765,35.079189&name=%E5%AE%A0%E5%A3%B9%E5%A0%82%E5%AE%A0%E7%89%A9%E8%AF%8A%E6%89%80&src=vetmap&coordinate=gaode&callnative=1","route_id":"r1","route_name":"第1段","global_order":2},{"name":"怀东宠物","address":"覃怀中路路南102号","phone":"15839100009","category":"医疗保健服务;动物医疗场所;宠物诊所","area":"沁园","lng":112.936766,"lat":35.085329,"amap_id":"B0J06DKLFB","order":3,"prev_distance_km":0.874,"cumulative_distance_km":1.725,"amap_marker_url":"https://uri.amap.com/marker?position=112.936766,35.085329&name=%E6%80%80%E4%B8%9C%E5%AE%A0%E7%89%A9&src=vetmap&coordinate=gaode&callnative=1","route_id":"r1","route_name":"第1段","global_order":3},{"name":"得宠宠物会所","address":"覃怀西路缤谷生活家居旁边","phone":"15639124544","category":"医疗保健服务;动物医疗场所;动物医疗场所","area":"","lng":112.932425,"lat":35.08527,"amap_id":"B0L2FM1RQ5","order":4,"prev_distance_km":0.395,"cumulative_distance_km":2.12,"amap_marker_url":"https://uri.amap.com/marker?position=112.932425,35.085270&name=%E5%BE%97%E5%AE%A0%E5%AE%A0%E7%89%A9%E4%BC%9A%E6%89%80&src=vetmap&coordinate=gaode&callnative=1","route_id":"r1","route_name":"第1段","global_order":4},{"name":"宠康动物医院","address":"沁园大街与河内路交叉口南80米","phone":"15993731935","category":"医疗保健服务;动物医疗场所;宠物诊所","area":"","lng":112.924487,"lat":35.080261,"amap_id":"B0IG67H6P0","order":5,"prev_distance_km":0.912,"cumulative_distance_km":3.032,"amap_marker_url":"https://uri.amap.com/marker?position=112.924487,35.080261&name=%E5%AE%A0%E5%BA%B7%E5%8A%A8%E7%89%A9%E5%8C%BB%E9%99%A2&src=vetmap&coordinate=gaode&callnative=1","route_id":"r1","route_name":"第1段","global_order":5},{"name":"沁阳市乐派宠物诊所","address":"太行大道与覃怀路十字口西北角","phone":"13223920241;13639623014","category":"医疗保健服务;动物医疗场所;宠物诊所","area":"怀府西路","lng":112.918733,"lat":35.087005,"amap_id":"B0FFKQA6ZN","order":6,"prev_distance_km":0.915,"cumulative_distance_km":3.947,"amap_marker_url":"https://uri.amap.com/marker?position=112.918733,35.087005&name=%E6%B2%81%E9%98%B3%E5%B8%82%E4%B9%90%E6%B4%BE%E5%AE%A0%E7%89%A9%E8%AF%8A%E6%89%80&src=vetmap&coordinate=gaode&callnative=1","route_id":"r1","route_name":"第1段","global_order":6},{"name":"宠益生动物医院","address":"怀府西路与康宁街交叉口西北60米","phone":"18336898317","category":"医疗保健服务;动物医疗场所;宠物诊所","area":"怀府西路","lng":112.911025,"lat":35.093275,"amap_id":"B0LUD9CINO","order":7,"prev_distance_km":0.989,"cumulative_distance_km":4.936,"amap_marker_url":"https://uri.amap.com/marker?position=112.911025,35.093275&name=%E5%AE%A0%E7%9B%8A%E7%94%9F%E5%8A%A8%E7%89%A9%E5%8C%BB%E9%99%A2&src=vetmap&coordinate=gaode&callnative=1","route_id":"r1","route_name":"第1段","global_order":7},{"name":"仁爱宠物医院","address":"亚特中央城东门底商仁爱宠物医院","phone":"18614927171","category":"医疗保健服务;动物医疗场所;宠物诊所","area":"","lng":112.920204,"lat":35.096322,"amap_id":"B0J0MHZ8QQ","order":8,"prev_distance_km":0.901,"cumulative_distance_km":5.837,"amap_marker_url":"https://uri.amap.com/marker?position=112.920204,35.096322&name=%E4%BB%81%E7%88%B1%E5%AE%A0%E7%89%A9%E5%8C%BB%E9%99%A2&src=vetmap&coordinate=gaode&callnative=1","route_id":"r1","route_name":"第1段","global_order":8},{"name":"牧兴兽药店","address":"向城大街3号","phone":"","category":"医疗保健服务;动物医疗场所;动物医疗场所","area":"","lng":112.878023,"lat":35.167742,"amap_id":"B0KBF7TGNY","order":9,"prev_distance_km":8.819,"cumulative_distance_km":14.656,"amap_marker_url":"https://uri.amap.com/marker?position=112.878023,35.167742&name=%E7%89%A7%E5%85%B4%E5%85%BD%E8%8D%AF%E5%BA%97&src=vetmap&coordinate=gaode&callnative=1","route_id":"r1","route_name":"第1段","global_order":9}]}