{"summary":{"id":"d01279","province":"河南省","city":"驻马店市","district":"正阳县","count":10,"total_distance_km":37.409,"coordinate_system":"GCJ-02 / Amap","generated_at":"2026-05-07 19:57:46"},"rows":[{"name":"东方希望畜牧技术服务站","address":"青竹路与文明路交叉口西20米","phone":"","category":"医疗保健服务;动物医疗场所;兽医站","area":"","lng":114.323775,"lat":32.478225,"amap_id":"B0LUAUHVR2","order":1,"prev_distance_km":0.0,"cumulative_distance_km":0.0,"amap_marker_url":"https://uri.amap.com/marker?position=114.323775,32.478225&name=%E4%B8%9C%E6%96%B9%E5%B8%8C%E6%9C%9B%E7%95%9C%E7%89%A7%E6%8A%80%E6%9C%AF%E6%9C%8D%E5%8A%A1%E7%AB%99&src=vetmap&coordinate=gaode&callnative=1"},{"name":"宠一生宠物医院(正阳总院)","address":"真阳镇慎西路与镇明路交叉口南300米路西","phone":"17838626655","category":"医疗保健服务;动物医疗场所;宠物诊所","area":"","lng":114.382644,"lat":32.595903,"amap_id":"B0IAAA1PPE","order":2,"prev_distance_km":14.201,"cumulative_distance_km":14.201,"amap_marker_url":"https://uri.amap.com/marker?position=114.382644,32.595903&name=%E5%AE%A0%E4%B8%80%E7%94%9F%E5%AE%A0%E7%89%A9%E5%8C%BB%E9%99%A2%28%E6%AD%A3%E9%98%B3%E6%80%BB%E9%99%A2%29&src=vetmap&coordinate=gaode&callnative=1"},{"name":"老朱兽药门市部","address":"慎西路与江国大道交叉口南120米","phone":"0396-8930123;13783336297","category":"医疗保健服务;动物医疗场所;兽医站","area":"","lng":114.382823,"lat":32.602841,"amap_id":"B018C0NXZQ","order":3,"prev_distance_km":0.772,"cumulative_distance_km":14.973,"amap_marker_url":"https://uri.amap.com/marker?position=114.382823,32.602841&name=%E8%80%81%E6%9C%B1%E5%85%BD%E8%8D%AF%E9%97%A8%E5%B8%82%E9%83%A8&src=vetmap&coordinate=gaode&callnative=1"},{"name":"恩琦宠物医院(24小时急诊中心)","address":"建设路中段府东丽景门面转角1号","phone":"13273998120","category":"医疗保健服务;动物医疗场所;宠物诊所","area":"","lng":114.375469,"lat":32.605387,"amap_id":"B0K0US6NVR","order":4,"prev_distance_km":0.745,"cumulative_distance_km":15.718,"amap_marker_url":"https://uri.amap.com/marker?position=114.375469,32.605387&name=%E6%81%A9%E7%90%A6%E5%AE%A0%E7%89%A9%E5%8C%BB%E9%99%A2%2824%E5%B0%8F%E6%97%B6%E6%80%A5%E8%AF%8A%E4%B8%AD%E5%BF%83%29&src=vetmap&coordinate=gaode&callnative=1"},{"name":"亿佳动物门诊","address":"北环城路六小西二百米路南","phone":"17719160078","category":"医疗保健服务;动物医疗场所;宠物诊所","area":"","lng":114.385836,"lat":32.610396,"amap_id":"B0FFL2M1AR","order":5,"prev_distance_km":1.119,"cumulative_distance_km":16.837,"amap_marker_url":"https://uri.amap.com/marker?position=114.385836,32.610396&name=%E4%BA%BF%E4%BD%B3%E5%8A%A8%E7%89%A9%E9%97%A8%E8%AF%8A&src=vetmap&coordinate=gaode&callnative=1"},{"name":"文泉兽药店","address":"真阳镇南关街德裕量贩南","phone":"13323642059;18790325796","category":"医疗保健服务;动物医疗场所;动物医疗场所","area":"南关","lng":114.390328,"lat":32.59999,"amap_id":"B0FFG4UKN7","order":6,"prev_distance_km":1.231,"cumulative_distance_km":18.068,"amap_marker_url":"https://uri.amap.com/marker?position=114.390328,32.599990&name=%E6%96%87%E6%B3%89%E5%85%BD%E8%8D%AF%E5%BA%97&src=vetmap&coordinate=gaode&callnative=1"},{"name":"张庄兽医店","address":"嘉苑名家东门北60米","phone":"","category":"医疗保健服务;动物医疗场所;兽医站","area":"南关","lng":114.38978,"lat":32.594395,"amap_id":"B0JB1LL806","order":7,"prev_distance_km":0.624,"cumulative_distance_km":18.693,"amap_marker_url":"https://uri.amap.com/marker?position=114.389780,32.594395&name=%E5%BC%A0%E5%BA%84%E5%85%BD%E5%8C%BB%E5%BA%97&src=vetmap&coordinate=gaode&callnative=1"},{"name":"医直宠宠物医院(正阳院区)","address":"真阳街道南环中路中段南侧18号","phone":"15890728834","category":"医疗保健服务;动物医疗场所;宠物诊所","area":"","lng":114.394792,"lat":32.598322,"amap_id":"B0LU3U8MLJ","order":8,"prev_distance_km":0.641,"cumulative_distance_km":19.334,"amap_marker_url":"https://uri.amap.com/marker?position=114.394792,32.598322&name=%E5%8C%BB%E7%9B%B4%E5%AE%A0%E5%AE%A0%E7%89%A9%E5%8C%BB%E9%99%A2%28%E6%AD%A3%E9%98%B3%E9%99%A2%E5%8C%BA%29&src=vetmap&coordinate=gaode&callnative=1"},{"name":"王振中动物诊所","address":"万龙首府门口东5米","phone":"13643963767;13849639508","category":"医疗保健服务;动物医疗场所;宠物诊所","area":"","lng":114.402898,"lat":32.602613,"amap_id":"B0FFKJ9HUS","order":9,"prev_distance_km":0.897,"cumulative_distance_km":20.231,"amap_marker_url":"https://uri.amap.com/marker?position=114.402898,32.602613&name=%E7%8E%8B%E6%8C%AF%E4%B8%AD%E5%8A%A8%E7%89%A9%E8%AF%8A%E6%89%80&src=vetmap&coordinate=gaode&callnative=1"},{"name":"畜禽疫病防治","address":"010县道与006乡道交叉口东120米","phone":"","category":"医疗保健服务;动物医疗场所;动物医疗场所","area":"","lng":114.542603,"lat":32.502613,"amap_id":"B0J3MHDDQO","order":10,"prev_distance_km":17.178,"cumulative_distance_km":37.409,"amap_marker_url":"https://uri.amap.com/marker?position=114.542603,32.502613&name=%E7%95%9C%E7%A6%BD%E7%96%AB%E7%97%85%E9%98%B2%E6%B2%BB&src=vetmap&coordinate=gaode&callnative=1"}]}