{"summary":{"id":"d01241","province":"河南省","city":"漯河市","district":"郾城区","count":22,"route_count":1,"max_route_clinics":22,"total_distance_km":38.281,"coordinate_system":"GCJ-02 / Amap","generated_at":"2026-05-07 21:29:38"},"routes":[{"id":"r1","name":"第1段","count":22,"total_distance_km":38.281,"rows":[{"name":"爱心宠物诊所(黄河路)","address":"黄河路","phone":"13193929189","category":"医疗保健服务;动物医疗场所;宠物诊所","area":"","lng":114.051447,"lat":33.583291,"amap_id":"B018B00K2O","order":1,"prev_distance_km":0.0,"cumulative_distance_km":0.0,"amap_marker_url":"https://uri.amap.com/marker?position=114.051447,33.583291&name=%E7%88%B1%E5%BF%83%E5%AE%A0%E7%89%A9%E8%AF%8A%E6%89%80%28%E9%BB%84%E6%B2%B3%E8%B7%AF%29&src=vetmap&coordinate=gaode&callnative=1","route_id":"r1","route_name":"第1段"},{"name":"远舟动保","address":"孙庄南街与黄河中路辅路交叉口南140米","phone":"","category":"医疗保健服务;动物医疗场所;动物医疗场所","area":"","lng":114.046964,"lat":33.58263,"amap_id":"B0L0DNLKYA","order":2,"prev_distance_km":0.422,"cumulative_distance_km":0.422,"amap_marker_url":"https://uri.amap.com/marker?position=114.046964,33.582630&name=%E8%BF%9C%E8%88%9F%E5%8A%A8%E4%BF%9D&src=vetmap&coordinate=gaode&callnative=1","route_id":"r1","route_name":"第1段"},{"name":"佳牧宠物医院(黄河路店)","address":"交通路与黄河路交叉口向东50米路南","phone":"0395-2925688","category":"医疗保健服务;动物医疗场所;宠物诊所","area":"","lng":114.040832,"lat":33.58385,"amap_id":"B0JD7HEN8A","order":3,"prev_distance_km":0.584,"cumulative_distance_km":1.006,"amap_marker_url":"https://uri.amap.com/marker?position=114.040832,33.583850&name=%E4%BD%B3%E7%89%A7%E5%AE%A0%E7%89%A9%E5%8C%BB%E9%99%A2%28%E9%BB%84%E6%B2%B3%E8%B7%AF%E5%BA%97%29&src=vetmap&coordinate=gaode&callnative=1","route_id":"r1","route_name":"第1段"},{"name":"金牧阳光宠物医院","address":"辽河路125-2号","phone":"0395-5995998;13939599811","category":"医疗保健服务;动物医疗场所;宠物诊所","area":"","lng":114.038779,"lat":33.59033,"amap_id":"B0H2M73D8A","order":4,"prev_distance_km":0.745,"cumulative_distance_km":1.751,"amap_marker_url":"https://uri.amap.com/marker?position=114.038779,33.590330&name=%E9%87%91%E7%89%A7%E9%98%B3%E5%85%89%E5%AE%A0%E7%89%A9%E5%8C%BB%E9%99%A2&src=vetmap&coordinate=gaode&callnative=1","route_id":"r1","route_name":"第1段"},{"name":"康复宠物医院舟山路店眼科·异宠·中兽医门诊","address":"辽河路与舟山路交叉口向南100米路东","phone":"0395-5590339;18039599720","category":"医疗保健服务;动物医疗场所;宠物诊所","area":"","lng":114.035425,"lat":33.588766,"amap_id":"B0FFKGQ834","order":5,"prev_distance_km":0.356,"cumulative_distance_km":2.107,"amap_marker_url":"https://uri.amap.com/marker?position=114.035425,33.588766&name=%E5%BA%B7%E5%A4%8D%E5%AE%A0%E7%89%A9%E5%8C%BB%E9%99%A2%E8%88%9F%E5%B1%B1%E8%B7%AF%E5%BA%97%E7%9C%BC%E7%A7%91%C2%B7%E5%BC%82%E5%AE%A0%C2%B7%E4%B8%AD%E5%85%BD%E5%8C%BB%E9%97%A8%E8%AF%8A&src=vetmap&coordinate=gaode&callnative=1","route_id":"r1","route_name":"第1段"},{"name":"佳瑞禾宠物医院","address":"黄河路与崂山路交叉口向西30米路北","phone":"15703903039;15738785825","category":"医疗保健服务;动物医疗场所;宠物诊所","area":"","lng":114.030589,"lat":33.585121,"amap_id":"B0IBZDZ2SZ","order":6,"prev_distance_km":0.604,"cumulative_distance_km":2.711,"amap_marker_url":"https://uri.amap.com/marker?position=114.030589,33.585121&name=%E4%BD%B3%E7%91%9E%E7%A6%BE%E5%AE%A0%E7%89%A9%E5%8C%BB%E9%99%A2&src=vetmap&coordinate=gaode&callnative=1","route_id":"r1","route_name":"第1段"},{"name":"福玥宠物医院辽河路分院","address":"泰山路辽河路交叉口向东二百米路北","phone":"","category":"医疗保健服务;动物医疗场所;宠物诊所","area":"","lng":114.028353,"lat":33.590594,"amap_id":"B0KA9HIUZC","order":7,"prev_distance_km":0.643,"cumulative_distance_km":3.354,"amap_marker_url":"https://uri.amap.com/marker?position=114.028353,33.590594&name=%E7%A6%8F%E7%8E%A5%E5%AE%A0%E7%89%A9%E5%8C%BB%E9%99%A2%E8%BE%BD%E6%B2%B3%E8%B7%AF%E5%88%86%E9%99%A2&src=vetmap&coordinate=gaode&callnative=1","route_id":"r1","route_name":"第1段"},{"name":"福明宠物医院","address":"辽河路与平安路交叉口西60米","phone":"","category":"医疗保健服务;动物医疗场所;宠物诊所","area":"","lng":114.02795,"lat":33.590605,"amap_id":"B0K1KL9WQ8","order":8,"prev_distance_km":0.037,"cumulative_distance_km":3.391,"amap_marker_url":"https://uri.amap.com/marker?position=114.027950,33.590605&name=%E7%A6%8F%E6%98%8E%E5%AE%A0%E7%89%A9%E5%8C%BB%E9%99%A2&src=vetmap&coordinate=gaode&callnative=1","route_id":"r1","route_name":"第1段"},{"name":"瑞康宠物医院·转诊中心·犬猫专科(泰山路店)","address":"辽河路与泰山路交叉口向北100米路西","phone":"19839593120","category":"医疗保健服务;动物医疗场所;宠物诊所","area":"泰山路","lng":114.024787,"lat":33.591365,"amap_id":"B0FFJMCT24","order":9,"prev_distance_km":0.305,"cumulative_distance_km":3.696,"amap_marker_url":"https://uri.amap.com/marker?position=114.024787,33.591365&name=%E7%91%9E%E5%BA%B7%E5%AE%A0%E7%89%A9%E5%8C%BB%E9%99%A2%C2%B7%E8%BD%AC%E8%AF%8A%E4%B8%AD%E5%BF%83%C2%B7%E7%8A%AC%E7%8C%AB%E4%B8%93%E7%A7%91%28%E6%B3%B0%E5%B1%B1%E8%B7%AF%E5%BA%97%29&src=vetmap&coordinate=gaode&callnative=1","route_id":"r1","route_name":"第1段"},{"name":"漯河市动物疫病预防控制中心","address":"黄山路50号","phone":"","category":"医疗保健服务;动物医疗场所;动物医疗场所","area":"泰山路","lng":114.020595,"lat":33.587277,"amap_id":"B018B00HNR","order":10,"prev_distance_km":0.598,"cumulative_distance_km":4.294,"amap_marker_url":"https://uri.amap.com/marker?position=114.020595,33.587277&name=%E6%BC%AF%E6%B2%B3%E5%B8%82%E5%8A%A8%E7%89%A9%E7%96%AB%E7%97%85%E9%A2%84%E9%98%B2%E6%8E%A7%E5%88%B6%E4%B8%AD%E5%BF%83&src=vetmap&coordinate=gaode&callnative=1","route_id":"r1","route_name":"第1段"},{"name":"萌宠之家郾城宠物医院","address":"太行山桥北100米路西","phone":"0395-3555120","category":"医疗保健服务;动物医疗场所;宠物诊所","area":"","lng":114.004575,"lat":33.582428,"amap_id":"B0K60HX087","order":11,"prev_distance_km":1.579,"cumulative_distance_km":5.873,"amap_marker_url":"https://uri.amap.com/marker?position=114.004575,33.582428&name=%E8%90%8C%E5%AE%A0%E4%B9%8B%E5%AE%B6%E9%83%BE%E5%9F%8E%E5%AE%A0%E7%89%A9%E5%8C%BB%E9%99%A2&src=vetmap&coordinate=gaode&callnative=1","route_id":"r1","route_name":"第1段"},{"name":"玉汝宠物","address":"黄河西路1103号","phone":"18739517020","category":"医疗保健服务;动物医疗场所;动物医疗场所","area":"","lng":113.993419,"lat":33.584561,"amap_id":"B0L2USE3PV","order":12,"prev_distance_km":1.06,"cumulative_distance_km":6.933,"amap_marker_url":"https://uri.amap.com/marker?position=113.993419,33.584561&name=%E7%8E%89%E6%B1%9D%E5%AE%A0%E7%89%A9&src=vetmap&coordinate=gaode&callnative=1","route_id":"r1","route_name":"第1段"},{"name":"医宠快康宠物医院","address":"辽河路739号","phone":"15539518123","category":"医疗保健服务;动物医疗场所;宠物诊所","area":"","lng":113.996503,"lat":33.591571,"amap_id":"B0LR9ZPLZJ","order":13,"prev_distance_km":0.83,"cumulative_distance_km":7.763,"amap_marker_url":"https://uri.amap.com/marker?position=113.996503,33.591571&name=%E5%8C%BB%E5%AE%A0%E5%BF%AB%E5%BA%B7%E5%AE%A0%E7%89%A9%E5%8C%BB%E9%99%A2&src=vetmap&coordinate=gaode&callnative=1","route_id":"r1","route_name":"第1段"},{"name":"天亮动物医院","address":"海河路许慎文苑10号门面","phone":"15890691842","category":"医疗保健服务;动物医疗场所;宠物诊所","area":"","lng":114.002775,"lat":33.586597,"amap_id":"B0I2J51U8Q","order":14,"prev_distance_km":0.802,"cumulative_distance_km":8.566,"amap_marker_url":"https://uri.amap.com/marker?position=114.002775,33.586597&name=%E5%A4%A9%E4%BA%AE%E5%8A%A8%E7%89%A9%E5%8C%BB%E9%99%A2&src=vetmap&coordinate=gaode&callnative=1","route_id":"r1","route_name":"第1段"},{"name":"康复宠物医院(太行山路店)","address":"格林幼儿园西南门旁","phone":"0395-3987239;15139520310","category":"医疗保健服务;动物医疗场所;宠物诊所","area":"","lng":114.00531,"lat":33.591767,"amap_id":"B0FFGO0EVX","order":15,"prev_distance_km":0.621,"cumulative_distance_km":9.187,"amap_marker_url":"https://uri.amap.com/marker?position=114.005310,33.591767&name=%E5%BA%B7%E5%A4%8D%E5%AE%A0%E7%89%A9%E5%8C%BB%E9%99%A2%28%E5%A4%AA%E8%A1%8C%E5%B1%B1%E8%B7%AF%E5%BA%97%29&src=vetmap&coordinate=gaode&callnative=1","route_id":"r1","route_name":"第1段"},{"name":"鹏爱宠物诊所","address":"太行山路与青河路交叉口向北20米路西","phone":"18239513061","category":"医疗保健服务;动物医疗场所;宠物诊所","area":"","lng":114.004762,"lat":33.594654,"amap_id":"B0FFH72A46","order":16,"prev_distance_km":0.325,"cumulative_distance_km":9.512,"amap_marker_url":"https://uri.amap.com/marker?position=114.004762,33.594654&name=%E9%B9%8F%E7%88%B1%E5%AE%A0%E7%89%A9%E8%AF%8A%E6%89%80&src=vetmap&coordinate=gaode&callnative=1","route_id":"r1","route_name":"第1段"},{"name":"爪爪宠物医院","address":"建业·壹号城邦东区南门西200米","phone":"16691569568","category":"医疗保健服务;动物医疗场所;宠物诊所","area":"","lng":114.013492,"lat":33.602503,"amap_id":"B0J39SCY8X","order":17,"prev_distance_km":1.19,"cumulative_distance_km":10.701,"amap_marker_url":"https://uri.amap.com/marker?position=114.013492,33.602503&name=%E7%88%AA%E7%88%AA%E5%AE%A0%E7%89%A9%E5%8C%BB%E9%99%A2&src=vetmap&coordinate=gaode&callnative=1","route_id":"r1","route_name":"第1段"},{"name":"莱德动物医院(嫩江路店)","address":"太行山路与嫩江路交叉口向西200米路北","phone":"17746980466","category":"医疗保健服务;动物医疗场所;宠物诊所","area":"","lng":114.002704,"lat":33.607065,"amap_id":"B0JAF7KCC9","order":18,"prev_distance_km":1.12,"cumulative_distance_km":11.822,"amap_marker_url":"https://uri.amap.com/marker?position=114.002704,33.607065&name=%E8%8E%B1%E5%BE%B7%E5%8A%A8%E7%89%A9%E5%8C%BB%E9%99%A2%28%E5%AB%A9%E6%B1%9F%E8%B7%AF%E5%BA%97%29&src=vetmap&coordinate=gaode&callnative=1","route_id":"r1","route_name":"第1段"},{"name":"他她它宠物美容会馆","address":"太行山路与何冢线交叉口南320米","phone":"","category":"医疗保健服务;动物医疗场所;动物医疗场所","area":"","lng":114.007044,"lat":33.626059,"amap_id":"B0KDOCXFV7","order":19,"prev_distance_km":2.15,"cumulative_distance_km":13.972,"amap_marker_url":"https://uri.amap.com/marker?position=114.007044,33.626059&name=%E4%BB%96%E5%A5%B9%E5%AE%83%E5%AE%A0%E7%89%A9%E7%BE%8E%E5%AE%B9%E4%BC%9A%E9%A6%86&src=vetmap&coordinate=gaode&callnative=1","route_id":"r1","route_name":"第1段"},{"name":"兽医专科宠物医院","address":"325省道与五台山北路交叉口南20米","phone":"","category":"医疗保健服务;动物医疗场所;兽医站","area":"","lng":113.953175,"lat":33.60111,"amap_id":"B0G02U60RT","order":20,"prev_distance_km":5.708,"cumulative_distance_km":19.68,"amap_marker_url":"https://uri.amap.com/marker?position=113.953175,33.601110&name=%E5%85%BD%E5%8C%BB%E4%B8%93%E7%A7%91%E5%AE%A0%E7%89%A9%E5%8C%BB%E9%99%A2&src=vetmap&coordinate=gaode&callnative=1","route_id":"r1","route_name":"第1段"},{"name":"龙城镇全山兽药店","address":"龙城镇十五里店","phone":"13783090190","category":"医疗保健服务;动物医疗场所;动物医疗场所","area":"","lng":113.919111,"lat":33.605656,"amap_id":"B0FFIFVHOP","order":21,"prev_distance_km":3.195,"cumulative_distance_km":22.875,"amap_marker_url":"https://uri.amap.com/marker?position=113.919111,33.605656&name=%E9%BE%99%E5%9F%8E%E9%95%87%E5%85%A8%E5%B1%B1%E5%85%BD%E8%8D%AF%E5%BA%97&src=vetmap&coordinate=gaode&callnative=1","route_id":"r1","route_name":"第1段"},{"name":"畜禽诊所","address":"保台线与028乡道交叉口南40米","phone":"","category":"医疗保健服务;动物医疗场所;兽医站","area":"","lng":113.800606,"lat":33.702947,"amap_id":"B0JAXG458R","order":22,"prev_distance_km":15.406,"cumulative_distance_km":38.281,"amap_marker_url":"https://uri.amap.com/marker?position=113.800606,33.702947&name=%E7%95%9C%E7%A6%BD%E8%AF%8A%E6%89%80&src=vetmap&coordinate=gaode&callnative=1","route_id":"r1","route_name":"第1段"}]}],"rows":[{"name":"爱心宠物诊所(黄河路)","address":"黄河路","phone":"13193929189","category":"医疗保健服务;动物医疗场所;宠物诊所","area":"","lng":114.051447,"lat":33.583291,"amap_id":"B018B00K2O","order":1,"prev_distance_km":0.0,"cumulative_distance_km":0.0,"amap_marker_url":"https://uri.amap.com/marker?position=114.051447,33.583291&name=%E7%88%B1%E5%BF%83%E5%AE%A0%E7%89%A9%E8%AF%8A%E6%89%80%28%E9%BB%84%E6%B2%B3%E8%B7%AF%29&src=vetmap&coordinate=gaode&callnative=1","route_id":"r1","route_name":"第1段","global_order":1},{"name":"远舟动保","address":"孙庄南街与黄河中路辅路交叉口南140米","phone":"","category":"医疗保健服务;动物医疗场所;动物医疗场所","area":"","lng":114.046964,"lat":33.58263,"amap_id":"B0L0DNLKYA","order":2,"prev_distance_km":0.422,"cumulative_distance_km":0.422,"amap_marker_url":"https://uri.amap.com/marker?position=114.046964,33.582630&name=%E8%BF%9C%E8%88%9F%E5%8A%A8%E4%BF%9D&src=vetmap&coordinate=gaode&callnative=1","route_id":"r1","route_name":"第1段","global_order":2},{"name":"佳牧宠物医院(黄河路店)","address":"交通路与黄河路交叉口向东50米路南","phone":"0395-2925688","category":"医疗保健服务;动物医疗场所;宠物诊所","area":"","lng":114.040832,"lat":33.58385,"amap_id":"B0JD7HEN8A","order":3,"prev_distance_km":0.584,"cumulative_distance_km":1.006,"amap_marker_url":"https://uri.amap.com/marker?position=114.040832,33.583850&name=%E4%BD%B3%E7%89%A7%E5%AE%A0%E7%89%A9%E5%8C%BB%E9%99%A2%28%E9%BB%84%E6%B2%B3%E8%B7%AF%E5%BA%97%29&src=vetmap&coordinate=gaode&callnative=1","route_id":"r1","route_name":"第1段","global_order":3},{"name":"金牧阳光宠物医院","address":"辽河路125-2号","phone":"0395-5995998;13939599811","category":"医疗保健服务;动物医疗场所;宠物诊所","area":"","lng":114.038779,"lat":33.59033,"amap_id":"B0H2M73D8A","order":4,"prev_distance_km":0.745,"cumulative_distance_km":1.751,"amap_marker_url":"https://uri.amap.com/marker?position=114.038779,33.590330&name=%E9%87%91%E7%89%A7%E9%98%B3%E5%85%89%E5%AE%A0%E7%89%A9%E5%8C%BB%E9%99%A2&src=vetmap&coordinate=gaode&callnative=1","route_id":"r1","route_name":"第1段","global_order":4},{"name":"康复宠物医院舟山路店眼科·异宠·中兽医门诊","address":"辽河路与舟山路交叉口向南100米路东","phone":"0395-5590339;18039599720","category":"医疗保健服务;动物医疗场所;宠物诊所","area":"","lng":114.035425,"lat":33.588766,"amap_id":"B0FFKGQ834","order":5,"prev_distance_km":0.356,"cumulative_distance_km":2.107,"amap_marker_url":"https://uri.amap.com/marker?position=114.035425,33.588766&name=%E5%BA%B7%E5%A4%8D%E5%AE%A0%E7%89%A9%E5%8C%BB%E9%99%A2%E8%88%9F%E5%B1%B1%E8%B7%AF%E5%BA%97%E7%9C%BC%E7%A7%91%C2%B7%E5%BC%82%E5%AE%A0%C2%B7%E4%B8%AD%E5%85%BD%E5%8C%BB%E9%97%A8%E8%AF%8A&src=vetmap&coordinate=gaode&callnative=1","route_id":"r1","route_name":"第1段","global_order":5},{"name":"佳瑞禾宠物医院","address":"黄河路与崂山路交叉口向西30米路北","phone":"15703903039;15738785825","category":"医疗保健服务;动物医疗场所;宠物诊所","area":"","lng":114.030589,"lat":33.585121,"amap_id":"B0IBZDZ2SZ","order":6,"prev_distance_km":0.604,"cumulative_distance_km":2.711,"amap_marker_url":"https://uri.amap.com/marker?position=114.030589,33.585121&name=%E4%BD%B3%E7%91%9E%E7%A6%BE%E5%AE%A0%E7%89%A9%E5%8C%BB%E9%99%A2&src=vetmap&coordinate=gaode&callnative=1","route_id":"r1","route_name":"第1段","global_order":6},{"name":"福玥宠物医院辽河路分院","address":"泰山路辽河路交叉口向东二百米路北","phone":"","category":"医疗保健服务;动物医疗场所;宠物诊所","area":"","lng":114.028353,"lat":33.590594,"amap_id":"B0KA9HIUZC","order":7,"prev_distance_km":0.643,"cumulative_distance_km":3.354,"amap_marker_url":"https://uri.amap.com/marker?position=114.028353,33.590594&name=%E7%A6%8F%E7%8E%A5%E5%AE%A0%E7%89%A9%E5%8C%BB%E9%99%A2%E8%BE%BD%E6%B2%B3%E8%B7%AF%E5%88%86%E9%99%A2&src=vetmap&coordinate=gaode&callnative=1","route_id":"r1","route_name":"第1段","global_order":7},{"name":"福明宠物医院","address":"辽河路与平安路交叉口西60米","phone":"","category":"医疗保健服务;动物医疗场所;宠物诊所","area":"","lng":114.02795,"lat":33.590605,"amap_id":"B0K1KL9WQ8","order":8,"prev_distance_km":0.037,"cumulative_distance_km":3.391,"amap_marker_url":"https://uri.amap.com/marker?position=114.027950,33.590605&name=%E7%A6%8F%E6%98%8E%E5%AE%A0%E7%89%A9%E5%8C%BB%E9%99%A2&src=vetmap&coordinate=gaode&callnative=1","route_id":"r1","route_name":"第1段","global_order":8},{"name":"瑞康宠物医院·转诊中心·犬猫专科(泰山路店)","address":"辽河路与泰山路交叉口向北100米路西","phone":"19839593120","category":"医疗保健服务;动物医疗场所;宠物诊所","area":"泰山路","lng":114.024787,"lat":33.591365,"amap_id":"B0FFJMCT24","order":9,"prev_distance_km":0.305,"cumulative_distance_km":3.696,"amap_marker_url":"https://uri.amap.com/marker?position=114.024787,33.591365&name=%E7%91%9E%E5%BA%B7%E5%AE%A0%E7%89%A9%E5%8C%BB%E9%99%A2%C2%B7%E8%BD%AC%E8%AF%8A%E4%B8%AD%E5%BF%83%C2%B7%E7%8A%AC%E7%8C%AB%E4%B8%93%E7%A7%91%28%E6%B3%B0%E5%B1%B1%E8%B7%AF%E5%BA%97%29&src=vetmap&coordinate=gaode&callnative=1","route_id":"r1","route_name":"第1段","global_order":9},{"name":"漯河市动物疫病预防控制中心","address":"黄山路50号","phone":"","category":"医疗保健服务;动物医疗场所;动物医疗场所","area":"泰山路","lng":114.020595,"lat":33.587277,"amap_id":"B018B00HNR","order":10,"prev_distance_km":0.598,"cumulative_distance_km":4.294,"amap_marker_url":"https://uri.amap.com/marker?position=114.020595,33.587277&name=%E6%BC%AF%E6%B2%B3%E5%B8%82%E5%8A%A8%E7%89%A9%E7%96%AB%E7%97%85%E9%A2%84%E9%98%B2%E6%8E%A7%E5%88%B6%E4%B8%AD%E5%BF%83&src=vetmap&coordinate=gaode&callnative=1","route_id":"r1","route_name":"第1段","global_order":10},{"name":"萌宠之家郾城宠物医院","address":"太行山桥北100米路西","phone":"0395-3555120","category":"医疗保健服务;动物医疗场所;宠物诊所","area":"","lng":114.004575,"lat":33.582428,"amap_id":"B0K60HX087","order":11,"prev_distance_km":1.579,"cumulative_distance_km":5.873,"amap_marker_url":"https://uri.amap.com/marker?position=114.004575,33.582428&name=%E8%90%8C%E5%AE%A0%E4%B9%8B%E5%AE%B6%E9%83%BE%E5%9F%8E%E5%AE%A0%E7%89%A9%E5%8C%BB%E9%99%A2&src=vetmap&coordinate=gaode&callnative=1","route_id":"r1","route_name":"第1段","global_order":11},{"name":"玉汝宠物","address":"黄河西路1103号","phone":"18739517020","category":"医疗保健服务;动物医疗场所;动物医疗场所","area":"","lng":113.993419,"lat":33.584561,"amap_id":"B0L2USE3PV","order":12,"prev_distance_km":1.06,"cumulative_distance_km":6.933,"amap_marker_url":"https://uri.amap.com/marker?position=113.993419,33.584561&name=%E7%8E%89%E6%B1%9D%E5%AE%A0%E7%89%A9&src=vetmap&coordinate=gaode&callnative=1","route_id":"r1","route_name":"第1段","global_order":12},{"name":"医宠快康宠物医院","address":"辽河路739号","phone":"15539518123","category":"医疗保健服务;动物医疗场所;宠物诊所","area":"","lng":113.996503,"lat":33.591571,"amap_id":"B0LR9ZPLZJ","order":13,"prev_distance_km":0.83,"cumulative_distance_km":7.763,"amap_marker_url":"https://uri.amap.com/marker?position=113.996503,33.591571&name=%E5%8C%BB%E5%AE%A0%E5%BF%AB%E5%BA%B7%E5%AE%A0%E7%89%A9%E5%8C%BB%E9%99%A2&src=vetmap&coordinate=gaode&callnative=1","route_id":"r1","route_name":"第1段","global_order":13},{"name":"天亮动物医院","address":"海河路许慎文苑10号门面","phone":"15890691842","category":"医疗保健服务;动物医疗场所;宠物诊所","area":"","lng":114.002775,"lat":33.586597,"amap_id":"B0I2J51U8Q","order":14,"prev_distance_km":0.802,"cumulative_distance_km":8.566,"amap_marker_url":"https://uri.amap.com/marker?position=114.002775,33.586597&name=%E5%A4%A9%E4%BA%AE%E5%8A%A8%E7%89%A9%E5%8C%BB%E9%99%A2&src=vetmap&coordinate=gaode&callnative=1","route_id":"r1","route_name":"第1段","global_order":14},{"name":"康复宠物医院(太行山路店)","address":"格林幼儿园西南门旁","phone":"0395-3987239;15139520310","category":"医疗保健服务;动物医疗场所;宠物诊所","area":"","lng":114.00531,"lat":33.591767,"amap_id":"B0FFGO0EVX","order":15,"prev_distance_km":0.621,"cumulative_distance_km":9.187,"amap_marker_url":"https://uri.amap.com/marker?position=114.005310,33.591767&name=%E5%BA%B7%E5%A4%8D%E5%AE%A0%E7%89%A9%E5%8C%BB%E9%99%A2%28%E5%A4%AA%E8%A1%8C%E5%B1%B1%E8%B7%AF%E5%BA%97%29&src=vetmap&coordinate=gaode&callnative=1","route_id":"r1","route_name":"第1段","global_order":15},{"name":"鹏爱宠物诊所","address":"太行山路与青河路交叉口向北20米路西","phone":"18239513061","category":"医疗保健服务;动物医疗场所;宠物诊所","area":"","lng":114.004762,"lat":33.594654,"amap_id":"B0FFH72A46","order":16,"prev_distance_km":0.325,"cumulative_distance_km":9.512,"amap_marker_url":"https://uri.amap.com/marker?position=114.004762,33.594654&name=%E9%B9%8F%E7%88%B1%E5%AE%A0%E7%89%A9%E8%AF%8A%E6%89%80&src=vetmap&coordinate=gaode&callnative=1","route_id":"r1","route_name":"第1段","global_order":16},{"name":"爪爪宠物医院","address":"建业·壹号城邦东区南门西200米","phone":"16691569568","category":"医疗保健服务;动物医疗场所;宠物诊所","area":"","lng":114.013492,"lat":33.602503,"amap_id":"B0J39SCY8X","order":17,"prev_distance_km":1.19,"cumulative_distance_km":10.701,"amap_marker_url":"https://uri.amap.com/marker?position=114.013492,33.602503&name=%E7%88%AA%E7%88%AA%E5%AE%A0%E7%89%A9%E5%8C%BB%E9%99%A2&src=vetmap&coordinate=gaode&callnative=1","route_id":"r1","route_name":"第1段","global_order":17},{"name":"莱德动物医院(嫩江路店)","address":"太行山路与嫩江路交叉口向西200米路北","phone":"17746980466","category":"医疗保健服务;动物医疗场所;宠物诊所","area":"","lng":114.002704,"lat":33.607065,"amap_id":"B0JAF7KCC9","order":18,"prev_distance_km":1.12,"cumulative_distance_km":11.822,"amap_marker_url":"https://uri.amap.com/marker?position=114.002704,33.607065&name=%E8%8E%B1%E5%BE%B7%E5%8A%A8%E7%89%A9%E5%8C%BB%E9%99%A2%28%E5%AB%A9%E6%B1%9F%E8%B7%AF%E5%BA%97%29&src=vetmap&coordinate=gaode&callnative=1","route_id":"r1","route_name":"第1段","global_order":18},{"name":"他她它宠物美容会馆","address":"太行山路与何冢线交叉口南320米","phone":"","category":"医疗保健服务;动物医疗场所;动物医疗场所","area":"","lng":114.007044,"lat":33.626059,"amap_id":"B0KDOCXFV7","order":19,"prev_distance_km":2.15,"cumulative_distance_km":13.972,"amap_marker_url":"https://uri.amap.com/marker?position=114.007044,33.626059&name=%E4%BB%96%E5%A5%B9%E5%AE%83%E5%AE%A0%E7%89%A9%E7%BE%8E%E5%AE%B9%E4%BC%9A%E9%A6%86&src=vetmap&coordinate=gaode&callnative=1","route_id":"r1","route_name":"第1段","global_order":19},{"name":"兽医专科宠物医院","address":"325省道与五台山北路交叉口南20米","phone":"","category":"医疗保健服务;动物医疗场所;兽医站","area":"","lng":113.953175,"lat":33.60111,"amap_id":"B0G02U60RT","order":20,"prev_distance_km":5.708,"cumulative_distance_km":19.68,"amap_marker_url":"https://uri.amap.com/marker?position=113.953175,33.601110&name=%E5%85%BD%E5%8C%BB%E4%B8%93%E7%A7%91%E5%AE%A0%E7%89%A9%E5%8C%BB%E9%99%A2&src=vetmap&coordinate=gaode&callnative=1","route_id":"r1","route_name":"第1段","global_order":20},{"name":"龙城镇全山兽药店","address":"龙城镇十五里店","phone":"13783090190","category":"医疗保健服务;动物医疗场所;动物医疗场所","area":"","lng":113.919111,"lat":33.605656,"amap_id":"B0FFIFVHOP","order":21,"prev_distance_km":3.195,"cumulative_distance_km":22.875,"amap_marker_url":"https://uri.amap.com/marker?position=113.919111,33.605656&name=%E9%BE%99%E5%9F%8E%E9%95%87%E5%85%A8%E5%B1%B1%E5%85%BD%E8%8D%AF%E5%BA%97&src=vetmap&coordinate=gaode&callnative=1","route_id":"r1","route_name":"第1段","global_order":21},{"name":"畜禽诊所","address":"保台线与028乡道交叉口南40米","phone":"","category":"医疗保健服务;动物医疗场所;兽医站","area":"","lng":113.800606,"lat":33.702947,"amap_id":"B0JAXG458R","order":22,"prev_distance_km":15.406,"cumulative_distance_km":38.281,"amap_marker_url":"https://uri.amap.com/marker?position=113.800606,33.702947&name=%E7%95%9C%E7%A6%BD%E8%AF%8A%E6%89%80&src=vetmap&coordinate=gaode&callnative=1","route_id":"r1","route_name":"第1段","global_order":22}]}