{"summary":{"id":"d01264","province":"河南省","city":"郑州市","district":"上街区","count":10,"total_distance_km":6.422,"coordinate_system":"GCJ-02 / Amap","generated_at":"2026-05-07 19:57:44"},"rows":[{"name":"康缘宠物诊所(新乡路店)","address":"济源路街道新乡路与淮阳路交叉口东100米路南","phone":"18569910566","category":"医疗保健服务;动物医疗场所;宠物诊所","area":"","lng":113.308266,"lat":34.814385,"amap_id":"B0FFF90CWC","order":1,"prev_distance_km":0.0,"cumulative_distance_km":0.0,"amap_marker_url":"https://uri.amap.com/marker?position=113.308266,34.814385&name=%E5%BA%B7%E7%BC%98%E5%AE%A0%E7%89%A9%E8%AF%8A%E6%89%80%28%E6%96%B0%E4%B9%A1%E8%B7%AF%E5%BA%97%29&src=vetmap&coordinate=gaode&callnative=1"},{"name":"圆圆宠物美容","address":"海月华庭东北门旁","phone":"","category":"医疗保健服务;动物医疗场所;宠物诊所","area":"","lng":113.308475,"lat":34.814325,"amap_id":"B0L601P2U0","order":2,"prev_distance_km":0.02,"cumulative_distance_km":0.02,"amap_marker_url":"https://uri.amap.com/marker?position=113.308475,34.814325&name=%E5%9C%86%E5%9C%86%E5%AE%A0%E7%89%A9%E7%BE%8E%E5%AE%B9&src=vetmap&coordinate=gaode&callnative=1"},{"name":"大嘴狗宠物诊所(上街分店)","address":"新乡路与金屏路交叉口西南角","phone":"13343823452;13673655226;13937131097","category":"医疗保健服务;动物医疗场所;宠物诊所","area":"","lng":113.312118,"lat":34.813288,"amap_id":"B0FFH8WDL5","order":3,"prev_distance_km":0.352,"cumulative_distance_km":0.372,"amap_marker_url":"https://uri.amap.com/marker?position=113.312118,34.813288&name=%E5%A4%A7%E5%98%B4%E7%8B%97%E5%AE%A0%E7%89%A9%E8%AF%8A%E6%89%80%28%E4%B8%8A%E8%A1%97%E5%88%86%E5%BA%97%29&src=vetmap&coordinate=gaode&callnative=1"},{"name":"郑州市上街区爱它宠物诊所","address":"金华路与济源路交叉口向北一百米路西54-18","phone":"18236762526","category":"医疗保健服务;动物医疗场所;宠物诊所","area":"济源路","lng":113.316,"lat":34.808354,"amap_id":"B0GKVZ2AQ3","order":4,"prev_distance_km":0.653,"cumulative_distance_km":1.025,"amap_marker_url":"https://uri.amap.com/marker?position=113.316000,34.808354&name=%E9%83%91%E5%B7%9E%E5%B8%82%E4%B8%8A%E8%A1%97%E5%8C%BA%E7%88%B1%E5%AE%83%E5%AE%A0%E7%89%A9%E8%AF%8A%E6%89%80&src=vetmap&coordinate=gaode&callnative=1"},{"name":"宠众康宠物医院(上街店)","address":"济源路与金华路交叉口向北30米路西","phone":"13523400776;15639928358","category":"医疗保健服务;动物医疗场所;宠物诊所","area":"济源路","lng":113.315742,"lat":34.807747,"amap_id":"B0K0YUFW22","order":5,"prev_distance_km":0.071,"cumulative_distance_km":1.097,"amap_marker_url":"https://uri.amap.com/marker?position=113.315742,34.807747&name=%E5%AE%A0%E4%BC%97%E5%BA%B7%E5%AE%A0%E7%89%A9%E5%8C%BB%E9%99%A2%28%E4%B8%8A%E8%A1%97%E5%BA%97%29&src=vetmap&coordinate=gaode&callnative=1"},{"name":"欣爱宠物诊所","address":"峡窝镇金华路理想名城32号M3右","phone":"13849034356","category":"医疗保健服务;动物医疗场所;宠物诊所","area":"中心路","lng":113.313768,"lat":34.796776,"amap_id":"B0M6DU7D26","order":6,"prev_distance_km":1.233,"cumulative_distance_km":2.33,"amap_marker_url":"https://uri.amap.com/marker?position=113.313768,34.796776&name=%E6%AC%A3%E7%88%B1%E5%AE%A0%E7%89%A9%E8%AF%8A%E6%89%80&src=vetmap&coordinate=gaode&callnative=1"},{"name":"忠真宠物门诊","address":"汇泽国际城东北门西北80米","phone":"","category":"医疗保健服务;动物医疗场所;宠物诊所","area":"中心路","lng":113.305003,"lat":34.801782,"amap_id":"B0LGK7P4TU","order":7,"prev_distance_km":0.975,"cumulative_distance_km":3.305,"amap_marker_url":"https://uri.amap.com/marker?position=113.305003,34.801782&name=%E5%BF%A0%E7%9C%9F%E5%AE%A0%E7%89%A9%E9%97%A8%E8%AF%8A&src=vetmap&coordinate=gaode&callnative=1"},{"name":"莱馨宠物门诊(上街区欢乐金街店)","address":"峡窝镇欢乐金街9-m10二层","phone":"15188303843;15517553311","category":"医疗保健服务;动物医疗场所;宠物诊所","area":"","lng":113.298754,"lat":34.798565,"amap_id":"B0HAPRV4EN","order":8,"prev_distance_km":0.673,"cumulative_distance_km":3.978,"amap_marker_url":"https://uri.amap.com/marker?position=113.298754,34.798565&name=%E8%8E%B1%E9%A6%A8%E5%AE%A0%E7%89%A9%E9%97%A8%E8%AF%8A%28%E4%B8%8A%E8%A1%97%E5%8C%BA%E6%AC%A2%E4%B9%90%E9%87%91%E8%A1%97%E5%BA%97%29&src=vetmap&coordinate=gaode&callnative=1"},{"name":"佑心宠物诊所(上街店)","address":"翡翠华庭西北2门西南70米","phone":"","category":"医疗保健服务;动物医疗场所;宠物诊所","area":"中心路","lng":113.283468,"lat":34.803841,"amap_id":"B0K1H9RPWL","order":9,"prev_distance_km":1.514,"cumulative_distance_km":5.492,"amap_marker_url":"https://uri.amap.com/marker?position=113.283468,34.803841&name=%E4%BD%91%E5%BF%83%E5%AE%A0%E7%89%A9%E8%AF%8A%E6%89%80%28%E4%B8%8A%E8%A1%97%E5%BA%97%29&src=vetmap&coordinate=gaode&callnative=1"},{"name":"淘淘宠物洗澡美容","address":"孟津路与济源路交叉口南180米","phone":"","category":"医疗保健服务;动物医疗场所;宠物诊所","area":"中心路","lng":113.289729,"lat":34.810431,"amap_id":"B0HKVH8QNW","order":10,"prev_distance_km":0.929,"cumulative_distance_km":6.422,"amap_marker_url":"https://uri.amap.com/marker?position=113.289729,34.810431&name=%E6%B7%98%E6%B7%98%E5%AE%A0%E7%89%A9%E6%B4%97%E6%BE%A1%E7%BE%8E%E5%AE%B9&src=vetmap&coordinate=gaode&callnative=1"}]}