{"summary":{"id":"d01205","province":"河南省","city":"开封市","district":"禹王台区","count":7,"total_distance_km":6.932,"coordinate_system":"GCJ-02 / Amap","generated_at":"2026-05-07 19:57:38"},"rows":[{"name":"喜来乐动物诊所","address":"中州新城一路与魏都路交叉口南200米","phone":"","category":"医疗保健服务;动物医疗场所;宠物诊所","area":"","lng":114.340687,"lat":34.772976,"amap_id":"B0JB163BPR","order":1,"prev_distance_km":0.0,"cumulative_distance_km":0.0,"amap_marker_url":"https://uri.amap.com/marker?position=114.340687,34.772976&name=%E5%96%9C%E6%9D%A5%E4%B9%90%E5%8A%A8%E7%89%A9%E8%AF%8A%E6%89%80&src=vetmap&coordinate=gaode&callnative=1"},{"name":"开封市吉祥宠物诊所(犬猫专科)","address":"五一路与五福路交口处北100米路东处","phone":"15890366838","category":"医疗保健服务;动物医疗场所;宠物诊所","area":"","lng":114.339102,"lat":34.778239,"amap_id":"B0FFJOZCWX","order":2,"prev_distance_km":0.603,"cumulative_distance_km":0.603,"amap_marker_url":"https://uri.amap.com/marker?position=114.339102,34.778239&name=%E5%BC%80%E5%B0%81%E5%B8%82%E5%90%89%E7%A5%A5%E5%AE%A0%E7%89%A9%E8%AF%8A%E6%89%80%28%E7%8A%AC%E7%8C%AB%E4%B8%93%E7%A7%91%29&src=vetmap&coordinate=gaode&callnative=1"},{"name":"仁爱宠物医院(医院后街店)","address":"医院后街5-100号","phone":"","category":"医疗保健服务;动物医疗场所;宠物诊所","area":"","lng":114.345637,"lat":34.781985,"amap_id":"B0FFGWQKL7","order":3,"prev_distance_km":0.728,"cumulative_distance_km":1.331,"amap_marker_url":"https://uri.amap.com/marker?position=114.345637,34.781985&name=%E4%BB%81%E7%88%B1%E5%AE%A0%E7%89%A9%E5%8C%BB%E9%99%A2%28%E5%8C%BB%E9%99%A2%E5%90%8E%E8%A1%97%E5%BA%97%29&src=vetmap&coordinate=gaode&callnative=1"},{"name":"乐宠宠物诊所","address":"广宇春天西南门旁","phone":"15194631203","category":"医疗保健服务;动物医疗场所;宠物诊所","area":"","lng":114.366457,"lat":34.772941,"amap_id":"B0FFJ5LRII","order":4,"prev_distance_km":2.151,"cumulative_distance_km":3.482,"amap_marker_url":"https://uri.amap.com/marker?position=114.366457,34.772941&name=%E4%B9%90%E5%AE%A0%E5%AE%A0%E7%89%A9%E8%AF%8A%E6%89%80&src=vetmap&coordinate=gaode&callnative=1"},{"name":"泓嘉宠物诊所","address":"东闸口街107号","phone":"17777814189","category":"医疗保健服务;动物医疗场所;宠物诊所","area":"","lng":114.36319,"lat":34.770731,"amap_id":"B0GUR7PC5Q","order":5,"prev_distance_km":0.387,"cumulative_distance_km":3.868,"amap_marker_url":"https://uri.amap.com/marker?position=114.363190,34.770731&name=%E6%B3%93%E5%98%89%E5%AE%A0%E7%89%A9%E8%AF%8A%E6%89%80&src=vetmap&coordinate=gaode&callnative=1"},{"name":"大李庄兽医站宠物医院","address":"农业农村局东南门旁","phone":"","category":"医疗保健服务;动物医疗场所;兽医站","area":"","lng":114.359648,"lat":34.761492,"amap_id":"B0G3J993TA","order":6,"prev_distance_km":1.077,"cumulative_distance_km":4.945,"amap_marker_url":"https://uri.amap.com/marker?position=114.359648,34.761492&name=%E5%A4%A7%E6%9D%8E%E5%BA%84%E5%85%BD%E5%8C%BB%E7%AB%99%E5%AE%A0%E7%89%A9%E5%8C%BB%E9%99%A2&src=vetmap&coordinate=gaode&callnative=1"},{"name":"西柳林兽药店","address":"柳林东街与杨柳街交叉口南140米","phone":"13653788355","category":"医疗保健服务;动物医疗场所;动物医疗场所","area":"","lng":114.349564,"lat":34.745663,"amap_id":"B0FFLBX6L8","order":7,"prev_distance_km":1.987,"cumulative_distance_km":6.932,"amap_marker_url":"https://uri.amap.com/marker?position=114.349564,34.745663&name=%E8%A5%BF%E6%9F%B3%E6%9E%97%E5%85%BD%E8%8D%AF%E5%BA%97&src=vetmap&coordinate=gaode&callnative=1"}]}