{"summary":{"id":"d01238","province":"河南省","city":"漯河市","district":"召陵区","count":14,"route_count":1,"max_route_clinics":14,"total_distance_km":41.807,"coordinate_system":"GCJ-02 / Amap","generated_at":"2026-05-07 21:29:38"},"routes":[{"id":"r1","name":"第1段","count":14,"total_distance_km":41.807,"rows":[{"name":"宠物健康咨询","address":"解放路滨河路交叉口向南20米路西","phone":"17631806120","category":"医疗保健服务;动物医疗场所;宠物诊所","area":"","lng":114.048512,"lat":33.576304,"amap_id":"B0G2RGINC2","order":1,"prev_distance_km":0.0,"cumulative_distance_km":0.0,"amap_marker_url":"https://uri.amap.com/marker?position=114.048512,33.576304&name=%E5%AE%A0%E7%89%A9%E5%81%A5%E5%BA%B7%E5%92%A8%E8%AF%A2&src=vetmap&coordinate=gaode&callnative=1","route_id":"r1","route_name":"第1段"},{"name":"顺和动物诊所","address":"双汇路与人东二巷交叉口西10米路北","phone":"15639593915","category":"医疗保健服务;动物医疗场所;宠物诊所","area":"","lng":114.052545,"lat":33.565146,"amap_id":"B0FFKT5487","order":2,"prev_distance_km":1.296,"cumulative_distance_km":1.296,"amap_marker_url":"https://uri.amap.com/marker?position=114.052545,33.565146&name=%E9%A1%BA%E5%92%8C%E5%8A%A8%E7%89%A9%E8%AF%8A%E6%89%80&src=vetmap&coordinate=gaode&callnative=1","route_id":"r1","route_name":"第1段"},{"name":"爱它宠物医院(湘江东路店)","address":"湘江路与光明南路交叉口路南","phone":"15639557991","category":"医疗保健服务;动物医疗场所;宠物诊所","area":"","lng":114.055688,"lat":33.559352,"amap_id":"B0KUHZD72E","order":3,"prev_distance_km":0.707,"cumulative_distance_km":2.003,"amap_marker_url":"https://uri.amap.com/marker?position=114.055688,33.559352&name=%E7%88%B1%E5%AE%83%E5%AE%A0%E7%89%A9%E5%8C%BB%E9%99%A2%28%E6%B9%98%E6%B1%9F%E4%B8%9C%E8%B7%AF%E5%BA%97%29&src=vetmap&coordinate=gaode&callnative=1","route_id":"r1","route_name":"第1段"},{"name":"宠一生宠物医院","address":"金博苑1号楼门面106-108号","phone":"15303950796;15346000534;15565897979","category":"医疗保健服务;动物医疗场所;宠物诊所","area":"","lng":114.070389,"lat":33.559132,"amap_id":"B0FFJXWU7Z","order":4,"prev_distance_km":1.362,"cumulative_distance_km":3.365,"amap_marker_url":"https://uri.amap.com/marker?position=114.070389,33.559132&name=%E5%AE%A0%E4%B8%80%E7%94%9F%E5%AE%A0%E7%89%A9%E5%8C%BB%E9%99%A2&src=vetmap&coordinate=gaode&callnative=1","route_id":"r1","route_name":"第1段"},{"name":"关爱宠物医院(滨河东路店)","address":"滨河东路与银鸽大道交叉口西360米","phone":"","category":"医疗保健服务;动物医疗场所;宠物诊所","area":"","lng":114.065946,"lat":33.572672,"amap_id":"B0IAT6DUUD","order":5,"prev_distance_km":1.561,"cumulative_distance_km":4.926,"amap_marker_url":"https://uri.amap.com/marker?position=114.065946,33.572672&name=%E5%85%B3%E7%88%B1%E5%AE%A0%E7%89%A9%E5%8C%BB%E9%99%A2%28%E6%BB%A8%E6%B2%B3%E4%B8%9C%E8%B7%AF%E5%BA%97%29&src=vetmap&coordinate=gaode&callnative=1","route_id":"r1","route_name":"第1段"},{"name":"康复宠物医院黄河路分院·转诊中心·猫专科","address":"黄河路与燕山北路交叉口东辅路宝丽世家东160米","phone":"0395-2929120;18339558593","category":"医疗保健服务;动物医疗场所;宠物诊所","area":"","lng":114.0809,"lat":33.58368,"amap_id":"B0J0DAN6T3","order":6,"prev_distance_km":1.849,"cumulative_distance_km":6.775,"amap_marker_url":"https://uri.amap.com/marker?position=114.080900,33.583680&name=%E5%BA%B7%E5%A4%8D%E5%AE%A0%E7%89%A9%E5%8C%BB%E9%99%A2%E9%BB%84%E6%B2%B3%E8%B7%AF%E5%88%86%E9%99%A2%C2%B7%E8%BD%AC%E8%AF%8A%E4%B8%AD%E5%BF%83%C2%B7%E7%8C%AB%E4%B8%93%E7%A7%91&src=vetmap&coordinate=gaode&callnative=1","route_id":"r1","route_name":"第1段"},{"name":"宠佳宠物诊所","address":"翟庄英杨幸福佳苑南门向西20米22号","phone":"15188413077","category":"医疗保健服务;动物医疗场所;宠物诊所","area":"","lng":114.080646,"lat":33.590129,"amap_id":"B0LGFRJ2DA","order":7,"prev_distance_km":0.717,"cumulative_distance_km":7.492,"amap_marker_url":"https://uri.amap.com/marker?position=114.080646,33.590129&name=%E5%AE%A0%E4%BD%B3%E5%AE%A0%E7%89%A9%E8%AF%8A%E6%89%80&src=vetmap&coordinate=gaode&callnative=1","route_id":"r1","route_name":"第1段"},{"name":"瑞城宠物医院","address":"汾河路庐山路交叉口向东50米路北","phone":"15290717971","category":"医疗保健服务;动物医疗场所;宠物诊所","area":"","lng":114.101857,"lat":33.585501,"amap_id":"B0KKLLE5E1","order":8,"prev_distance_km":2.031,"cumulative_distance_km":9.523,"amap_marker_url":"https://uri.amap.com/marker?position=114.101857,33.585501&name=%E7%91%9E%E5%9F%8E%E5%AE%A0%E7%89%A9%E5%8C%BB%E9%99%A2&src=vetmap&coordinate=gaode&callnative=1","route_id":"r1","route_name":"第1段"},{"name":"天望宠物","address":"黄河路与阳山路交叉口东南380米","phone":"","category":"医疗保健服务;动物医疗场所;宠物诊所","area":"","lng":114.133875,"lat":33.580475,"amap_id":"B0M6XUS3N6","order":9,"prev_distance_km":3.018,"cumulative_distance_km":12.541,"amap_marker_url":"https://uri.amap.com/marker?position=114.133875,33.580475&name=%E5%A4%A9%E6%9C%9B%E5%AE%A0%E7%89%A9&src=vetmap&coordinate=gaode&callnative=1","route_id":"r1","route_name":"第1段"},{"name":"邓襄名星兽药店","address":"邓襄镇前安村东头6号","phone":"17589586606","category":"医疗保健服务;动物医疗场所;动物医疗场所","area":"","lng":114.139036,"lat":33.516734,"amap_id":"B0L16ARI5S","order":10,"prev_distance_km":7.104,"cumulative_distance_km":19.645,"amap_marker_url":"https://uri.amap.com/marker?position=114.139036,33.516734&name=%E9%82%93%E8%A5%84%E5%90%8D%E6%98%9F%E5%85%BD%E8%8D%AF%E5%BA%97&src=vetmap&coordinate=gaode&callnative=1","route_id":"r1","route_name":"第1段"},{"name":"方通兽药部","address":"中心社区商业街与金城大道交叉口南140米","phone":"","category":"医疗保健服务;动物医疗场所;动物医疗场所","area":"","lng":114.206375,"lat":33.501175,"amap_id":"B0LDCHTMFF","order":11,"prev_distance_km":6.479,"cumulative_distance_km":26.124,"amap_marker_url":"https://uri.amap.com/marker?position=114.206375,33.501175&name=%E6%96%B9%E9%80%9A%E5%85%BD%E8%8D%AF%E9%83%A8&src=vetmap&coordinate=gaode&callnative=1","route_id":"r1","route_name":"第1段"},{"name":"昌恒禽业服务站","address":"文昌路与宋后路交叉口西北20米","phone":"","category":"医疗保健服务;动物医疗场所;兽医站","area":"","lng":114.201825,"lat":33.546975,"amap_id":"B0LBL9QF6J","order":12,"prev_distance_km":5.11,"cumulative_distance_km":31.234,"amap_marker_url":"https://uri.amap.com/marker?position=114.201825,33.546975&name=%E6%98%8C%E6%81%92%E7%A6%BD%E4%B8%9A%E6%9C%8D%E5%8A%A1%E7%AB%99&src=vetmap&coordinate=gaode&callnative=1","route_id":"r1","route_name":"第1段"},{"name":"俊超兽药店","address":"济民大药房(后宋路店)北侧","phone":"18739559969","category":"医疗保健服务;动物医疗场所;动物医疗场所","area":"","lng":114.200555,"lat":33.591778,"amap_id":"B0G2179E7B","order":13,"prev_distance_km":4.983,"cumulative_distance_km":36.217,"amap_marker_url":"https://uri.amap.com/marker?position=114.200555,33.591778&name=%E4%BF%8A%E8%B6%85%E5%85%BD%E8%8D%AF%E5%BA%97&src=vetmap&coordinate=gaode&callnative=1","route_id":"r1","route_name":"第1段"},{"name":"青年乡纺车刘兽医站国语畜禽服务站","address":"030乡道西侧","phone":"","category":"医疗保健服务;动物医疗场所;兽医站","area":"","lng":114.258001,"lat":33.576391,"amap_id":"B0FFM902WM","order":14,"prev_distance_km":5.59,"cumulative_distance_km":41.807,"amap_marker_url":"https://uri.amap.com/marker?position=114.258001,33.576391&name=%E9%9D%92%E5%B9%B4%E4%B9%A1%E7%BA%BA%E8%BD%A6%E5%88%98%E5%85%BD%E5%8C%BB%E7%AB%99%E5%9B%BD%E8%AF%AD%E7%95%9C%E7%A6%BD%E6%9C%8D%E5%8A%A1%E7%AB%99&src=vetmap&coordinate=gaode&callnative=1","route_id":"r1","route_name":"第1段"}]}],"rows":[{"name":"宠物健康咨询","address":"解放路滨河路交叉口向南20米路西","phone":"17631806120","category":"医疗保健服务;动物医疗场所;宠物诊所","area":"","lng":114.048512,"lat":33.576304,"amap_id":"B0G2RGINC2","order":1,"prev_distance_km":0.0,"cumulative_distance_km":0.0,"amap_marker_url":"https://uri.amap.com/marker?position=114.048512,33.576304&name=%E5%AE%A0%E7%89%A9%E5%81%A5%E5%BA%B7%E5%92%A8%E8%AF%A2&src=vetmap&coordinate=gaode&callnative=1","route_id":"r1","route_name":"第1段","global_order":1},{"name":"顺和动物诊所","address":"双汇路与人东二巷交叉口西10米路北","phone":"15639593915","category":"医疗保健服务;动物医疗场所;宠物诊所","area":"","lng":114.052545,"lat":33.565146,"amap_id":"B0FFKT5487","order":2,"prev_distance_km":1.296,"cumulative_distance_km":1.296,"amap_marker_url":"https://uri.amap.com/marker?position=114.052545,33.565146&name=%E9%A1%BA%E5%92%8C%E5%8A%A8%E7%89%A9%E8%AF%8A%E6%89%80&src=vetmap&coordinate=gaode&callnative=1","route_id":"r1","route_name":"第1段","global_order":2},{"name":"爱它宠物医院(湘江东路店)","address":"湘江路与光明南路交叉口路南","phone":"15639557991","category":"医疗保健服务;动物医疗场所;宠物诊所","area":"","lng":114.055688,"lat":33.559352,"amap_id":"B0KUHZD72E","order":3,"prev_distance_km":0.707,"cumulative_distance_km":2.003,"amap_marker_url":"https://uri.amap.com/marker?position=114.055688,33.559352&name=%E7%88%B1%E5%AE%83%E5%AE%A0%E7%89%A9%E5%8C%BB%E9%99%A2%28%E6%B9%98%E6%B1%9F%E4%B8%9C%E8%B7%AF%E5%BA%97%29&src=vetmap&coordinate=gaode&callnative=1","route_id":"r1","route_name":"第1段","global_order":3},{"name":"宠一生宠物医院","address":"金博苑1号楼门面106-108号","phone":"15303950796;15346000534;15565897979","category":"医疗保健服务;动物医疗场所;宠物诊所","area":"","lng":114.070389,"lat":33.559132,"amap_id":"B0FFJXWU7Z","order":4,"prev_distance_km":1.362,"cumulative_distance_km":3.365,"amap_marker_url":"https://uri.amap.com/marker?position=114.070389,33.559132&name=%E5%AE%A0%E4%B8%80%E7%94%9F%E5%AE%A0%E7%89%A9%E5%8C%BB%E9%99%A2&src=vetmap&coordinate=gaode&callnative=1","route_id":"r1","route_name":"第1段","global_order":4},{"name":"关爱宠物医院(滨河东路店)","address":"滨河东路与银鸽大道交叉口西360米","phone":"","category":"医疗保健服务;动物医疗场所;宠物诊所","area":"","lng":114.065946,"lat":33.572672,"amap_id":"B0IAT6DUUD","order":5,"prev_distance_km":1.561,"cumulative_distance_km":4.926,"amap_marker_url":"https://uri.amap.com/marker?position=114.065946,33.572672&name=%E5%85%B3%E7%88%B1%E5%AE%A0%E7%89%A9%E5%8C%BB%E9%99%A2%28%E6%BB%A8%E6%B2%B3%E4%B8%9C%E8%B7%AF%E5%BA%97%29&src=vetmap&coordinate=gaode&callnative=1","route_id":"r1","route_name":"第1段","global_order":5},{"name":"康复宠物医院黄河路分院·转诊中心·猫专科","address":"黄河路与燕山北路交叉口东辅路宝丽世家东160米","phone":"0395-2929120;18339558593","category":"医疗保健服务;动物医疗场所;宠物诊所","area":"","lng":114.0809,"lat":33.58368,"amap_id":"B0J0DAN6T3","order":6,"prev_distance_km":1.849,"cumulative_distance_km":6.775,"amap_marker_url":"https://uri.amap.com/marker?position=114.080900,33.583680&name=%E5%BA%B7%E5%A4%8D%E5%AE%A0%E7%89%A9%E5%8C%BB%E9%99%A2%E9%BB%84%E6%B2%B3%E8%B7%AF%E5%88%86%E9%99%A2%C2%B7%E8%BD%AC%E8%AF%8A%E4%B8%AD%E5%BF%83%C2%B7%E7%8C%AB%E4%B8%93%E7%A7%91&src=vetmap&coordinate=gaode&callnative=1","route_id":"r1","route_name":"第1段","global_order":6},{"name":"宠佳宠物诊所","address":"翟庄英杨幸福佳苑南门向西20米22号","phone":"15188413077","category":"医疗保健服务;动物医疗场所;宠物诊所","area":"","lng":114.080646,"lat":33.590129,"amap_id":"B0LGFRJ2DA","order":7,"prev_distance_km":0.717,"cumulative_distance_km":7.492,"amap_marker_url":"https://uri.amap.com/marker?position=114.080646,33.590129&name=%E5%AE%A0%E4%BD%B3%E5%AE%A0%E7%89%A9%E8%AF%8A%E6%89%80&src=vetmap&coordinate=gaode&callnative=1","route_id":"r1","route_name":"第1段","global_order":7},{"name":"瑞城宠物医院","address":"汾河路庐山路交叉口向东50米路北","phone":"15290717971","category":"医疗保健服务;动物医疗场所;宠物诊所","area":"","lng":114.101857,"lat":33.585501,"amap_id":"B0KKLLE5E1","order":8,"prev_distance_km":2.031,"cumulative_distance_km":9.523,"amap_marker_url":"https://uri.amap.com/marker?position=114.101857,33.585501&name=%E7%91%9E%E5%9F%8E%E5%AE%A0%E7%89%A9%E5%8C%BB%E9%99%A2&src=vetmap&coordinate=gaode&callnative=1","route_id":"r1","route_name":"第1段","global_order":8},{"name":"天望宠物","address":"黄河路与阳山路交叉口东南380米","phone":"","category":"医疗保健服务;动物医疗场所;宠物诊所","area":"","lng":114.133875,"lat":33.580475,"amap_id":"B0M6XUS3N6","order":9,"prev_distance_km":3.018,"cumulative_distance_km":12.541,"amap_marker_url":"https://uri.amap.com/marker?position=114.133875,33.580475&name=%E5%A4%A9%E6%9C%9B%E5%AE%A0%E7%89%A9&src=vetmap&coordinate=gaode&callnative=1","route_id":"r1","route_name":"第1段","global_order":9},{"name":"邓襄名星兽药店","address":"邓襄镇前安村东头6号","phone":"17589586606","category":"医疗保健服务;动物医疗场所;动物医疗场所","area":"","lng":114.139036,"lat":33.516734,"amap_id":"B0L16ARI5S","order":10,"prev_distance_km":7.104,"cumulative_distance_km":19.645,"amap_marker_url":"https://uri.amap.com/marker?position=114.139036,33.516734&name=%E9%82%93%E8%A5%84%E5%90%8D%E6%98%9F%E5%85%BD%E8%8D%AF%E5%BA%97&src=vetmap&coordinate=gaode&callnative=1","route_id":"r1","route_name":"第1段","global_order":10},{"name":"方通兽药部","address":"中心社区商业街与金城大道交叉口南140米","phone":"","category":"医疗保健服务;动物医疗场所;动物医疗场所","area":"","lng":114.206375,"lat":33.501175,"amap_id":"B0LDCHTMFF","order":11,"prev_distance_km":6.479,"cumulative_distance_km":26.124,"amap_marker_url":"https://uri.amap.com/marker?position=114.206375,33.501175&name=%E6%96%B9%E9%80%9A%E5%85%BD%E8%8D%AF%E9%83%A8&src=vetmap&coordinate=gaode&callnative=1","route_id":"r1","route_name":"第1段","global_order":11},{"name":"昌恒禽业服务站","address":"文昌路与宋后路交叉口西北20米","phone":"","category":"医疗保健服务;动物医疗场所;兽医站","area":"","lng":114.201825,"lat":33.546975,"amap_id":"B0LBL9QF6J","order":12,"prev_distance_km":5.11,"cumulative_distance_km":31.234,"amap_marker_url":"https://uri.amap.com/marker?position=114.201825,33.546975&name=%E6%98%8C%E6%81%92%E7%A6%BD%E4%B8%9A%E6%9C%8D%E5%8A%A1%E7%AB%99&src=vetmap&coordinate=gaode&callnative=1","route_id":"r1","route_name":"第1段","global_order":12},{"name":"俊超兽药店","address":"济民大药房(后宋路店)北侧","phone":"18739559969","category":"医疗保健服务;动物医疗场所;动物医疗场所","area":"","lng":114.200555,"lat":33.591778,"amap_id":"B0G2179E7B","order":13,"prev_distance_km":4.983,"cumulative_distance_km":36.217,"amap_marker_url":"https://uri.amap.com/marker?position=114.200555,33.591778&name=%E4%BF%8A%E8%B6%85%E5%85%BD%E8%8D%AF%E5%BA%97&src=vetmap&coordinate=gaode&callnative=1","route_id":"r1","route_name":"第1段","global_order":13},{"name":"青年乡纺车刘兽医站国语畜禽服务站","address":"030乡道西侧","phone":"","category":"医疗保健服务;动物医疗场所;兽医站","area":"","lng":114.258001,"lat":33.576391,"amap_id":"B0FFM902WM","order":14,"prev_distance_km":5.59,"cumulative_distance_km":41.807,"amap_marker_url":"https://uri.amap.com/marker?position=114.258001,33.576391&name=%E9%9D%92%E5%B9%B4%E4%B9%A1%E7%BA%BA%E8%BD%A6%E5%88%98%E5%85%BD%E5%8C%BB%E7%AB%99%E5%9B%BD%E8%AF%AD%E7%95%9C%E7%A6%BD%E6%9C%8D%E5%8A%A1%E7%AB%99&src=vetmap&coordinate=gaode&callnative=1","route_id":"r1","route_name":"第1段","global_order":14}]}