{"summary":{"id":"d01214","province":"河南省","city":"新乡市","district":"封丘县","count":13,"total_distance_km":40.556,"coordinate_system":"GCJ-02 / Amap","generated_at":"2026-05-07 19:57:39"},"rows":[{"name":"李庄镇兽医站","address":"和谐路北头","phone":"","category":"医疗保健服务;动物医疗场所;兽医站","area":"","lng":114.664221,"lat":34.964835,"amap_id":"B0LDPC1FBB","order":1,"prev_distance_km":0.0,"cumulative_distance_km":0.0,"amap_marker_url":"https://uri.amap.com/marker?position=114.664221,34.964835&name=%E6%9D%8E%E5%BA%84%E9%95%87%E5%85%BD%E5%8C%BB%E7%AB%99&src=vetmap&coordinate=gaode&callnative=1"},{"name":"兽医站","address":"振兴路与发展路交叉口西北180米","phone":"","category":"医疗保健服务;动物医疗场所;兽医站","area":"","lng":114.568472,"lat":34.957649,"amap_id":"B0JB1B90FA","order":2,"prev_distance_km":8.762,"cumulative_distance_km":8.762,"amap_marker_url":"https://uri.amap.com/marker?position=114.568472,34.957649&name=%E5%85%BD%E5%8C%BB%E7%AB%99&src=vetmap&coordinate=gaode&callnative=1"},{"name":"金澜宠物会所","address":"城东小学西南侧140米","phone":"13323808091;18695927225","category":"医疗保健服务;动物医疗场所;宠物诊所","area":"","lng":114.447508,"lat":35.047318,"amap_id":"B0J0FGP89E","order":3,"prev_distance_km":14.86,"cumulative_distance_km":23.622,"amap_marker_url":"https://uri.amap.com/marker?position=114.447508,35.047318&name=%E9%87%91%E6%BE%9C%E5%AE%A0%E7%89%A9%E4%BC%9A%E6%89%80&src=vetmap&coordinate=gaode&callnative=1"},{"name":"乐康宠物医院(府南路店)","address":"文苑小区南门东南110米","phone":"13140067895","category":"医疗保健服务;动物医疗场所;宠物诊所","area":"","lng":114.435105,"lat":35.048377,"amap_id":"B0FFJAMAYC","order":4,"prev_distance_km":1.135,"cumulative_distance_km":24.757,"amap_marker_url":"https://uri.amap.com/marker?position=114.435105,35.048377&name=%E4%B9%90%E5%BA%B7%E5%AE%A0%E7%89%A9%E5%8C%BB%E9%99%A2%28%E5%BA%9C%E5%8D%97%E8%B7%AF%E5%BA%97%29&src=vetmap&coordinate=gaode&callnative=1"},{"name":"慕莱宠物医院","address":"文化路北段路东146号","phone":"16650350713","category":"医疗保健服务;动物医疗场所;宠物诊所","area":"","lng":114.432939,"lat":35.048328,"amap_id":"B0JUACRJ5S","order":5,"prev_distance_km":0.197,"cumulative_distance_km":24.954,"amap_marker_url":"https://uri.amap.com/marker?position=114.432939,35.048328&name=%E6%85%95%E8%8E%B1%E5%AE%A0%E7%89%A9%E5%8C%BB%E9%99%A2&src=vetmap&coordinate=gaode&callnative=1"},{"name":"佑宠宠物诊所","address":"世纪花园御境5B06","phone":"16637335977","category":"医疗保健服务;动物医疗场所;宠物诊所","area":"","lng":114.428928,"lat":35.055742,"amap_id":"B0IKA5T0DA","order":6,"prev_distance_km":0.902,"cumulative_distance_km":25.856,"amap_marker_url":"https://uri.amap.com/marker?position=114.428928,35.055742&name=%E4%BD%91%E5%AE%A0%E5%AE%A0%E7%89%A9%E8%AF%8A%E6%89%80&src=vetmap&coordinate=gaode&callnative=1"},{"name":"康贝宠物诊所","address":"行政路中段世纪花园御境15-2号商铺","phone":"18638706608","category":"医疗保健服务;动物医疗场所;宠物诊所","area":"","lng":114.427273,"lat":35.055794,"amap_id":"B0L16SRJS1","order":7,"prev_distance_km":0.151,"cumulative_distance_km":26.006,"amap_marker_url":"https://uri.amap.com/marker?position=114.427273,35.055794&name=%E5%BA%B7%E8%B4%9D%E5%AE%A0%E7%89%A9%E8%AF%8A%E6%89%80&src=vetmap&coordinate=gaode&callnative=1"},{"name":"知宠宠物诊疗","address":"世纪大道新汽车站对面瑞丰花园北门","phone":"18237307097","category":"医疗保健服务;动物医疗场所;宠物诊所","area":"","lng":114.419965,"lat":35.052472,"amap_id":"B0JUJHT8ZP","order":8,"prev_distance_km":0.761,"cumulative_distance_km":26.767,"amap_marker_url":"https://uri.amap.com/marker?position=114.419965,35.052472&name=%E7%9F%A5%E5%AE%A0%E5%AE%A0%E7%89%A9%E8%AF%8A%E7%96%97&src=vetmap&coordinate=gaode&callnative=1"},{"name":"宠爱宠物医院(嘉祥·名郡2期店)","address":"北干道嘉祥名郡72-105商铺","phone":"15993050657","category":"医疗保健服务;动物医疗场所;宠物诊所","area":"","lng":114.410914,"lat":35.04938,"amap_id":"B0J3RM1QI5","order":9,"prev_distance_km":0.893,"cumulative_distance_km":27.66,"amap_marker_url":"https://uri.amap.com/marker?position=114.410914,35.049380&name=%E5%AE%A0%E7%88%B1%E5%AE%A0%E7%89%A9%E5%8C%BB%E9%99%A2%28%E5%98%89%E7%A5%A5%C2%B7%E5%90%8D%E9%83%A12%E6%9C%9F%E5%BA%97%29&src=vetmap&coordinate=gaode&callnative=1"},{"name":"兽医站","address":"紫薇花园东南门旁","phone":"","category":"医疗保健服务;动物医疗场所;兽医站","area":"","lng":114.417181,"lat":35.034585,"amap_id":"B0K2ZU0Y2Y","order":10,"prev_distance_km":1.741,"cumulative_distance_km":29.401,"amap_marker_url":"https://uri.amap.com/marker?position=114.417181,35.034585&name=%E5%85%BD%E5%8C%BB%E7%AB%99&src=vetmap&coordinate=gaode&callnative=1"},{"name":"王哥禽病医院","address":"南干道与219省道交叉口北200米572号","phone":"13849358229","category":"医疗保健服务;动物医疗场所;兽医站","area":"","lng":114.416882,"lat":35.034154,"amap_id":"B0FFF3X7U0","order":11,"prev_distance_km":0.055,"cumulative_distance_km":29.456,"amap_marker_url":"https://uri.amap.com/marker?position=114.416882,35.034154&name=%E7%8E%8B%E5%93%A5%E7%A6%BD%E7%97%85%E5%8C%BB%E9%99%A2&src=vetmap&coordinate=gaode&callnative=1"},{"name":"益生动物保健中心(齐鲁动保专营店)","address":"南干道与封荆路交叉口西60米","phone":"0373-8292903;13782506828","category":"医疗保健服务;动物医疗场所;动物医疗场所","area":"","lng":114.415938,"lat":35.03291,"amap_id":"B0FFFYYKYR","order":12,"prev_distance_km":0.163,"cumulative_distance_km":29.619,"amap_marker_url":"https://uri.amap.com/marker?position=114.415938,35.032910&name=%E7%9B%8A%E7%94%9F%E5%8A%A8%E7%89%A9%E4%BF%9D%E5%81%A5%E4%B8%AD%E5%BF%83%28%E9%BD%90%E9%B2%81%E5%8A%A8%E4%BF%9D%E4%B8%93%E8%90%A5%E5%BA%97%29&src=vetmap&coordinate=gaode&callnative=1"},{"name":"闫氏动物医院","address":"荆隆宫乡卫生院东南侧120米","phone":"","category":"医疗保健服务;动物医疗场所;宠物诊所","area":"","lng":114.327777,"lat":34.966141,"amap_id":"B0H33NQ9OS","order":13,"prev_distance_km":10.936,"cumulative_distance_km":40.556,"amap_marker_url":"https://uri.amap.com/marker?position=114.327777,34.966141&name=%E9%97%AB%E6%B0%8F%E5%8A%A8%E7%89%A9%E5%8C%BB%E9%99%A2&src=vetmap&coordinate=gaode&callnative=1"}]}