{"summary":{"id":"d01226","province":"河南省","city":"洛阳市","district":"嵩县","count":5,"route_count":1,"max_route_clinics":5,"total_distance_km":17.944,"coordinate_system":"GCJ-02 / Amap","generated_at":"2026-05-07 21:29:37"},"routes":[{"id":"r1","name":"第1段","count":5,"total_distance_km":17.944,"rows":[{"name":"力狼兽药门诊部","address":"嵩县田湖镇第一初级中学南侧190米","phone":"13721653281;15136367516","category":"医疗保健服务;动物医疗场所;兽医站","area":"","lng":112.207112,"lat":34.236138,"amap_id":"B0FFK6G8J7","order":1,"prev_distance_km":0.0,"cumulative_distance_km":0.0,"amap_marker_url":"https://uri.amap.com/marker?position=112.207112,34.236138&name=%E5%8A%9B%E7%8B%BC%E5%85%BD%E8%8D%AF%E9%97%A8%E8%AF%8A%E9%83%A8&src=vetmap&coordinate=gaode&callnative=1","route_id":"r1","route_name":"第1段"},{"name":"爱尚宠物医院","address":"人民路50号附1号","phone":"15139941867","category":"医疗保健服务;动物医疗场所;宠物诊所","area":"","lng":112.092582,"lat":34.129506,"amap_id":"B0JAYUHGFP","order":2,"prev_distance_km":15.861,"cumulative_distance_km":15.861,"amap_marker_url":"https://uri.amap.com/marker?position=112.092582,34.129506&name=%E7%88%B1%E5%B0%9A%E5%AE%A0%E7%89%A9%E5%8C%BB%E9%99%A2&src=vetmap&coordinate=gaode&callnative=1","route_id":"r1","route_name":"第1段"},{"name":"康乐宠物诊所","address":"城关镇行政路西段农业大院门口","phone":"13333893655;18937993655","category":"医疗保健服务;动物医疗场所;宠物诊所","area":"","lng":112.082571,"lat":34.131636,"amap_id":"B0GK2RITHF","order":3,"prev_distance_km":0.951,"cumulative_distance_km":16.813,"amap_marker_url":"https://uri.amap.com/marker?position=112.082571,34.131636&name=%E5%BA%B7%E4%B9%90%E5%AE%A0%E7%89%A9%E8%AF%8A%E6%89%80&src=vetmap&coordinate=gaode&callnative=1","route_id":"r1","route_name":"第1段"},{"name":"恩康宠物保健","address":"中共嵩县县委党校东北门旁","phone":"13461099287","category":"医疗保健服务;动物医疗场所;宠物诊所","area":"","lng":112.08245,"lat":34.131086,"amap_id":"B0FFGYO63F","order":4,"prev_distance_km":0.062,"cumulative_distance_km":16.875,"amap_marker_url":"https://uri.amap.com/marker?position=112.082450,34.131086&name=%E6%81%A9%E5%BA%B7%E5%AE%A0%E7%89%A9%E4%BF%9D%E5%81%A5&src=vetmap&coordinate=gaode&callnative=1","route_id":"r1","route_name":"第1段"},{"name":"惠宠宠物诊所","address":"文化路乐业巷交内30米","phone":"17337962667","category":"医疗保健服务;动物医疗场所;宠物诊所","area":"","lng":112.082106,"lat":34.121473,"amap_id":"B0FFJ57G85","order":5,"prev_distance_km":1.069,"cumulative_distance_km":17.944,"amap_marker_url":"https://uri.amap.com/marker?position=112.082106,34.121473&name=%E6%83%A0%E5%AE%A0%E5%AE%A0%E7%89%A9%E8%AF%8A%E6%89%80&src=vetmap&coordinate=gaode&callnative=1","route_id":"r1","route_name":"第1段"}]}],"rows":[{"name":"力狼兽药门诊部","address":"嵩县田湖镇第一初级中学南侧190米","phone":"13721653281;15136367516","category":"医疗保健服务;动物医疗场所;兽医站","area":"","lng":112.207112,"lat":34.236138,"amap_id":"B0FFK6G8J7","order":1,"prev_distance_km":0.0,"cumulative_distance_km":0.0,"amap_marker_url":"https://uri.amap.com/marker?position=112.207112,34.236138&name=%E5%8A%9B%E7%8B%BC%E5%85%BD%E8%8D%AF%E9%97%A8%E8%AF%8A%E9%83%A8&src=vetmap&coordinate=gaode&callnative=1","route_id":"r1","route_name":"第1段","global_order":1},{"name":"爱尚宠物医院","address":"人民路50号附1号","phone":"15139941867","category":"医疗保健服务;动物医疗场所;宠物诊所","area":"","lng":112.092582,"lat":34.129506,"amap_id":"B0JAYUHGFP","order":2,"prev_distance_km":15.861,"cumulative_distance_km":15.861,"amap_marker_url":"https://uri.amap.com/marker?position=112.092582,34.129506&name=%E7%88%B1%E5%B0%9A%E5%AE%A0%E7%89%A9%E5%8C%BB%E9%99%A2&src=vetmap&coordinate=gaode&callnative=1","route_id":"r1","route_name":"第1段","global_order":2},{"name":"康乐宠物诊所","address":"城关镇行政路西段农业大院门口","phone":"13333893655;18937993655","category":"医疗保健服务;动物医疗场所;宠物诊所","area":"","lng":112.082571,"lat":34.131636,"amap_id":"B0GK2RITHF","order":3,"prev_distance_km":0.951,"cumulative_distance_km":16.813,"amap_marker_url":"https://uri.amap.com/marker?position=112.082571,34.131636&name=%E5%BA%B7%E4%B9%90%E5%AE%A0%E7%89%A9%E8%AF%8A%E6%89%80&src=vetmap&coordinate=gaode&callnative=1","route_id":"r1","route_name":"第1段","global_order":3},{"name":"恩康宠物保健","address":"中共嵩县县委党校东北门旁","phone":"13461099287","category":"医疗保健服务;动物医疗场所;宠物诊所","area":"","lng":112.08245,"lat":34.131086,"amap_id":"B0FFGYO63F","order":4,"prev_distance_km":0.062,"cumulative_distance_km":16.875,"amap_marker_url":"https://uri.amap.com/marker?position=112.082450,34.131086&name=%E6%81%A9%E5%BA%B7%E5%AE%A0%E7%89%A9%E4%BF%9D%E5%81%A5&src=vetmap&coordinate=gaode&callnative=1","route_id":"r1","route_name":"第1段","global_order":4},{"name":"惠宠宠物诊所","address":"文化路乐业巷交内30米","phone":"17337962667","category":"医疗保健服务;动物医疗场所;宠物诊所","area":"","lng":112.082106,"lat":34.121473,"amap_id":"B0FFJ57G85","order":5,"prev_distance_km":1.069,"cumulative_distance_km":17.944,"amap_marker_url":"https://uri.amap.com/marker?position=112.082106,34.121473&name=%E6%83%A0%E5%AE%A0%E5%AE%A0%E7%89%A9%E8%AF%8A%E6%89%80&src=vetmap&coordinate=gaode&callnative=1","route_id":"r1","route_name":"第1段","global_order":5}]}