{"summary":{"id":"d01329","province":"浙江省","city":"杭州市","district":"富阳区","count":22,"route_count":1,"max_route_clinics":22,"total_distance_km":63.694,"coordinate_system":"GCJ-02 / Amap","generated_at":"2026-05-07 21:29:58"},"routes":[{"id":"r1","name":"第1段","count":22,"total_distance_km":63.694,"rows":[{"name":"叶炳荣兽药店","address":"万市路24号","phone":"18368023121","category":"医疗保健服务;动物医疗场所;动物医疗场所","area":"","lng":119.573038,"lat":30.095471,"amap_id":"B0FFG3925U","order":1,"prev_distance_km":0.0,"cumulative_distance_km":0.0,"amap_marker_url":"https://uri.amap.com/marker?position=119.573038,30.095471&name=%E5%8F%B6%E7%82%B3%E8%8D%A3%E5%85%BD%E8%8D%AF%E5%BA%97&src=vetmap&coordinate=gaode&callnative=1","route_id":"r1","route_name":"第1段"},{"name":"元欣宠物医院·犬猫宠物专科","address":"登城南路5-2号","phone":"0571-63266120","category":"医疗保健服务;动物医疗场所;宠物诊所","area":"","lng":119.738505,"lat":29.961976,"amap_id":"B0J3N5SRBZ","order":2,"prev_distance_km":21.774,"cumulative_distance_km":21.774,"amap_marker_url":"https://uri.amap.com/marker?position=119.738505,29.961976&name=%E5%85%83%E6%AC%A3%E5%AE%A0%E7%89%A9%E5%8C%BB%E9%99%A2%C2%B7%E7%8A%AC%E7%8C%AB%E5%AE%A0%E7%89%A9%E4%B8%93%E7%A7%91&src=vetmap&coordinate=gaode&callnative=1","route_id":"r1","route_name":"第1段"},{"name":"羽贤宠物医院","address":"龙江路528号","phone":"13588054396","category":"医疗保健服务;动物医疗场所;宠物诊所","area":"鹿山","lng":119.926141,"lat":30.012219,"amap_id":"B0HDP7L99C","order":3,"prev_distance_km":18.915,"cumulative_distance_km":40.689,"amap_marker_url":"https://uri.amap.com/marker?position=119.926141,30.012219&name=%E7%BE%BD%E8%B4%A4%E5%AE%A0%E7%89%A9%E5%8C%BB%E9%99%A2&src=vetmap&coordinate=gaode&callnative=1","route_id":"r1","route_name":"第1段"},{"name":"天缘宠物诊疗(天河路店)","address":"天河路48号","phone":"13067743324;18094700936","category":"医疗保健服务;动物医疗场所;宠物诊所","area":"富春","lng":119.943163,"lat":30.034956,"amap_id":"B0FFGIW5MH","order":4,"prev_distance_km":3.013,"cumulative_distance_km":43.702,"amap_marker_url":"https://uri.amap.com/marker?position=119.943163,30.034956&name=%E5%A4%A9%E7%BC%98%E5%AE%A0%E7%89%A9%E8%AF%8A%E7%96%97%28%E5%A4%A9%E6%B2%B3%E8%B7%AF%E5%BA%97%29&src=vetmap&coordinate=gaode&callnative=1","route_id":"r1","route_name":"第1段"},{"name":"林愈宠物医院·夜诊","address":"西堤南路38弄50号","phone":"19157719695","category":"医疗保健服务;动物医疗场所;宠物诊所","area":"春江村","lng":119.942085,"lat":30.03963,"amap_id":"B0JAUHQF3L","order":5,"prev_distance_km":0.53,"cumulative_distance_km":44.232,"amap_marker_url":"https://uri.amap.com/marker?position=119.942085,30.039630&name=%E6%9E%97%E6%84%88%E5%AE%A0%E7%89%A9%E5%8C%BB%E9%99%A2%C2%B7%E5%A4%9C%E8%AF%8A&src=vetmap&coordinate=gaode&callnative=1","route_id":"r1","route_name":"第1段"},{"name":"安可宠物诊所","address":"文教路63号-1","phone":"0571-63419681;15888815664","category":"医疗保健服务;动物医疗场所;宠物诊所","area":"富春","lng":119.93931,"lat":30.041218,"amap_id":"B0FFIUMUOB","order":6,"prev_distance_km":0.32,"cumulative_distance_km":44.552,"amap_marker_url":"https://uri.amap.com/marker?position=119.939310,30.041218&name=%E5%AE%89%E5%8F%AF%E5%AE%A0%E7%89%A9%E8%AF%8A%E6%89%80&src=vetmap&coordinate=gaode&callnative=1","route_id":"r1","route_name":"第1段"},{"name":"天缘动物诊所","address":"恩波西苑东北门旁","phone":"13777484497;15088724838","category":"医疗保健服务;动物医疗场所;宠物诊所","area":"富春","lng":119.95345,"lat":30.047106,"amap_id":"B0H63H9CA0","order":7,"prev_distance_km":1.51,"cumulative_distance_km":46.062,"amap_marker_url":"https://uri.amap.com/marker?position=119.953450,30.047106&name=%E5%A4%A9%E7%BC%98%E5%8A%A8%E7%89%A9%E8%AF%8A%E6%89%80&src=vetmap&coordinate=gaode&callnative=1","route_id":"r1","route_name":"第1段"},{"name":"康平宠物医院(兴达路店)","address":"兴达路1-11号(万星碧云天公寓)","phone":"0571-65136730;13336140608","category":"医疗保健服务;动物医疗场所;宠物诊所","area":"富春","lng":119.945825,"lat":30.056375,"amap_id":"B0FFIQ8Q02","order":8,"prev_distance_km":1.265,"cumulative_distance_km":47.327,"amap_marker_url":"https://uri.amap.com/marker?position=119.945825,30.056375&name=%E5%BA%B7%E5%B9%B3%E5%AE%A0%E7%89%A9%E5%8C%BB%E9%99%A2%28%E5%85%B4%E8%BE%BE%E8%B7%AF%E5%BA%97%29&src=vetmap&coordinate=gaode&callnative=1","route_id":"r1","route_name":"第1段"},{"name":"海洋宠物宠物诊所","address":"后周路5-2号","phone":"18268846898","category":"医疗保健服务;动物医疗场所;宠物诊所","area":"富春","lng":119.943149,"lat":30.054768,"amap_id":"B0LDCHRH20","order":9,"prev_distance_km":0.313,"cumulative_distance_km":47.641,"amap_marker_url":"https://uri.amap.com/marker?position=119.943149,30.054768&name=%E6%B5%B7%E6%B4%8B%E5%AE%A0%E7%89%A9%E5%AE%A0%E7%89%A9%E8%AF%8A%E6%89%80&src=vetmap&coordinate=gaode&callnative=1","route_id":"r1","route_name":"第1段"},{"name":"宠乐宠物诊所","address":"文教北路238-240","phone":"13372558124","category":"医疗保健服务;动物医疗场所;宠物诊所","area":"富春","lng":119.938862,"lat":30.053781,"amap_id":"B0G3JU80JV","order":10,"prev_distance_km":0.427,"cumulative_distance_km":48.068,"amap_marker_url":"https://uri.amap.com/marker?position=119.938862,30.053781&name=%E5%AE%A0%E4%B9%90%E5%AE%A0%E7%89%A9%E8%AF%8A%E6%89%80&src=vetmap&coordinate=gaode&callnative=1","route_id":"r1","route_name":"第1段"},{"name":"蒂依宠物医院犬猫专科异宠外科中心","address":"富春铭苑西门旁(桂花西路地铁站E口步行480米)","phone":"","category":"医疗保健服务;动物医疗场所;宠物诊所","area":"富春","lng":119.939125,"lat":30.048975,"amap_id":"B0L3ASS8RW","order":11,"prev_distance_km":0.535,"cumulative_distance_km":48.603,"amap_marker_url":"https://uri.amap.com/marker?position=119.939125,30.048975&name=%E8%92%82%E4%BE%9D%E5%AE%A0%E7%89%A9%E5%8C%BB%E9%99%A2%E7%8A%AC%E7%8C%AB%E4%B8%93%E7%A7%91%E5%BC%82%E5%AE%A0%E5%A4%96%E7%A7%91%E4%B8%AD%E5%BF%83&src=vetmap&coordinate=gaode&callnative=1","route_id":"r1","route_name":"第1段"},{"name":"新派康动物医院","address":"金凤路83号","phone":"0571-61770262;18968120366","category":"医疗保健服务;动物医疗场所;宠物诊所","area":"富春","lng":119.934864,"lat":30.052406,"amap_id":"B0FFJBVM23","order":12,"prev_distance_km":0.56,"cumulative_distance_km":49.163,"amap_marker_url":"https://uri.amap.com/marker?position=119.934864,30.052406&name=%E6%96%B0%E6%B4%BE%E5%BA%B7%E5%8A%A8%E7%89%A9%E5%8C%BB%E9%99%A2&src=vetmap&coordinate=gaode&callnative=1","route_id":"r1","route_name":"第1段"},{"name":"星萌动物医院(泊金湾店)","address":"富春街道金凤路126号","phone":"18969132248","category":"医疗保健服务;动物医疗场所;宠物诊所","area":"富春","lng":119.931137,"lat":30.052121,"amap_id":"B0HD7SOLJH","order":13,"prev_distance_km":0.36,"cumulative_distance_km":49.523,"amap_marker_url":"https://uri.amap.com/marker?position=119.931137,30.052121&name=%E6%98%9F%E8%90%8C%E5%8A%A8%E7%89%A9%E5%8C%BB%E9%99%A2%28%E6%B3%8A%E9%87%91%E6%B9%BE%E5%BA%97%29&src=vetmap&coordinate=gaode&callnative=1","route_id":"r1","route_name":"第1段"},{"name":"西木宠物(凤浦路店)","address":"凤浦路266号","phone":"15867172566","category":"医疗保健服务;动物医疗场所;动物医疗场所","area":"富春","lng":119.92841,"lat":30.052937,"amap_id":"B0G2BD99KB","order":14,"prev_distance_km":0.278,"cumulative_distance_km":49.801,"amap_marker_url":"https://uri.amap.com/marker?position=119.928410,30.052937&name=%E8%A5%BF%E6%9C%A8%E5%AE%A0%E7%89%A9%28%E5%87%A4%E6%B5%A6%E8%B7%AF%E5%BA%97%29&src=vetmap&coordinate=gaode&callnative=1","route_id":"r1","route_name":"第1段"},{"name":"缙阳宠物诊所","address":"金浦297号","phone":"15024682333","category":"医疗保健服务;动物医疗场所;宠物诊所","area":"富春","lng":119.928519,"lat":30.057088,"amap_id":"B0L69OBKOB","order":15,"prev_distance_km":0.462,"cumulative_distance_km":50.263,"amap_marker_url":"https://uri.amap.com/marker?position=119.928519,30.057088&name=%E7%BC%99%E9%98%B3%E5%AE%A0%E7%89%A9%E8%AF%8A%E6%89%80&src=vetmap&coordinate=gaode&callnative=1","route_id":"r1","route_name":"第1段"},{"name":"随心动物医院·夜诊·外科中心","address":"富春街道文居街723号","phone":"16754907029","category":"医疗保健服务;动物医疗场所;宠物诊所","area":"富春","lng":119.926341,"lat":30.057853,"amap_id":"B0I1NU9HS6","order":16,"prev_distance_km":0.226,"cumulative_distance_km":50.489,"amap_marker_url":"https://uri.amap.com/marker?position=119.926341,30.057853&name=%E9%9A%8F%E5%BF%83%E5%8A%A8%E7%89%A9%E5%8C%BB%E9%99%A2%C2%B7%E5%A4%9C%E8%AF%8A%C2%B7%E5%A4%96%E7%A7%91%E4%B8%AD%E5%BF%83&src=vetmap&coordinate=gaode&callnative=1","route_id":"r1","route_name":"第1段"},{"name":"仟浩宠物医院(富阳院区)","address":"富春街道公望街629号","phone":"0571-63262832;18968015372","category":"医疗保健服务;动物医疗场所;宠物诊所","area":"富春","lng":119.928286,"lat":30.064685,"amap_id":"B0GKYDJ5UN","order":17,"prev_distance_km":0.782,"cumulative_distance_km":51.271,"amap_marker_url":"https://uri.amap.com/marker?position=119.928286,30.064685&name=%E4%BB%9F%E6%B5%A9%E5%AE%A0%E7%89%A9%E5%8C%BB%E9%99%A2%28%E5%AF%8C%E9%98%B3%E9%99%A2%E5%8C%BA%29&src=vetmap&coordinate=gaode&callnative=1","route_id":"r1","route_name":"第1段"},{"name":"启萌宠物医院(公望街店)","address":"公望街567号(绿城北门向东100米)","phone":"17357181865;18715153436","category":"医疗保健服务;动物医疗场所;宠物诊所","area":"富春","lng":119.932209,"lat":30.06478,"amap_id":"B0HA9A6ZXO","order":18,"prev_distance_km":0.378,"cumulative_distance_km":51.649,"amap_marker_url":"https://uri.amap.com/marker?position=119.932209,30.064780&name=%E5%90%AF%E8%90%8C%E5%AE%A0%E7%89%A9%E5%8C%BB%E9%99%A2%28%E5%85%AC%E6%9C%9B%E8%A1%97%E5%BA%97%29&src=vetmap&coordinate=gaode&callnative=1","route_id":"r1","route_name":"第1段"},{"name":"壹格宠物医院(富阳总店)","address":"春秋北路462号","phone":"","category":"医疗保健服务;动物医疗场所;宠物诊所","area":"富春","lng":119.940429,"lat":30.065173,"amap_id":"B0K6DA80EE","order":19,"prev_distance_km":0.792,"cumulative_distance_km":52.441,"amap_marker_url":"https://uri.amap.com/marker?position=119.940429,30.065173&name=%E5%A3%B9%E6%A0%BC%E5%AE%A0%E7%89%A9%E5%8C%BB%E9%99%A2%28%E5%AF%8C%E9%98%B3%E6%80%BB%E5%BA%97%29&src=vetmap&coordinate=gaode&callnative=1","route_id":"r1","route_name":"第1段"},{"name":"启心宠物医院","address":"彩虹路159号(高桥地铁站D口步行480米)","phone":"13777877024","category":"医疗保健服务;动物医疗场所;宠物诊所","area":"高桥","lng":119.936114,"lat":30.093429,"amap_id":"B0J3ZZPEA6","order":20,"prev_distance_km":3.169,"cumulative_distance_km":55.61,"amap_marker_url":"https://uri.amap.com/marker?position=119.936114,30.093429&name=%E5%90%AF%E5%BF%83%E5%AE%A0%E7%89%A9%E5%8C%BB%E9%99%A2&src=vetmap&coordinate=gaode&callnative=1","route_id":"r1","route_name":"第1段"},{"name":"萌绮宠物医院·犬猫牙科·骨科专科","address":"银湖街道上林南路129号1-2楼","phone":"18906501328","category":"医疗保健服务;动物医疗场所;宠物诊所","area":"","lng":119.972586,"lat":30.144048,"amap_id":"B0IU3RK5Z1","order":21,"prev_distance_km":6.632,"cumulative_distance_km":62.243,"amap_marker_url":"https://uri.amap.com/marker?position=119.972586,30.144048&name=%E8%90%8C%E7%BB%AE%E5%AE%A0%E7%89%A9%E5%8C%BB%E9%99%A2%C2%B7%E7%8A%AC%E7%8C%AB%E7%89%99%E7%A7%91%C2%B7%E9%AA%A8%E7%A7%91%E4%B8%93%E7%A7%91&src=vetmap&coordinate=gaode&callnative=1","route_id":"r1","route_name":"第1段"},{"name":"康萌宠物医院(九龙大道店)","address":"银湖街道富春硅谷八号楼118号","phone":"15397009806","category":"医疗保健服务;动物医疗场所;宠物诊所","area":"","lng":119.987647,"lat":30.144916,"amap_id":"B0HK3SNGP8","order":22,"prev_distance_km":1.451,"cumulative_distance_km":63.694,"amap_marker_url":"https://uri.amap.com/marker?position=119.987647,30.144916&name=%E5%BA%B7%E8%90%8C%E5%AE%A0%E7%89%A9%E5%8C%BB%E9%99%A2%28%E4%B9%9D%E9%BE%99%E5%A4%A7%E9%81%93%E5%BA%97%29&src=vetmap&coordinate=gaode&callnative=1","route_id":"r1","route_name":"第1段"}]}],"rows":[{"name":"叶炳荣兽药店","address":"万市路24号","phone":"18368023121","category":"医疗保健服务;动物医疗场所;动物医疗场所","area":"","lng":119.573038,"lat":30.095471,"amap_id":"B0FFG3925U","order":1,"prev_distance_km":0.0,"cumulative_distance_km":0.0,"amap_marker_url":"https://uri.amap.com/marker?position=119.573038,30.095471&name=%E5%8F%B6%E7%82%B3%E8%8D%A3%E5%85%BD%E8%8D%AF%E5%BA%97&src=vetmap&coordinate=gaode&callnative=1","route_id":"r1","route_name":"第1段","global_order":1},{"name":"元欣宠物医院·犬猫宠物专科","address":"登城南路5-2号","phone":"0571-63266120","category":"医疗保健服务;动物医疗场所;宠物诊所","area":"","lng":119.738505,"lat":29.961976,"amap_id":"B0J3N5SRBZ","order":2,"prev_distance_km":21.774,"cumulative_distance_km":21.774,"amap_marker_url":"https://uri.amap.com/marker?position=119.738505,29.961976&name=%E5%85%83%E6%AC%A3%E5%AE%A0%E7%89%A9%E5%8C%BB%E9%99%A2%C2%B7%E7%8A%AC%E7%8C%AB%E5%AE%A0%E7%89%A9%E4%B8%93%E7%A7%91&src=vetmap&coordinate=gaode&callnative=1","route_id":"r1","route_name":"第1段","global_order":2},{"name":"羽贤宠物医院","address":"龙江路528号","phone":"13588054396","category":"医疗保健服务;动物医疗场所;宠物诊所","area":"鹿山","lng":119.926141,"lat":30.012219,"amap_id":"B0HDP7L99C","order":3,"prev_distance_km":18.915,"cumulative_distance_km":40.689,"amap_marker_url":"https://uri.amap.com/marker?position=119.926141,30.012219&name=%E7%BE%BD%E8%B4%A4%E5%AE%A0%E7%89%A9%E5%8C%BB%E9%99%A2&src=vetmap&coordinate=gaode&callnative=1","route_id":"r1","route_name":"第1段","global_order":3},{"name":"天缘宠物诊疗(天河路店)","address":"天河路48号","phone":"13067743324;18094700936","category":"医疗保健服务;动物医疗场所;宠物诊所","area":"富春","lng":119.943163,"lat":30.034956,"amap_id":"B0FFGIW5MH","order":4,"prev_distance_km":3.013,"cumulative_distance_km":43.702,"amap_marker_url":"https://uri.amap.com/marker?position=119.943163,30.034956&name=%E5%A4%A9%E7%BC%98%E5%AE%A0%E7%89%A9%E8%AF%8A%E7%96%97%28%E5%A4%A9%E6%B2%B3%E8%B7%AF%E5%BA%97%29&src=vetmap&coordinate=gaode&callnative=1","route_id":"r1","route_name":"第1段","global_order":4},{"name":"林愈宠物医院·夜诊","address":"西堤南路38弄50号","phone":"19157719695","category":"医疗保健服务;动物医疗场所;宠物诊所","area":"春江村","lng":119.942085,"lat":30.03963,"amap_id":"B0JAUHQF3L","order":5,"prev_distance_km":0.53,"cumulative_distance_km":44.232,"amap_marker_url":"https://uri.amap.com/marker?position=119.942085,30.039630&name=%E6%9E%97%E6%84%88%E5%AE%A0%E7%89%A9%E5%8C%BB%E9%99%A2%C2%B7%E5%A4%9C%E8%AF%8A&src=vetmap&coordinate=gaode&callnative=1","route_id":"r1","route_name":"第1段","global_order":5},{"name":"安可宠物诊所","address":"文教路63号-1","phone":"0571-63419681;15888815664","category":"医疗保健服务;动物医疗场所;宠物诊所","area":"富春","lng":119.93931,"lat":30.041218,"amap_id":"B0FFIUMUOB","order":6,"prev_distance_km":0.32,"cumulative_distance_km":44.552,"amap_marker_url":"https://uri.amap.com/marker?position=119.939310,30.041218&name=%E5%AE%89%E5%8F%AF%E5%AE%A0%E7%89%A9%E8%AF%8A%E6%89%80&src=vetmap&coordinate=gaode&callnative=1","route_id":"r1","route_name":"第1段","global_order":6},{"name":"天缘动物诊所","address":"恩波西苑东北门旁","phone":"13777484497;15088724838","category":"医疗保健服务;动物医疗场所;宠物诊所","area":"富春","lng":119.95345,"lat":30.047106,"amap_id":"B0H63H9CA0","order":7,"prev_distance_km":1.51,"cumulative_distance_km":46.062,"amap_marker_url":"https://uri.amap.com/marker?position=119.953450,30.047106&name=%E5%A4%A9%E7%BC%98%E5%8A%A8%E7%89%A9%E8%AF%8A%E6%89%80&src=vetmap&coordinate=gaode&callnative=1","route_id":"r1","route_name":"第1段","global_order":7},{"name":"康平宠物医院(兴达路店)","address":"兴达路1-11号(万星碧云天公寓)","phone":"0571-65136730;13336140608","category":"医疗保健服务;动物医疗场所;宠物诊所","area":"富春","lng":119.945825,"lat":30.056375,"amap_id":"B0FFIQ8Q02","order":8,"prev_distance_km":1.265,"cumulative_distance_km":47.327,"amap_marker_url":"https://uri.amap.com/marker?position=119.945825,30.056375&name=%E5%BA%B7%E5%B9%B3%E5%AE%A0%E7%89%A9%E5%8C%BB%E9%99%A2%28%E5%85%B4%E8%BE%BE%E8%B7%AF%E5%BA%97%29&src=vetmap&coordinate=gaode&callnative=1","route_id":"r1","route_name":"第1段","global_order":8},{"name":"海洋宠物宠物诊所","address":"后周路5-2号","phone":"18268846898","category":"医疗保健服务;动物医疗场所;宠物诊所","area":"富春","lng":119.943149,"lat":30.054768,"amap_id":"B0LDCHRH20","order":9,"prev_distance_km":0.313,"cumulative_distance_km":47.641,"amap_marker_url":"https://uri.amap.com/marker?position=119.943149,30.054768&name=%E6%B5%B7%E6%B4%8B%E5%AE%A0%E7%89%A9%E5%AE%A0%E7%89%A9%E8%AF%8A%E6%89%80&src=vetmap&coordinate=gaode&callnative=1","route_id":"r1","route_name":"第1段","global_order":9},{"name":"宠乐宠物诊所","address":"文教北路238-240","phone":"13372558124","category":"医疗保健服务;动物医疗场所;宠物诊所","area":"富春","lng":119.938862,"lat":30.053781,"amap_id":"B0G3JU80JV","order":10,"prev_distance_km":0.427,"cumulative_distance_km":48.068,"amap_marker_url":"https://uri.amap.com/marker?position=119.938862,30.053781&name=%E5%AE%A0%E4%B9%90%E5%AE%A0%E7%89%A9%E8%AF%8A%E6%89%80&src=vetmap&coordinate=gaode&callnative=1","route_id":"r1","route_name":"第1段","global_order":10},{"name":"蒂依宠物医院犬猫专科异宠外科中心","address":"富春铭苑西门旁(桂花西路地铁站E口步行480米)","phone":"","category":"医疗保健服务;动物医疗场所;宠物诊所","area":"富春","lng":119.939125,"lat":30.048975,"amap_id":"B0L3ASS8RW","order":11,"prev_distance_km":0.535,"cumulative_distance_km":48.603,"amap_marker_url":"https://uri.amap.com/marker?position=119.939125,30.048975&name=%E8%92%82%E4%BE%9D%E5%AE%A0%E7%89%A9%E5%8C%BB%E9%99%A2%E7%8A%AC%E7%8C%AB%E4%B8%93%E7%A7%91%E5%BC%82%E5%AE%A0%E5%A4%96%E7%A7%91%E4%B8%AD%E5%BF%83&src=vetmap&coordinate=gaode&callnative=1","route_id":"r1","route_name":"第1段","global_order":11},{"name":"新派康动物医院","address":"金凤路83号","phone":"0571-61770262;18968120366","category":"医疗保健服务;动物医疗场所;宠物诊所","area":"富春","lng":119.934864,"lat":30.052406,"amap_id":"B0FFJBVM23","order":12,"prev_distance_km":0.56,"cumulative_distance_km":49.163,"amap_marker_url":"https://uri.amap.com/marker?position=119.934864,30.052406&name=%E6%96%B0%E6%B4%BE%E5%BA%B7%E5%8A%A8%E7%89%A9%E5%8C%BB%E9%99%A2&src=vetmap&coordinate=gaode&callnative=1","route_id":"r1","route_name":"第1段","global_order":12},{"name":"星萌动物医院(泊金湾店)","address":"富春街道金凤路126号","phone":"18969132248","category":"医疗保健服务;动物医疗场所;宠物诊所","area":"富春","lng":119.931137,"lat":30.052121,"amap_id":"B0HD7SOLJH","order":13,"prev_distance_km":0.36,"cumulative_distance_km":49.523,"amap_marker_url":"https://uri.amap.com/marker?position=119.931137,30.052121&name=%E6%98%9F%E8%90%8C%E5%8A%A8%E7%89%A9%E5%8C%BB%E9%99%A2%28%E6%B3%8A%E9%87%91%E6%B9%BE%E5%BA%97%29&src=vetmap&coordinate=gaode&callnative=1","route_id":"r1","route_name":"第1段","global_order":13},{"name":"西木宠物(凤浦路店)","address":"凤浦路266号","phone":"15867172566","category":"医疗保健服务;动物医疗场所;动物医疗场所","area":"富春","lng":119.92841,"lat":30.052937,"amap_id":"B0G2BD99KB","order":14,"prev_distance_km":0.278,"cumulative_distance_km":49.801,"amap_marker_url":"https://uri.amap.com/marker?position=119.928410,30.052937&name=%E8%A5%BF%E6%9C%A8%E5%AE%A0%E7%89%A9%28%E5%87%A4%E6%B5%A6%E8%B7%AF%E5%BA%97%29&src=vetmap&coordinate=gaode&callnative=1","route_id":"r1","route_name":"第1段","global_order":14},{"name":"缙阳宠物诊所","address":"金浦297号","phone":"15024682333","category":"医疗保健服务;动物医疗场所;宠物诊所","area":"富春","lng":119.928519,"lat":30.057088,"amap_id":"B0L69OBKOB","order":15,"prev_distance_km":0.462,"cumulative_distance_km":50.263,"amap_marker_url":"https://uri.amap.com/marker?position=119.928519,30.057088&name=%E7%BC%99%E9%98%B3%E5%AE%A0%E7%89%A9%E8%AF%8A%E6%89%80&src=vetmap&coordinate=gaode&callnative=1","route_id":"r1","route_name":"第1段","global_order":15},{"name":"随心动物医院·夜诊·外科中心","address":"富春街道文居街723号","phone":"16754907029","category":"医疗保健服务;动物医疗场所;宠物诊所","area":"富春","lng":119.926341,"lat":30.057853,"amap_id":"B0I1NU9HS6","order":16,"prev_distance_km":0.226,"cumulative_distance_km":50.489,"amap_marker_url":"https://uri.amap.com/marker?position=119.926341,30.057853&name=%E9%9A%8F%E5%BF%83%E5%8A%A8%E7%89%A9%E5%8C%BB%E9%99%A2%C2%B7%E5%A4%9C%E8%AF%8A%C2%B7%E5%A4%96%E7%A7%91%E4%B8%AD%E5%BF%83&src=vetmap&coordinate=gaode&callnative=1","route_id":"r1","route_name":"第1段","global_order":16},{"name":"仟浩宠物医院(富阳院区)","address":"富春街道公望街629号","phone":"0571-63262832;18968015372","category":"医疗保健服务;动物医疗场所;宠物诊所","area":"富春","lng":119.928286,"lat":30.064685,"amap_id":"B0GKYDJ5UN","order":17,"prev_distance_km":0.782,"cumulative_distance_km":51.271,"amap_marker_url":"https://uri.amap.com/marker?position=119.928286,30.064685&name=%E4%BB%9F%E6%B5%A9%E5%AE%A0%E7%89%A9%E5%8C%BB%E9%99%A2%28%E5%AF%8C%E9%98%B3%E9%99%A2%E5%8C%BA%29&src=vetmap&coordinate=gaode&callnative=1","route_id":"r1","route_name":"第1段","global_order":17},{"name":"启萌宠物医院(公望街店)","address":"公望街567号(绿城北门向东100米)","phone":"17357181865;18715153436","category":"医疗保健服务;动物医疗场所;宠物诊所","area":"富春","lng":119.932209,"lat":30.06478,"amap_id":"B0HA9A6ZXO","order":18,"prev_distance_km":0.378,"cumulative_distance_km":51.649,"amap_marker_url":"https://uri.amap.com/marker?position=119.932209,30.064780&name=%E5%90%AF%E8%90%8C%E5%AE%A0%E7%89%A9%E5%8C%BB%E9%99%A2%28%E5%85%AC%E6%9C%9B%E8%A1%97%E5%BA%97%29&src=vetmap&coordinate=gaode&callnative=1","route_id":"r1","route_name":"第1段","global_order":18},{"name":"壹格宠物医院(富阳总店)","address":"春秋北路462号","phone":"","category":"医疗保健服务;动物医疗场所;宠物诊所","area":"富春","lng":119.940429,"lat":30.065173,"amap_id":"B0K6DA80EE","order":19,"prev_distance_km":0.792,"cumulative_distance_km":52.441,"amap_marker_url":"https://uri.amap.com/marker?position=119.940429,30.065173&name=%E5%A3%B9%E6%A0%BC%E5%AE%A0%E7%89%A9%E5%8C%BB%E9%99%A2%28%E5%AF%8C%E9%98%B3%E6%80%BB%E5%BA%97%29&src=vetmap&coordinate=gaode&callnative=1","route_id":"r1","route_name":"第1段","global_order":19},{"name":"启心宠物医院","address":"彩虹路159号(高桥地铁站D口步行480米)","phone":"13777877024","category":"医疗保健服务;动物医疗场所;宠物诊所","area":"高桥","lng":119.936114,"lat":30.093429,"amap_id":"B0J3ZZPEA6","order":20,"prev_distance_km":3.169,"cumulative_distance_km":55.61,"amap_marker_url":"https://uri.amap.com/marker?position=119.936114,30.093429&name=%E5%90%AF%E5%BF%83%E5%AE%A0%E7%89%A9%E5%8C%BB%E9%99%A2&src=vetmap&coordinate=gaode&callnative=1","route_id":"r1","route_name":"第1段","global_order":20},{"name":"萌绮宠物医院·犬猫牙科·骨科专科","address":"银湖街道上林南路129号1-2楼","phone":"18906501328","category":"医疗保健服务;动物医疗场所;宠物诊所","area":"","lng":119.972586,"lat":30.144048,"amap_id":"B0IU3RK5Z1","order":21,"prev_distance_km":6.632,"cumulative_distance_km":62.243,"amap_marker_url":"https://uri.amap.com/marker?position=119.972586,30.144048&name=%E8%90%8C%E7%BB%AE%E5%AE%A0%E7%89%A9%E5%8C%BB%E9%99%A2%C2%B7%E7%8A%AC%E7%8C%AB%E7%89%99%E7%A7%91%C2%B7%E9%AA%A8%E7%A7%91%E4%B8%93%E7%A7%91&src=vetmap&coordinate=gaode&callnative=1","route_id":"r1","route_name":"第1段","global_order":21},{"name":"康萌宠物医院(九龙大道店)","address":"银湖街道富春硅谷八号楼118号","phone":"15397009806","category":"医疗保健服务;动物医疗场所;宠物诊所","area":"","lng":119.987647,"lat":30.144916,"amap_id":"B0HK3SNGP8","order":22,"prev_distance_km":1.451,"cumulative_distance_km":63.694,"amap_marker_url":"https://uri.amap.com/marker?position=119.987647,30.144916&name=%E5%BA%B7%E8%90%8C%E5%AE%A0%E7%89%A9%E5%8C%BB%E9%99%A2%28%E4%B9%9D%E9%BE%99%E5%A4%A7%E9%81%93%E5%BA%97%29&src=vetmap&coordinate=gaode&callnative=1","route_id":"r1","route_name":"第1段","global_order":22}]}