{"summary":{"id":"d01305","province":"浙江省","city":"台州市","district":"玉环市","count":15,"route_count":1,"max_route_clinics":15,"total_distance_km":29.677,"coordinate_system":"GCJ-02 / Amap","generated_at":"2026-05-07 21:29:48"},"routes":[{"id":"r1","name":"第1段","count":15,"total_distance_km":29.677,"rows":[{"name":"名门宠物医院(玉环总院)","address":"市双港路335号","phone":"13967686839","category":"医疗保健服务;动物医疗场所;宠物诊所","area":"玉环","lng":121.241485,"lat":28.109207,"amap_id":"B0JKUSIG3M","order":1,"prev_distance_km":0.0,"cumulative_distance_km":0.0,"amap_marker_url":"https://uri.amap.com/marker?position=121.241485,28.109207&name=%E5%90%8D%E9%97%A8%E5%AE%A0%E7%89%A9%E5%8C%BB%E9%99%A2%28%E7%8E%89%E7%8E%AF%E6%80%BB%E9%99%A2%29&src=vetmap&coordinate=gaode&callnative=1","route_id":"r1","route_name":"第1段"},{"name":"哈粒宠物医院","address":"双港路276号","phone":"","category":"医疗保健服务;动物医疗场所;宠物诊所","area":"","lng":121.238517,"lat":28.110137,"amap_id":"B0K3LH5GEJ","order":2,"prev_distance_km":0.309,"cumulative_distance_km":0.309,"amap_marker_url":"https://uri.amap.com/marker?position=121.238517,28.110137&name=%E5%93%88%E7%B2%92%E5%AE%A0%E7%89%A9%E5%8C%BB%E9%99%A2&src=vetmap&coordinate=gaode&callnative=1","route_id":"r1","route_name":"第1段"},{"name":"信富宠物诊所","address":"双港路与福悦路交叉口东南100米","phone":"","category":"医疗保健服务;动物医疗场所;宠物诊所","area":"","lng":121.238324,"lat":28.110087,"amap_id":"B0JD540XYE","order":3,"prev_distance_km":0.02,"cumulative_distance_km":0.329,"amap_marker_url":"https://uri.amap.com/marker?position=121.238324,28.110087&name=%E4%BF%A1%E5%AF%8C%E5%AE%A0%E7%89%A9%E8%AF%8A%E6%89%80&src=vetmap&coordinate=gaode&callnative=1","route_id":"r1","route_name":"第1段"},{"name":"佳雯宠物医院·宠保定点·免疫点(玉环分院)","address":"华鸿嘉园商铺15栋28号29号","phone":"0576-87225617;17758362007","category":"医疗保健服务;动物医疗场所;宠物诊所","area":"玉环","lng":121.232174,"lat":28.118103,"amap_id":"B0FFM1D259","order":4,"prev_distance_km":1.076,"cumulative_distance_km":1.405,"amap_marker_url":"https://uri.amap.com/marker?position=121.232174,28.118103&name=%E4%BD%B3%E9%9B%AF%E5%AE%A0%E7%89%A9%E5%8C%BB%E9%99%A2%C2%B7%E5%AE%A0%E4%BF%9D%E5%AE%9A%E7%82%B9%C2%B7%E5%85%8D%E7%96%AB%E7%82%B9%28%E7%8E%89%E7%8E%AF%E5%88%86%E9%99%A2%29&src=vetmap&coordinate=gaode&callnative=1","route_id":"r1","route_name":"第1段"},{"name":"环岛宠物诊所","address":"城中路97-7、97-8号","phone":"18869953584","category":"医疗保健服务;动物医疗场所;宠物诊所","area":"玉环","lng":121.228998,"lat":28.12314,"amap_id":"B0FFL723T5","order":5,"prev_distance_km":0.641,"cumulative_distance_km":2.046,"amap_marker_url":"https://uri.amap.com/marker?position=121.228998,28.123140&name=%E7%8E%AF%E5%B2%9B%E5%AE%A0%E7%89%A9%E8%AF%8A%E6%89%80&src=vetmap&coordinate=gaode&callnative=1","route_id":"r1","route_name":"第1段"},{"name":"叮铛宠物医院","address":"市长治路142号","phone":"15068665207","category":"医疗保健服务;动物医疗场所;宠物诊所","area":"玉环","lng":121.234429,"lat":28.128058,"amap_id":"B0FFLEMTVM","order":6,"prev_distance_km":0.763,"cumulative_distance_km":2.809,"amap_marker_url":"https://uri.amap.com/marker?position=121.234429,28.128058&name=%E5%8F%AE%E9%93%9B%E5%AE%A0%E7%89%A9%E5%8C%BB%E9%99%A2&src=vetmap&coordinate=gaode&callnative=1","route_id":"r1","route_name":"第1段"},{"name":"维雅斯·唯亚宠物医院(芦浦店)","address":"芦浦经济开发区阀门城B2幢106.107","phone":"13606728371","category":"医疗保健服务;动物医疗场所;宠物诊所","area":"","lng":121.25969,"lat":28.216208,"amap_id":"B0JBU7HDRQ","order":7,"prev_distance_km":10.11,"cumulative_distance_km":12.919,"amap_marker_url":"https://uri.amap.com/marker?position=121.259690,28.216208&name=%E7%BB%B4%E9%9B%85%E6%96%AF%C2%B7%E5%94%AF%E4%BA%9A%E5%AE%A0%E7%89%A9%E5%8C%BB%E9%99%A2%28%E8%8A%A6%E6%B5%A6%E5%BA%97%29&src=vetmap&coordinate=gaode&callnative=1","route_id":"r1","route_name":"第1段"},{"name":"尤克宠物诊所","address":"楚门镇观潮路3号楼(新雄餐馆隔壁)","phone":"13777623318","category":"医疗保健服务;动物医疗场所;宠物诊所","area":"南兴西路","lng":121.280779,"lat":28.216727,"amap_id":"B0FFFP4FDC","order":8,"prev_distance_km":2.067,"cumulative_distance_km":14.986,"amap_marker_url":"https://uri.amap.com/marker?position=121.280779,28.216727&name=%E5%B0%A4%E5%85%8B%E5%AE%A0%E7%89%A9%E8%AF%8A%E6%89%80&src=vetmap&coordinate=gaode&callnative=1","route_id":"r1","route_name":"第1段"},{"name":"名门宠物医院(楚门分院)","address":"昌业路与南兴西路交叉口北100米","phone":"13967623102","category":"医疗保健服务;动物医疗场所;宠物诊所","area":"南兴西路","lng":121.286987,"lat":28.217216,"amap_id":"B0JGULHXXI","order":9,"prev_distance_km":0.611,"cumulative_distance_km":15.597,"amap_marker_url":"https://uri.amap.com/marker?position=121.286987,28.217216&name=%E5%90%8D%E9%97%A8%E5%AE%A0%E7%89%A9%E5%8C%BB%E9%99%A2%28%E6%A5%9A%E9%97%A8%E5%88%86%E9%99%A2%29&src=vetmap&coordinate=gaode&callnative=1","route_id":"r1","route_name":"第1段"},{"name":"安卡宠物医院湖滨社区店","address":"楚门镇湖滨社区南兴街16号哈伦兔隔壁","phone":"18967689305","category":"医疗保健服务;动物医疗场所;宠物诊所","area":"","lng":121.295457,"lat":28.213773,"amap_id":"B0LR35D4KL","order":10,"prev_distance_km":0.914,"cumulative_distance_km":16.511,"amap_marker_url":"https://uri.amap.com/marker?position=121.295457,28.213773&name=%E5%AE%89%E5%8D%A1%E5%AE%A0%E7%89%A9%E5%8C%BB%E9%99%A2%E6%B9%96%E6%BB%A8%E7%A4%BE%E5%8C%BA%E5%BA%97&src=vetmap&coordinate=gaode&callnative=1","route_id":"r1","route_name":"第1段"},{"name":"老杨动物诊所","address":"楚门楚柚路115号畜禽宠物疾病的诊治","phone":"13335762155","category":"医疗保健服务;动物医疗场所;宠物诊所","area":"","lng":121.294938,"lat":28.2177,"amap_id":"B0FFH65A06","order":11,"prev_distance_km":0.44,"cumulative_distance_km":16.95,"amap_marker_url":"https://uri.amap.com/marker?position=121.294938,28.217700&name=%E8%80%81%E6%9D%A8%E5%8A%A8%E7%89%A9%E8%AF%8A%E6%89%80&src=vetmap&coordinate=gaode&callnative=1","route_id":"r1","route_name":"第1段"},{"name":"维雅斯宠物轻奢体验馆","address":"清港镇清华村门前涂112号","phone":"13665785651;13736623237","category":"医疗保健服务;动物医疗场所;宠物诊所","area":"","lng":121.289318,"lat":28.243258,"amap_id":"B0JAP5XXBI","order":12,"prev_distance_km":2.895,"cumulative_distance_km":19.845,"amap_marker_url":"https://uri.amap.com/marker?position=121.289318,28.243258&name=%E7%BB%B4%E9%9B%85%E6%96%AF%E5%AE%A0%E7%89%A9%E8%BD%BB%E5%A5%A2%E4%BD%93%E9%AA%8C%E9%A6%86&src=vetmap&coordinate=gaode&callnative=1","route_id":"r1","route_name":"第1段"},{"name":"却长伴宠物诊疗中心","address":"清华南路与湫涛路交叉口南200米","phone":"18967689305","category":"医疗保健服务;动物医疗场所;宠物诊所","area":"","lng":121.289347,"lat":28.243272,"amap_id":"B0FFKPQHSK","order":13,"prev_distance_km":0.003,"cumulative_distance_km":19.848,"amap_marker_url":"https://uri.amap.com/marker?position=121.289347,28.243272&name=%E5%8D%B4%E9%95%BF%E4%BC%B4%E5%AE%A0%E7%89%A9%E8%AF%8A%E7%96%97%E4%B8%AD%E5%BF%83&src=vetmap&coordinate=gaode&callnative=1","route_id":"r1","route_name":"第1段"},{"name":"名门宠物诊所","address":"清港镇清港村清华南路9号","phone":"13967686839","category":"医疗保健服务;动物医疗场所;宠物诊所","area":"","lng":121.287402,"lat":28.248335,"amap_id":"B0FFKRGZSZ","order":14,"prev_distance_km":0.594,"cumulative_distance_km":20.443,"amap_marker_url":"https://uri.amap.com/marker?position=121.287402,28.248335&name=%E5%90%8D%E9%97%A8%E5%AE%A0%E7%89%A9%E8%AF%8A%E6%89%80&src=vetmap&coordinate=gaode&callnative=1","route_id":"r1","route_name":"第1段"},{"name":"维雅斯华维动物医院","address":"沙门镇楚瑶路105号","phone":"13738673896","category":"医疗保健服务;动物医疗场所;宠物诊所","area":"","lng":121.3811,"lat":28.239235,"amap_id":"B0FFLPN6NP","order":15,"prev_distance_km":9.234,"cumulative_distance_km":29.677,"amap_marker_url":"https://uri.amap.com/marker?position=121.381100,28.239235&name=%E7%BB%B4%E9%9B%85%E6%96%AF%E5%8D%8E%E7%BB%B4%E5%8A%A8%E7%89%A9%E5%8C%BB%E9%99%A2&src=vetmap&coordinate=gaode&callnative=1","route_id":"r1","route_name":"第1段"}]}],"rows":[{"name":"名门宠物医院(玉环总院)","address":"市双港路335号","phone":"13967686839","category":"医疗保健服务;动物医疗场所;宠物诊所","area":"玉环","lng":121.241485,"lat":28.109207,"amap_id":"B0JKUSIG3M","order":1,"prev_distance_km":0.0,"cumulative_distance_km":0.0,"amap_marker_url":"https://uri.amap.com/marker?position=121.241485,28.109207&name=%E5%90%8D%E9%97%A8%E5%AE%A0%E7%89%A9%E5%8C%BB%E9%99%A2%28%E7%8E%89%E7%8E%AF%E6%80%BB%E9%99%A2%29&src=vetmap&coordinate=gaode&callnative=1","route_id":"r1","route_name":"第1段","global_order":1},{"name":"哈粒宠物医院","address":"双港路276号","phone":"","category":"医疗保健服务;动物医疗场所;宠物诊所","area":"","lng":121.238517,"lat":28.110137,"amap_id":"B0K3LH5GEJ","order":2,"prev_distance_km":0.309,"cumulative_distance_km":0.309,"amap_marker_url":"https://uri.amap.com/marker?position=121.238517,28.110137&name=%E5%93%88%E7%B2%92%E5%AE%A0%E7%89%A9%E5%8C%BB%E9%99%A2&src=vetmap&coordinate=gaode&callnative=1","route_id":"r1","route_name":"第1段","global_order":2},{"name":"信富宠物诊所","address":"双港路与福悦路交叉口东南100米","phone":"","category":"医疗保健服务;动物医疗场所;宠物诊所","area":"","lng":121.238324,"lat":28.110087,"amap_id":"B0JD540XYE","order":3,"prev_distance_km":0.02,"cumulative_distance_km":0.329,"amap_marker_url":"https://uri.amap.com/marker?position=121.238324,28.110087&name=%E4%BF%A1%E5%AF%8C%E5%AE%A0%E7%89%A9%E8%AF%8A%E6%89%80&src=vetmap&coordinate=gaode&callnative=1","route_id":"r1","route_name":"第1段","global_order":3},{"name":"佳雯宠物医院·宠保定点·免疫点(玉环分院)","address":"华鸿嘉园商铺15栋28号29号","phone":"0576-87225617;17758362007","category":"医疗保健服务;动物医疗场所;宠物诊所","area":"玉环","lng":121.232174,"lat":28.118103,"amap_id":"B0FFM1D259","order":4,"prev_distance_km":1.076,"cumulative_distance_km":1.405,"amap_marker_url":"https://uri.amap.com/marker?position=121.232174,28.118103&name=%E4%BD%B3%E9%9B%AF%E5%AE%A0%E7%89%A9%E5%8C%BB%E9%99%A2%C2%B7%E5%AE%A0%E4%BF%9D%E5%AE%9A%E7%82%B9%C2%B7%E5%85%8D%E7%96%AB%E7%82%B9%28%E7%8E%89%E7%8E%AF%E5%88%86%E9%99%A2%29&src=vetmap&coordinate=gaode&callnative=1","route_id":"r1","route_name":"第1段","global_order":4},{"name":"环岛宠物诊所","address":"城中路97-7、97-8号","phone":"18869953584","category":"医疗保健服务;动物医疗场所;宠物诊所","area":"玉环","lng":121.228998,"lat":28.12314,"amap_id":"B0FFL723T5","order":5,"prev_distance_km":0.641,"cumulative_distance_km":2.046,"amap_marker_url":"https://uri.amap.com/marker?position=121.228998,28.123140&name=%E7%8E%AF%E5%B2%9B%E5%AE%A0%E7%89%A9%E8%AF%8A%E6%89%80&src=vetmap&coordinate=gaode&callnative=1","route_id":"r1","route_name":"第1段","global_order":5},{"name":"叮铛宠物医院","address":"市长治路142号","phone":"15068665207","category":"医疗保健服务;动物医疗场所;宠物诊所","area":"玉环","lng":121.234429,"lat":28.128058,"amap_id":"B0FFLEMTVM","order":6,"prev_distance_km":0.763,"cumulative_distance_km":2.809,"amap_marker_url":"https://uri.amap.com/marker?position=121.234429,28.128058&name=%E5%8F%AE%E9%93%9B%E5%AE%A0%E7%89%A9%E5%8C%BB%E9%99%A2&src=vetmap&coordinate=gaode&callnative=1","route_id":"r1","route_name":"第1段","global_order":6},{"name":"维雅斯·唯亚宠物医院(芦浦店)","address":"芦浦经济开发区阀门城B2幢106.107","phone":"13606728371","category":"医疗保健服务;动物医疗场所;宠物诊所","area":"","lng":121.25969,"lat":28.216208,"amap_id":"B0JBU7HDRQ","order":7,"prev_distance_km":10.11,"cumulative_distance_km":12.919,"amap_marker_url":"https://uri.amap.com/marker?position=121.259690,28.216208&name=%E7%BB%B4%E9%9B%85%E6%96%AF%C2%B7%E5%94%AF%E4%BA%9A%E5%AE%A0%E7%89%A9%E5%8C%BB%E9%99%A2%28%E8%8A%A6%E6%B5%A6%E5%BA%97%29&src=vetmap&coordinate=gaode&callnative=1","route_id":"r1","route_name":"第1段","global_order":7},{"name":"尤克宠物诊所","address":"楚门镇观潮路3号楼(新雄餐馆隔壁)","phone":"13777623318","category":"医疗保健服务;动物医疗场所;宠物诊所","area":"南兴西路","lng":121.280779,"lat":28.216727,"amap_id":"B0FFFP4FDC","order":8,"prev_distance_km":2.067,"cumulative_distance_km":14.986,"amap_marker_url":"https://uri.amap.com/marker?position=121.280779,28.216727&name=%E5%B0%A4%E5%85%8B%E5%AE%A0%E7%89%A9%E8%AF%8A%E6%89%80&src=vetmap&coordinate=gaode&callnative=1","route_id":"r1","route_name":"第1段","global_order":8},{"name":"名门宠物医院(楚门分院)","address":"昌业路与南兴西路交叉口北100米","phone":"13967623102","category":"医疗保健服务;动物医疗场所;宠物诊所","area":"南兴西路","lng":121.286987,"lat":28.217216,"amap_id":"B0JGULHXXI","order":9,"prev_distance_km":0.611,"cumulative_distance_km":15.597,"amap_marker_url":"https://uri.amap.com/marker?position=121.286987,28.217216&name=%E5%90%8D%E9%97%A8%E5%AE%A0%E7%89%A9%E5%8C%BB%E9%99%A2%28%E6%A5%9A%E9%97%A8%E5%88%86%E9%99%A2%29&src=vetmap&coordinate=gaode&callnative=1","route_id":"r1","route_name":"第1段","global_order":9},{"name":"安卡宠物医院湖滨社区店","address":"楚门镇湖滨社区南兴街16号哈伦兔隔壁","phone":"18967689305","category":"医疗保健服务;动物医疗场所;宠物诊所","area":"","lng":121.295457,"lat":28.213773,"amap_id":"B0LR35D4KL","order":10,"prev_distance_km":0.914,"cumulative_distance_km":16.511,"amap_marker_url":"https://uri.amap.com/marker?position=121.295457,28.213773&name=%E5%AE%89%E5%8D%A1%E5%AE%A0%E7%89%A9%E5%8C%BB%E9%99%A2%E6%B9%96%E6%BB%A8%E7%A4%BE%E5%8C%BA%E5%BA%97&src=vetmap&coordinate=gaode&callnative=1","route_id":"r1","route_name":"第1段","global_order":10},{"name":"老杨动物诊所","address":"楚门楚柚路115号畜禽宠物疾病的诊治","phone":"13335762155","category":"医疗保健服务;动物医疗场所;宠物诊所","area":"","lng":121.294938,"lat":28.2177,"amap_id":"B0FFH65A06","order":11,"prev_distance_km":0.44,"cumulative_distance_km":16.95,"amap_marker_url":"https://uri.amap.com/marker?position=121.294938,28.217700&name=%E8%80%81%E6%9D%A8%E5%8A%A8%E7%89%A9%E8%AF%8A%E6%89%80&src=vetmap&coordinate=gaode&callnative=1","route_id":"r1","route_name":"第1段","global_order":11},{"name":"维雅斯宠物轻奢体验馆","address":"清港镇清华村门前涂112号","phone":"13665785651;13736623237","category":"医疗保健服务;动物医疗场所;宠物诊所","area":"","lng":121.289318,"lat":28.243258,"amap_id":"B0JAP5XXBI","order":12,"prev_distance_km":2.895,"cumulative_distance_km":19.845,"amap_marker_url":"https://uri.amap.com/marker?position=121.289318,28.243258&name=%E7%BB%B4%E9%9B%85%E6%96%AF%E5%AE%A0%E7%89%A9%E8%BD%BB%E5%A5%A2%E4%BD%93%E9%AA%8C%E9%A6%86&src=vetmap&coordinate=gaode&callnative=1","route_id":"r1","route_name":"第1段","global_order":12},{"name":"却长伴宠物诊疗中心","address":"清华南路与湫涛路交叉口南200米","phone":"18967689305","category":"医疗保健服务;动物医疗场所;宠物诊所","area":"","lng":121.289347,"lat":28.243272,"amap_id":"B0FFKPQHSK","order":13,"prev_distance_km":0.003,"cumulative_distance_km":19.848,"amap_marker_url":"https://uri.amap.com/marker?position=121.289347,28.243272&name=%E5%8D%B4%E9%95%BF%E4%BC%B4%E5%AE%A0%E7%89%A9%E8%AF%8A%E7%96%97%E4%B8%AD%E5%BF%83&src=vetmap&coordinate=gaode&callnative=1","route_id":"r1","route_name":"第1段","global_order":13},{"name":"名门宠物诊所","address":"清港镇清港村清华南路9号","phone":"13967686839","category":"医疗保健服务;动物医疗场所;宠物诊所","area":"","lng":121.287402,"lat":28.248335,"amap_id":"B0FFKRGZSZ","order":14,"prev_distance_km":0.594,"cumulative_distance_km":20.443,"amap_marker_url":"https://uri.amap.com/marker?position=121.287402,28.248335&name=%E5%90%8D%E9%97%A8%E5%AE%A0%E7%89%A9%E8%AF%8A%E6%89%80&src=vetmap&coordinate=gaode&callnative=1","route_id":"r1","route_name":"第1段","global_order":14},{"name":"维雅斯华维动物医院","address":"沙门镇楚瑶路105号","phone":"13738673896","category":"医疗保健服务;动物医疗场所;宠物诊所","area":"","lng":121.3811,"lat":28.239235,"amap_id":"B0FFLPN6NP","order":15,"prev_distance_km":9.234,"cumulative_distance_km":29.677,"amap_marker_url":"https://uri.amap.com/marker?position=121.381100,28.239235&name=%E7%BB%B4%E9%9B%85%E6%96%AF%E5%8D%8E%E7%BB%B4%E5%8A%A8%E7%89%A9%E5%8C%BB%E9%99%A2&src=vetmap&coordinate=gaode&callnative=1","route_id":"r1","route_name":"第1段","global_order":15}]}