{"summary":{"id":"d01361","province":"浙江省","city":"舟山市","district":"定海区","count":17,"total_distance_km":23.035,"coordinate_system":"GCJ-02 / Amap","generated_at":"2026-05-07 19:58:02"},"rows":[{"name":"古德动物医院 Good animal hospital","address":"临城街道长峙东路与茶山路交叉口1层103号","phone":"17705802295","category":"医疗保健服务;动物医疗场所;宠物诊所","area":"舟山群岛新区","lng":122.187991,"lat":29.968041,"amap_id":"B0L6PUC6YX","order":1,"prev_distance_km":0.0,"cumulative_distance_km":0.0,"amap_marker_url":"https://uri.amap.com/marker?position=122.187991,29.968041&name=%E5%8F%A4%E5%BE%B7%E5%8A%A8%E7%89%A9%E5%8C%BB%E9%99%A2%20Good%20animal%20hospital&src=vetmap&coordinate=gaode&callnative=1"},{"name":"新晨宠物诊疗","address":"浙江省舟山市定海区临城街道田螺峙路41号","phone":"13567697060","category":"医疗保健服务;动物医疗场所;宠物诊所","area":"舟山群岛新区","lng":122.19271,"lat":29.985501,"amap_id":"B0IGBUN8EJ","order":2,"prev_distance_km":1.994,"cumulative_distance_km":1.994,"amap_marker_url":"https://uri.amap.com/marker?position=122.192710,29.985501&name=%E6%96%B0%E6%99%A8%E5%AE%A0%E7%89%A9%E8%AF%8A%E7%96%97&src=vetmap&coordinate=gaode&callnative=1"},{"name":"望舒宠物医院(怡岛路店)","address":"怡岛路124号","phone":"13255802517","category":"医疗保健服务;动物医疗场所;宠物诊所","area":"临城","lng":122.213744,"lat":29.989068,"amap_id":"B0K1X7AIPY","order":3,"prev_distance_km":2.064,"cumulative_distance_km":4.058,"amap_marker_url":"https://uri.amap.com/marker?position=122.213744,29.989068&name=%E6%9C%9B%E8%88%92%E5%AE%A0%E7%89%A9%E5%8C%BB%E9%99%A2%28%E6%80%A1%E5%B2%9B%E8%B7%AF%E5%BA%97%29&src=vetmap&coordinate=gaode&callnative=1"},{"name":"茶浦浦宠物","address":"茶山浦B区10幢10号","phone":"15905808050;18105806578","category":"医疗保健服务;动物医疗场所;动物医疗场所","area":"舟山群岛新区","lng":122.223143,"lat":29.984337,"amap_id":"B0LRXC2KVZ","order":4,"prev_distance_km":1.047,"cumulative_distance_km":5.105,"amap_marker_url":"https://uri.amap.com/marker?position=122.223143,29.984337&name=%E8%8C%B6%E6%B5%A6%E6%B5%A6%E5%AE%A0%E7%89%A9&src=vetmap&coordinate=gaode&callnative=1"},{"name":"爱侣宠物医疗","address":"千岛街道茶山浦路196号","phone":"13666712117","category":"医疗保健服务;动物医疗场所;宠物诊所","area":"舟山群岛新区","lng":122.226069,"lat":29.981555,"amap_id":"B0HGBCQQ5X","order":5,"prev_distance_km":0.418,"cumulative_distance_km":5.524,"amap_marker_url":"https://uri.amap.com/marker?position=122.226069,29.981555&name=%E7%88%B1%E4%BE%A3%E5%AE%A0%E7%89%A9%E5%8C%BB%E7%96%97&src=vetmap&coordinate=gaode&callnative=1"},{"name":"十十宠物诊疗所","address":"红茅山路188-190号","phone":"13868218654","category":"医疗保健服务;动物医疗场所;宠物诊所","area":"舟山群岛新区","lng":122.224824,"lat":30.000284,"amap_id":"B0J6BUVMVE","order":6,"prev_distance_km":2.086,"cumulative_distance_km":7.61,"amap_marker_url":"https://uri.amap.com/marker?position=122.224824,30.000284&name=%E5%8D%81%E5%8D%81%E5%AE%A0%E7%89%A9%E8%AF%8A%E7%96%97%E6%89%80&src=vetmap&coordinate=gaode&callnative=1"},{"name":"宠康动物诊所(桃湾新村三区店)","address":"金岛路与桃湾路交叉口东南40米","phone":"0580-2027868","category":"医疗保健服务;动物医疗场所;宠物诊所","area":"舟山群岛新区","lng":122.200746,"lat":29.998248,"amap_id":"B0FFK7XBHT","order":7,"prev_distance_km":2.33,"cumulative_distance_km":9.939,"amap_marker_url":"https://uri.amap.com/marker?position=122.200746,29.998248&name=%E5%AE%A0%E5%BA%B7%E5%8A%A8%E7%89%A9%E8%AF%8A%E6%89%80%28%E6%A1%83%E6%B9%BE%E6%96%B0%E6%9D%91%E4%B8%89%E5%8C%BA%E5%BA%97%29&src=vetmap&coordinate=gaode&callnative=1"},{"name":"煊宝宠物","address":"金岛路与体育路交叉口西南80米","phone":"","category":"医疗保健服务;动物医疗场所;动物医疗场所|购物服务;专卖店;宠物用品店","area":"舟山群岛新区","lng":122.201275,"lat":30.007875,"amap_id":"B0M61MFPM3","order":8,"prev_distance_km":1.072,"cumulative_distance_km":11.011,"amap_marker_url":"https://uri.amap.com/marker?position=122.201275,30.007875&name=%E7%85%8A%E5%AE%9D%E5%AE%A0%E7%89%A9&src=vetmap&coordinate=gaode&callnative=1"},{"name":"派惟动物医院·心脏专科·中兽医·牙科","address":"城东街道颐景园路36号","phone":"13136288251","category":"医疗保健服务;动物医疗场所;宠物诊所","area":"舟山群岛新区","lng":122.131611,"lat":30.017548,"amap_id":"B0L3KSBSXX","order":9,"prev_distance_km":6.793,"cumulative_distance_km":17.804,"amap_marker_url":"https://uri.amap.com/marker?position=122.131611,30.017548&name=%E6%B4%BE%E6%83%9F%E5%8A%A8%E7%89%A9%E5%8C%BB%E9%99%A2%C2%B7%E5%BF%83%E8%84%8F%E4%B8%93%E7%A7%91%C2%B7%E4%B8%AD%E5%85%BD%E5%8C%BB%C2%B7%E7%89%99%E7%A7%91&src=vetmap&coordinate=gaode&callnative=1"},{"name":"定海优贝动物诊所(怡东公寓店)","address":"颜家峧路2-12号-13号","phone":"","category":"医疗保健服务;动物医疗场所;宠物诊所","area":"舟山群岛新区","lng":122.121441,"lat":30.015331,"amap_id":"B0K07ZK6ED","order":10,"prev_distance_km":1.01,"cumulative_distance_km":18.814,"amap_marker_url":"https://uri.amap.com/marker?position=122.121441,30.015331&name=%E5%AE%9A%E6%B5%B7%E4%BC%98%E8%B4%9D%E5%8A%A8%E7%89%A9%E8%AF%8A%E6%89%80%28%E6%80%A1%E4%B8%9C%E5%85%AC%E5%AF%93%E5%BA%97%29&src=vetmap&coordinate=gaode&callnative=1"},{"name":"定海康贝兽医诊所","address":"颜家峧路2-12、13号","phone":"0580-2624125;13059877880","category":"医疗保健服务;动物医疗场所;兽医站","area":"舟山群岛新区","lng":122.121391,"lat":30.015283,"amap_id":"B0FFF9TXDN","order":11,"prev_distance_km":0.007,"cumulative_distance_km":18.821,"amap_marker_url":"https://uri.amap.com/marker?position=122.121391,30.015283&name=%E5%AE%9A%E6%B5%B7%E5%BA%B7%E8%B4%9D%E5%85%BD%E5%8C%BB%E8%AF%8A%E6%89%80&src=vetmap&coordinate=gaode&callnative=1"},{"name":"康乐宠物医疗中心(横河路)","address":"横河路36-11号","phone":"0580-2921668;13705800276","category":"医疗保健服务;动物医疗场所;宠物诊所","area":"环城东路","lng":122.114392,"lat":30.00797,"amap_id":"B0244649MK","order":12,"prev_distance_km":1.056,"cumulative_distance_km":19.877,"amap_marker_url":"https://uri.amap.com/marker?position=122.114392,30.007970&name=%E5%BA%B7%E4%B9%90%E5%AE%A0%E7%89%A9%E5%8C%BB%E7%96%97%E4%B8%AD%E5%BF%83%28%E6%A8%AA%E6%B2%B3%E8%B7%AF%29&src=vetmap&coordinate=gaode&callnative=1"},{"name":"佳雯宠物医院·犬猫·眼·骨·神经科 (东河南路店)","address":"东河南路145号","phone":"18606801515","category":"医疗保健服务;动物医疗场所;宠物诊所","area":"环城东路","lng":122.116902,"lat":30.004762,"amap_id":"B0FFKV1NJM","order":13,"prev_distance_km":0.431,"cumulative_distance_km":20.308,"amap_marker_url":"https://uri.amap.com/marker?position=122.116902,30.004762&name=%E4%BD%B3%E9%9B%AF%E5%AE%A0%E7%89%A9%E5%8C%BB%E9%99%A2%C2%B7%E7%8A%AC%E7%8C%AB%C2%B7%E7%9C%BC%C2%B7%E9%AA%A8%C2%B7%E7%A5%9E%E7%BB%8F%E7%A7%91%20%28%E4%B8%9C%E6%B2%B3%E5%8D%97%E8%B7%AF%E5%BA%97%29&src=vetmap&coordinate=gaode&callnative=1"},{"name":"舟山仁仁嘉嘉宠物医院","address":"南环街道环城东路171、172号","phone":"18058085526","category":"医疗保健服务;动物医疗场所;宠物诊所","area":"环城东路","lng":122.113504,"lat":30.005656,"amap_id":"B0LDLHSIVL","order":14,"prev_distance_km":0.342,"cumulative_distance_km":20.65,"amap_marker_url":"https://uri.amap.com/marker?position=122.113504,30.005656&name=%E8%88%9F%E5%B1%B1%E4%BB%81%E4%BB%81%E5%98%89%E5%98%89%E5%AE%A0%E7%89%A9%E5%8C%BB%E9%99%A2&src=vetmap&coordinate=gaode&callnative=1"},{"name":"爱爱宠物医院(宋都海滨新天地店)","address":"和平路227号","phone":"0580-2064085;13957223622","category":"医疗保健服务;动物医疗场所;宠物诊所","area":"舟山群岛新区","lng":122.110987,"lat":30.00628,"amap_id":"B0FFFNUNY8","order":15,"prev_distance_km":0.252,"cumulative_distance_km":20.902,"amap_marker_url":"https://uri.amap.com/marker?position=122.110987,30.006280&name=%E7%88%B1%E7%88%B1%E5%AE%A0%E7%89%A9%E5%8C%BB%E9%99%A2%28%E5%AE%8B%E9%83%BD%E6%B5%B7%E6%BB%A8%E6%96%B0%E5%A4%A9%E5%9C%B0%E5%BA%97%29&src=vetmap&coordinate=gaode&callnative=1"},{"name":"宠博士","address":"沿港东路95号宋都海滨新天地","phone":"","category":"医疗保健服务;动物医疗场所;宠物诊所","area":"环城南路","lng":122.1097,"lat":30.0061,"amap_id":"B0L2ZL47XB","order":16,"prev_distance_km":0.126,"cumulative_distance_km":21.028,"amap_marker_url":"https://uri.amap.com/marker?position=122.109700,30.006100&name=%E5%AE%A0%E5%8D%9A%E5%A3%AB&src=vetmap&coordinate=gaode&callnative=1"},{"name":"爱派特动物医院舟山皇佳分院","address":"环城南路9-3、9-6号","phone":"0580-2922277;13675800707","category":"医疗保健服务;动物医疗场所;宠物诊所","area":"舟山群岛新区","lng":122.089721,"lat":30.011236,"amap_id":"B0GDTUYAB3","order":17,"prev_distance_km":2.007,"cumulative_distance_km":23.035,"amap_marker_url":"https://uri.amap.com/marker?position=122.089721,30.011236&name=%E7%88%B1%E6%B4%BE%E7%89%B9%E5%8A%A8%E7%89%A9%E5%8C%BB%E9%99%A2%E8%88%9F%E5%B1%B1%E7%9A%87%E4%BD%B3%E5%88%86%E9%99%A2&src=vetmap&coordinate=gaode&callnative=1"}]}