{"summary":{"id":"d01355","province":"浙江省","city":"绍兴市","district":"上虞区","count":19,"total_distance_km":26.85,"coordinate_system":"GCJ-02 / Amap","generated_at":"2026-05-07 19:58:00"},"rows":[{"name":"派佳德宠物医院(万达店)","address":"康居路万达臻尚府商铺A144号","phone":"18069628636","category":"医疗保健服务;动物医疗场所;宠物诊所","area":"","lng":120.845171,"lat":30.049438,"amap_id":"B0JKYZGBID","order":1,"prev_distance_km":0.0,"cumulative_distance_km":0.0,"amap_marker_url":"https://uri.amap.com/marker?position=120.845171,30.049438&name=%E6%B4%BE%E4%BD%B3%E5%BE%B7%E5%AE%A0%E7%89%A9%E5%8C%BB%E9%99%A2%28%E4%B8%87%E8%BE%BE%E5%BA%97%29&src=vetmap&coordinate=gaode&callnative=1"},{"name":"绍兴睿康宠物医院","address":"康居支路臻尚府西南门B103-104铺","phone":"18717852667","category":"医疗保健服务;动物医疗场所;宠物诊所","area":"","lng":120.844728,"lat":30.048025,"amap_id":"B0J3VU6W2K","order":2,"prev_distance_km":0.163,"cumulative_distance_km":0.163,"amap_marker_url":"https://uri.amap.com/marker?position=120.844728,30.048025&name=%E7%BB%8D%E5%85%B4%E7%9D%BF%E5%BA%B7%E5%AE%A0%E7%89%A9%E5%8C%BB%E9%99%A2&src=vetmap&coordinate=gaode&callnative=1"},{"name":"宠物美容店","address":"虞舜大道中段与腾达路交叉口北180米","phone":"","category":"医疗保健服务;动物医疗场所;宠物诊所","area":"","lng":120.822692,"lat":30.029457,"amap_id":"B0KD3XS17C","order":3,"prev_distance_km":2.96,"cumulative_distance_km":3.123,"amap_marker_url":"https://uri.amap.com/marker?position=120.822692,30.029457&name=%E5%AE%A0%E7%89%A9%E7%BE%8E%E5%AE%B9%E5%BA%97&src=vetmap&coordinate=gaode&callnative=1"},{"name":"仁爱动物医院(舜景·秀水苑店)","address":"五星东路275-277号","phone":"0575-82159991;18966091965","category":"医疗保健服务;动物医疗场所;宠物诊所","area":"曹娥","lng":120.854792,"lat":30.01839,"amap_id":"B0J1BAM87J","order":4,"prev_distance_km":3.326,"cumulative_distance_km":6.449,"amap_marker_url":"https://uri.amap.com/marker?position=120.854792,30.018390&name=%E4%BB%81%E7%88%B1%E5%8A%A8%E7%89%A9%E5%8C%BB%E9%99%A2%28%E8%88%9C%E6%99%AF%C2%B7%E7%A7%80%E6%B0%B4%E8%8B%91%E5%BA%97%29&src=vetmap&coordinate=gaode&callnative=1"},{"name":"芭比堂爱心动物医院(上虞分院)","address":"市民大道1658号","phone":"0575-82913261;15372512153","category":"医疗保健服务;动物医疗场所;宠物诊所","area":"百官","lng":120.86855,"lat":30.031606,"amap_id":"B0FFK50GYB","order":5,"prev_distance_km":1.978,"cumulative_distance_km":8.428,"amap_marker_url":"https://uri.amap.com/marker?position=120.868550,30.031606&name=%E8%8A%AD%E6%AF%94%E5%A0%82%E7%88%B1%E5%BF%83%E5%8A%A8%E7%89%A9%E5%8C%BB%E9%99%A2%28%E4%B8%8A%E8%99%9E%E5%88%86%E9%99%A2%29&src=vetmap&coordinate=gaode&callnative=1"},{"name":"派佳德宠物医院(高丰家园店)","address":"百官街道市民大道1646号","phone":"13967528933","category":"医疗保健服务;动物医疗场所;宠物诊所","area":"百官","lng":120.869072,"lat":30.031697,"amap_id":"B0HAD7ET8Q","order":6,"prev_distance_km":0.051,"cumulative_distance_km":8.479,"amap_marker_url":"https://uri.amap.com/marker?position=120.869072,30.031697&name=%E6%B4%BE%E4%BD%B3%E5%BE%B7%E5%AE%A0%E7%89%A9%E5%8C%BB%E9%99%A2%28%E9%AB%98%E4%B8%B0%E5%AE%B6%E5%9B%AD%E5%BA%97%29&src=vetmap&coordinate=gaode&callnative=1"},{"name":"嘉宠宠物医院24小时(上虞店)","address":"百官街道王充路808-812号","phone":"18069608276","category":"医疗保健服务;动物医疗场所;宠物诊所","area":"百官","lng":120.871434,"lat":30.035292,"amap_id":"B0G3NDPJU5","order":7,"prev_distance_km":0.46,"cumulative_distance_km":8.939,"amap_marker_url":"https://uri.amap.com/marker?position=120.871434,30.035292&name=%E5%98%89%E5%AE%A0%E5%AE%A0%E7%89%A9%E5%8C%BB%E9%99%A224%E5%B0%8F%E6%97%B6%28%E4%B8%8A%E8%99%9E%E5%BA%97%29&src=vetmap&coordinate=gaode&callnative=1"},{"name":"爱侣宠物诊所(还珠路店)","address":"锦绣家园北门旁","phone":"18267536732","category":"医疗保健服务;动物医疗场所;宠物诊所","area":"百官","lng":120.873943,"lat":30.030984,"amap_id":"B0FFKYO2QN","order":8,"prev_distance_km":0.536,"cumulative_distance_km":9.475,"amap_marker_url":"https://uri.amap.com/marker?position=120.873943,30.030984&name=%E7%88%B1%E4%BE%A3%E5%AE%A0%E7%89%A9%E8%AF%8A%E6%89%80%28%E8%BF%98%E7%8F%A0%E8%B7%AF%E5%BA%97%29&src=vetmap&coordinate=gaode&callnative=1"},{"name":"万佳宠物医院(上虞分院)","address":"百官街道国大花园西北门万佳宠物医院上虞分院","phone":"15957505923","category":"医疗保健服务;动物医疗场所;宠物诊所","area":"","lng":120.889923,"lat":30.035424,"amap_id":"B0LDN73O0V","order":9,"prev_distance_km":1.616,"cumulative_distance_km":11.091,"amap_marker_url":"https://uri.amap.com/marker?position=120.889923,30.035424&name=%E4%B8%87%E4%BD%B3%E5%AE%A0%E7%89%A9%E5%8C%BB%E9%99%A2%28%E4%B8%8A%E8%99%9E%E5%88%86%E9%99%A2%29&src=vetmap&coordinate=gaode&callnative=1"},{"name":"启航宠物医院·24小时急症","address":"百官街道江洋路31-33号","phone":"0575-82958892;18357525761","category":"医疗保健服务;动物医疗场所;宠物诊所","area":"百官","lng":120.876103,"lat":30.026124,"amap_id":"B0KR7HJTFO","order":10,"prev_distance_km":1.685,"cumulative_distance_km":12.776,"amap_marker_url":"https://uri.amap.com/marker?position=120.876103,30.026124&name=%E5%90%AF%E8%88%AA%E5%AE%A0%E7%89%A9%E5%8C%BB%E9%99%A2%C2%B724%E5%B0%8F%E6%97%B6%E6%80%A5%E7%97%87&src=vetmap&coordinate=gaode&callnative=1"},{"name":"爱欣宠物诊所","address":"百官江东路137号","phone":"18069533911","category":"医疗保健服务;动物医疗场所;宠物诊所","area":"百官","lng":120.872114,"lat":30.019862,"amap_id":"B0GDCS7UPI","order":11,"prev_distance_km":0.795,"cumulative_distance_km":13.571,"amap_marker_url":"https://uri.amap.com/marker?position=120.872114,30.019862&name=%E7%88%B1%E6%AC%A3%E5%AE%A0%E7%89%A9%E8%AF%8A%E6%89%80&src=vetmap&coordinate=gaode&callnative=1"},{"name":"绍兴德善宠物医院","address":"半山路115号","phone":"0575-82957877;15067530998","category":"医疗保健服务;动物医疗场所;宠物诊所","area":"百官","lng":120.875567,"lat":30.019676,"amap_id":"B0FFLKS0GG","order":12,"prev_distance_km":0.333,"cumulative_distance_km":13.904,"amap_marker_url":"https://uri.amap.com/marker?position=120.875567,30.019676&name=%E7%BB%8D%E5%85%B4%E5%BE%B7%E5%96%84%E5%AE%A0%E7%89%A9%E5%8C%BB%E9%99%A2&src=vetmap&coordinate=gaode&callnative=1"},{"name":"佳雯宠物医院·宠保定点(人民大道分院)","address":"百官街道人民中路232号","phone":"13575529264","category":"医疗保健服务;动物医疗场所;宠物诊所","area":"百官","lng":120.880924,"lat":30.017783,"amap_id":"B0FFKHVJZ1","order":13,"prev_distance_km":0.557,"cumulative_distance_km":14.461,"amap_marker_url":"https://uri.amap.com/marker?position=120.880924,30.017783&name=%E4%BD%B3%E9%9B%AF%E5%AE%A0%E7%89%A9%E5%8C%BB%E9%99%A2%C2%B7%E5%AE%A0%E4%BF%9D%E5%AE%9A%E7%82%B9%28%E4%BA%BA%E6%B0%91%E5%A4%A7%E9%81%93%E5%88%86%E9%99%A2%29&src=vetmap&coordinate=gaode&callnative=1"},{"name":"兽药疫苗饲料专家门诊","address":"凤山路与凤山支路交叉口西南80米","phone":"","category":"医疗保健服务;动物医疗场所;兽医站","area":"百官","lng":120.883465,"lat":30.017354,"amap_id":"B0L3MRNNO0","order":14,"prev_distance_km":0.249,"cumulative_distance_km":14.711,"amap_marker_url":"https://uri.amap.com/marker?position=120.883465,30.017354&name=%E5%85%BD%E8%8D%AF%E7%96%AB%E8%8B%97%E9%A5%B2%E6%96%99%E4%B8%93%E5%AE%B6%E9%97%A8%E8%AF%8A&src=vetmap&coordinate=gaode&callnative=1"},{"name":"上虞舜元宠物医院","address":"百官街道凤山路163号","phone":"13606572073","category":"医疗保健服务;动物医疗场所;宠物诊所","area":"百官","lng":120.88337,"lat":30.017268,"amap_id":"B0FFITQC75","order":15,"prev_distance_km":0.013,"cumulative_distance_km":14.724,"amap_marker_url":"https://uri.amap.com/marker?position=120.883370,30.017268&name=%E4%B8%8A%E8%99%9E%E8%88%9C%E5%85%83%E5%AE%A0%E7%89%A9%E5%8C%BB%E9%99%A2&src=vetmap&coordinate=gaode&callnative=1"},{"name":"上虞第一宠物医院","address":"百官街道凤山路163号","phone":"","category":"医疗保健服务;动物医疗场所;宠物诊所","area":"百官","lng":120.883336,"lat":30.017265,"amap_id":"B023F0P7KR","order":16,"prev_distance_km":0.003,"cumulative_distance_km":14.727,"amap_marker_url":"https://uri.amap.com/marker?position=120.883336,30.017265&name=%E4%B8%8A%E8%99%9E%E7%AC%AC%E4%B8%80%E5%AE%A0%E7%89%A9%E5%8C%BB%E9%99%A2&src=vetmap&coordinate=gaode&callnative=1"},{"name":"贝贝宠物医院(丁界寺路店)","address":"丁界寺路35号","phone":"0575-82027651;13819570427","category":"医疗保健服务;动物医疗场所;宠物诊所","area":"百官","lng":120.879547,"lat":30.009774,"amap_id":"B023F0QHW5","order":17,"prev_distance_km":0.909,"cumulative_distance_km":15.636,"amap_marker_url":"https://uri.amap.com/marker?position=120.879547,30.009774&name=%E8%B4%9D%E8%B4%9D%E5%AE%A0%E7%89%A9%E5%8C%BB%E9%99%A2%28%E4%B8%81%E7%95%8C%E5%AF%BA%E8%B7%AF%E5%BA%97%29&src=vetmap&coordinate=gaode&callnative=1"},{"name":"安贝宠物诊所","address":"丁界寺24幢","phone":"","category":"医疗保健服务;动物医疗场所;宠物诊所","area":"百官","lng":120.879804,"lat":30.009835,"amap_id":"B0JDV5O1JY","order":18,"prev_distance_km":0.026,"cumulative_distance_km":15.662,"amap_marker_url":"https://uri.amap.com/marker?position=120.879804,30.009835&name=%E5%AE%89%E8%B4%9D%E5%AE%A0%E7%89%A9%E8%AF%8A%E6%89%80&src=vetmap&coordinate=gaode&callnative=1"},{"name":"陈书宠物诊所","address":"丰惠镇后山创业路口1号","phone":"13957512067","category":"医疗保健服务;动物医疗场所;宠物诊所","area":"","lng":120.978547,"lat":29.956841,"amap_id":"B0FFKXAIOF","order":19,"prev_distance_km":11.188,"cumulative_distance_km":26.85,"amap_marker_url":"https://uri.amap.com/marker?position=120.978547,29.956841&name=%E9%99%88%E4%B9%A6%E5%AE%A0%E7%89%A9%E8%AF%8A%E6%89%80&src=vetmap&coordinate=gaode&callnative=1"}]}