{"summary":{"id":"d01399","province":"湖北省","city":"孝感市","district":"孝昌县","count":5,"route_count":1,"max_route_clinics":5,"total_distance_km":18.167,"coordinate_system":"GCJ-02 / Amap","generated_at":"2026-05-08 19:48:01"},"routes":[{"id":"r1","name":"第1段","count":5,"total_distance_km":18.167,"rows":[{"name":"牧森宠物医疗中心","address":"桃源路203号","phone":"13476555236","category":"医疗保健服务;动物医疗场所;宠物诊所","area":"","lng":113.999296,"lat":31.254866,"amap_id":"B0K06HY8PU","order":1,"prev_distance_km":0.0,"cumulative_distance_km":0.0,"amap_marker_url":"https://uri.amap.com/marker?position=113.999296,31.254866&name=%E7%89%A7%E6%A3%AE%E5%AE%A0%E7%89%A9%E5%8C%BB%E7%96%97%E4%B8%AD%E5%BF%83&src=vetmap&coordinate=gaode&callnative=1","route_id":"r1","route_name":"第1段"},{"name":"派特宠物医疗中心(发展路店)","address":"发展路3号","phone":"15793904009","category":"医疗保健服务;动物医疗场所;宠物诊所","area":"","lng":113.982065,"lat":31.247291,"amap_id":"B0JD75EV1Z","order":2,"prev_distance_km":1.842,"cumulative_distance_km":1.842,"amap_marker_url":"https://uri.amap.com/marker?position=113.982065,31.247291&name=%E6%B4%BE%E7%89%B9%E5%AE%A0%E7%89%A9%E5%8C%BB%E7%96%97%E4%B8%AD%E5%BF%83%28%E5%8F%91%E5%B1%95%E8%B7%AF%E5%BA%97%29&src=vetmap&coordinate=gaode&callnative=1","route_id":"r1","route_name":"第1段"},{"name":"乡村兽医服务点","address":"八一路与礼节路交叉口东南20米","phone":"","category":"医疗保健服务;动物医疗场所;兽医站","area":"","lng":113.97614,"lat":31.252546,"amap_id":"B0J065JJCM","order":3,"prev_distance_km":0.812,"cumulative_distance_km":2.653,"amap_marker_url":"https://uri.amap.com/marker?position=113.976140,31.252546&name=%E4%B9%A1%E6%9D%91%E5%85%BD%E5%8C%BB%E6%9C%8D%E5%8A%A1%E7%82%B9&src=vetmap&coordinate=gaode&callnative=1","route_id":"r1","route_name":"第1段"},{"name":"宠物诊所","address":"发展路与金利街交叉口北40米","phone":"13197372811","category":"医疗保健服务;动物医疗场所;宠物诊所","area":"","lng":113.982756,"lat":31.257738,"amap_id":"B0FFIZ5G76","order":4,"prev_distance_km":0.854,"cumulative_distance_km":3.507,"amap_marker_url":"https://uri.amap.com/marker?position=113.982756,31.257738&name=%E5%AE%A0%E7%89%A9%E8%AF%8A%E6%89%80&src=vetmap&coordinate=gaode&callnative=1","route_id":"r1","route_name":"第1段"},{"name":"王明东乡村兽医诊疗点","address":"王正街与商贸街交叉口南20米","phone":"","category":"医疗保健服务;动物医疗场所;兽医站","area":"","lng":113.973063,"lat":31.389313,"amap_id":"B0IUP93HDW","order":5,"prev_distance_km":14.659,"cumulative_distance_km":18.167,"amap_marker_url":"https://uri.amap.com/marker?position=113.973063,31.389313&name=%E7%8E%8B%E6%98%8E%E4%B8%9C%E4%B9%A1%E6%9D%91%E5%85%BD%E5%8C%BB%E8%AF%8A%E7%96%97%E7%82%B9&src=vetmap&coordinate=gaode&callnative=1","route_id":"r1","route_name":"第1段"}]}],"rows":[{"name":"牧森宠物医疗中心","address":"桃源路203号","phone":"13476555236","category":"医疗保健服务;动物医疗场所;宠物诊所","area":"","lng":113.999296,"lat":31.254866,"amap_id":"B0K06HY8PU","order":1,"prev_distance_km":0.0,"cumulative_distance_km":0.0,"amap_marker_url":"https://uri.amap.com/marker?position=113.999296,31.254866&name=%E7%89%A7%E6%A3%AE%E5%AE%A0%E7%89%A9%E5%8C%BB%E7%96%97%E4%B8%AD%E5%BF%83&src=vetmap&coordinate=gaode&callnative=1","route_id":"r1","route_name":"第1段","global_order":1},{"name":"派特宠物医疗中心(发展路店)","address":"发展路3号","phone":"15793904009","category":"医疗保健服务;动物医疗场所;宠物诊所","area":"","lng":113.982065,"lat":31.247291,"amap_id":"B0JD75EV1Z","order":2,"prev_distance_km":1.842,"cumulative_distance_km":1.842,"amap_marker_url":"https://uri.amap.com/marker?position=113.982065,31.247291&name=%E6%B4%BE%E7%89%B9%E5%AE%A0%E7%89%A9%E5%8C%BB%E7%96%97%E4%B8%AD%E5%BF%83%28%E5%8F%91%E5%B1%95%E8%B7%AF%E5%BA%97%29&src=vetmap&coordinate=gaode&callnative=1","route_id":"r1","route_name":"第1段","global_order":2},{"name":"乡村兽医服务点","address":"八一路与礼节路交叉口东南20米","phone":"","category":"医疗保健服务;动物医疗场所;兽医站","area":"","lng":113.97614,"lat":31.252546,"amap_id":"B0J065JJCM","order":3,"prev_distance_km":0.812,"cumulative_distance_km":2.653,"amap_marker_url":"https://uri.amap.com/marker?position=113.976140,31.252546&name=%E4%B9%A1%E6%9D%91%E5%85%BD%E5%8C%BB%E6%9C%8D%E5%8A%A1%E7%82%B9&src=vetmap&coordinate=gaode&callnative=1","route_id":"r1","route_name":"第1段","global_order":3},{"name":"宠物诊所","address":"发展路与金利街交叉口北40米","phone":"13197372811","category":"医疗保健服务;动物医疗场所;宠物诊所","area":"","lng":113.982756,"lat":31.257738,"amap_id":"B0FFIZ5G76","order":4,"prev_distance_km":0.854,"cumulative_distance_km":3.507,"amap_marker_url":"https://uri.amap.com/marker?position=113.982756,31.257738&name=%E5%AE%A0%E7%89%A9%E8%AF%8A%E6%89%80&src=vetmap&coordinate=gaode&callnative=1","route_id":"r1","route_name":"第1段","global_order":4},{"name":"王明东乡村兽医诊疗点","address":"王正街与商贸街交叉口南20米","phone":"","category":"医疗保健服务;动物医疗场所;兽医站","area":"","lng":113.973063,"lat":31.389313,"amap_id":"B0IUP93HDW","order":5,"prev_distance_km":14.659,"cumulative_distance_km":18.167,"amap_marker_url":"https://uri.amap.com/marker?position=113.973063,31.389313&name=%E7%8E%8B%E6%98%8E%E4%B8%9C%E4%B9%A1%E6%9D%91%E5%85%BD%E5%8C%BB%E8%AF%8A%E7%96%97%E7%82%B9&src=vetmap&coordinate=gaode&callnative=1","route_id":"r1","route_name":"第1段","global_order":5}]}