{"summary":{"id":"d01386","province":"湖北省","city":"十堰市","district":"茅箭区","count":10,"total_distance_km":19.328,"coordinate_system":"GCJ-02 / Amap","generated_at":"2026-05-07 19:58:04"},"rows":[{"name":"闫天恩乡村兽医诊疗点","address":"嘉和巷与白浪东路交叉口东南80米","phone":"13197268413","category":"医疗保健服务;动物医疗场所;兽医站","area":"","lng":110.900812,"lat":32.570746,"amap_id":"B0G1S9EDHS","order":1,"prev_distance_km":0.0,"cumulative_distance_km":0.0,"amap_marker_url":"https://uri.amap.com/marker?position=110.900812,32.570746&name=%E9%97%AB%E5%A4%A9%E6%81%A9%E4%B9%A1%E6%9D%91%E5%85%BD%E5%8C%BB%E8%AF%8A%E7%96%97%E7%82%B9&src=vetmap&coordinate=gaode&callnative=1"},{"name":"十堰众和动物诊疗中心","address":"文昌路与林荫大道交叉口东北120米","phone":"","category":"医疗保健服务;动物医疗场所;宠物诊所","area":"","lng":110.787951,"lat":32.609283,"amap_id":"B0KADXXW2J","order":2,"prev_distance_km":11.409,"cumulative_distance_km":11.409,"amap_marker_url":"https://uri.amap.com/marker?position=110.787951,32.609283&name=%E5%8D%81%E5%A0%B0%E4%BC%97%E5%92%8C%E5%8A%A8%E7%89%A9%E8%AF%8A%E7%96%97%E4%B8%AD%E5%BF%83&src=vetmap&coordinate=gaode&callnative=1"},{"name":"爱维特联合动物医院(二堰总院)","address":"二堰街办北京南路27A号凤凰金街1层1-31号","phone":"0719-8415120","category":"医疗保健服务;动物医疗场所;宠物诊所","area":"","lng":110.787902,"lat":32.609427,"amap_id":"B0I0YCV1HS","order":3,"prev_distance_km":0.017,"cumulative_distance_km":11.426,"amap_marker_url":"https://uri.amap.com/marker?position=110.787902,32.609427&name=%E7%88%B1%E7%BB%B4%E7%89%B9%E8%81%94%E5%90%88%E5%8A%A8%E7%89%A9%E5%8C%BB%E9%99%A2%28%E4%BA%8C%E5%A0%B0%E6%80%BB%E9%99%A2%29&src=vetmap&coordinate=gaode&callnative=1"},{"name":"十堰联合动物医院(三堰总院)","address":"上海路79号大美盛城梧桐花园4号1-15","phone":"0719-8788120","category":"医疗保健服务;动物医疗场所;宠物诊所","area":"三堰","lng":110.79131,"lat":32.618296,"amap_id":"B0FFMGKTB4","order":4,"prev_distance_km":1.037,"cumulative_distance_km":12.462,"amap_marker_url":"https://uri.amap.com/marker?position=110.791310,32.618296&name=%E5%8D%81%E5%A0%B0%E8%81%94%E5%90%88%E5%8A%A8%E7%89%A9%E5%8C%BB%E9%99%A2%28%E4%B8%89%E5%A0%B0%E6%80%BB%E9%99%A2%29&src=vetmap&coordinate=gaode&callnative=1"},{"name":"萌宠动物医院","address":"上海路恒大城五号楼商五","phone":"0719-8022892;18772848116","category":"医疗保健服务;动物医疗场所;宠物诊所","area":"三堰","lng":110.789443,"lat":32.625527,"amap_id":"B0HGH79EP2","order":5,"prev_distance_km":0.823,"cumulative_distance_km":13.285,"amap_marker_url":"https://uri.amap.com/marker?position=110.789443,32.625527&name=%E8%90%8C%E5%AE%A0%E5%8A%A8%E7%89%A9%E5%8C%BB%E9%99%A2&src=vetmap&coordinate=gaode&callnative=1"},{"name":"名禾小动物医院","address":"浙江路2号和昌2期C2-S1001","phone":"0719-8686821","category":"医疗保健服务;动物医疗场所;宠物诊所","area":"","lng":110.805785,"lat":32.633891,"amap_id":"B0FFK47IRV","order":6,"prev_distance_km":1.791,"cumulative_distance_km":15.076,"amap_marker_url":"https://uri.amap.com/marker?position=110.805785,32.633891&name=%E5%90%8D%E7%A6%BE%E5%B0%8F%E5%8A%A8%E7%89%A9%E5%8C%BB%E9%99%A2&src=vetmap&coordinate=gaode&callnative=1"},{"name":"十堰联合动物医院(五堰总院)","address":"柳林路香港旺角大厦底层","phone":"0719-8886120","category":"医疗保健服务;动物医疗场所;宠物诊所","area":"人民北路","lng":110.785536,"lat":32.639799,"amap_id":"B0JKFU1M6J","order":7,"prev_distance_km":2.007,"cumulative_distance_km":17.082,"amap_marker_url":"https://uri.amap.com/marker?position=110.785536,32.639799&name=%E5%8D%81%E5%A0%B0%E8%81%94%E5%90%88%E5%8A%A8%E7%89%A9%E5%8C%BB%E9%99%A2%28%E4%BA%94%E5%A0%B0%E6%80%BB%E9%99%A2%29&src=vetmap&coordinate=gaode&callnative=1"},{"name":"肖荣宠物医院","address":"五堰河北路花鸟市场教育城院内","phone":"0719-8664664;18671904433","category":"医疗保健服务;动物医疗场所;宠物诊所","area":"东岳路","lng":110.782635,"lat":32.641634,"amap_id":"B0I0GS9A5U","order":8,"prev_distance_km":0.34,"cumulative_distance_km":17.422,"amap_marker_url":"https://uri.amap.com/marker?position=110.782635,32.641634&name=%E8%82%96%E8%8D%A3%E5%AE%A0%E7%89%A9%E5%8C%BB%E9%99%A2&src=vetmap&coordinate=gaode&callnative=1"},{"name":"名望动物医院","address":"顽家网络会所旁","phone":"0719-8680120;15997807980","category":"医疗保健服务;动物医疗场所;宠物诊所","area":"","lng":110.791182,"lat":32.649518,"amap_id":"B0FFL6PBEW","order":9,"prev_distance_km":1.187,"cumulative_distance_km":18.609,"amap_marker_url":"https://uri.amap.com/marker?position=110.791182,32.649518&name=%E5%90%8D%E6%9C%9B%E5%8A%A8%E7%89%A9%E5%8C%BB%E9%99%A2&src=vetmap&coordinate=gaode&callnative=1"},{"name":"十堰联合动物医院(六堰总院)","address":"公园路6号1幢1-4","phone":"0719-8878120","category":"医疗保健服务;动物医疗场所;宠物诊所","area":"","lng":110.784494,"lat":32.652694,"amap_id":"B0G1TCWMWQ","order":10,"prev_distance_km":0.719,"cumulative_distance_km":19.328,"amap_marker_url":"https://uri.amap.com/marker?position=110.784494,32.652694&name=%E5%8D%81%E5%A0%B0%E8%81%94%E5%90%88%E5%8A%A8%E7%89%A9%E5%8C%BB%E9%99%A2%28%E5%85%AD%E5%A0%B0%E6%80%BB%E9%99%A2%29&src=vetmap&coordinate=gaode&callnative=1"}]}