{"summary":{"id":"d01384","province":"湖北省","city":"十堰市","district":"竹山县","count":5,"total_distance_km":31.025,"coordinate_system":"GCJ-02 / Amap","generated_at":"2026-05-07 20:23:51"},"rows":[{"name":"擂鼓动物检疫工作站","address":"师家湾路与346国道交叉口西北280米","phone":"","category":"医疗保健服务;动物医疗场所;兽医站","area":"","lng":109.940202,"lat":32.329441,"amap_id":"B0LBGSU0Z7","order":1,"prev_distance_km":0.0,"cumulative_distance_km":0.0,"amap_marker_url":"https://uri.amap.com/marker?position=109.940202,32.329441&name=%E6%93%82%E9%BC%93%E5%8A%A8%E7%89%A9%E6%A3%80%E7%96%AB%E5%B7%A5%E4%BD%9C%E7%AB%99&src=vetmap&coordinate=gaode&callnative=1"},{"name":"竹山县宝丰镇乡村兽医诊疗点","address":"施洋路与园林路交叉口西北20米","phone":"","category":"医疗保健服务;动物医疗场所;动物医疗场所","area":"","lng":110.0045,"lat":32.300558,"amap_id":"B0J11H7ZG7","order":2,"prev_distance_km":6.843,"cumulative_distance_km":6.843,"amap_marker_url":"https://uri.amap.com/marker?position=110.004500,32.300558&name=%E7%AB%B9%E5%B1%B1%E5%8E%BF%E5%AE%9D%E4%B8%B0%E9%95%87%E4%B9%A1%E6%9D%91%E5%85%BD%E5%8C%BB%E8%AF%8A%E7%96%97%E7%82%B9&src=vetmap&coordinate=gaode&callnative=1"},{"name":"城关镇乡村兽医诊疗点","address":"七里边路与体育路交叉口北120米","phone":"","category":"医疗保健服务;动物医疗场所;兽医站","area":"","lng":110.226078,"lat":32.234543,"amap_id":"B0G1SOELWA","order":3,"prev_distance_km":22.089,"cumulative_distance_km":28.932,"amap_marker_url":"https://uri.amap.com/marker?position=110.226078,32.234543&name=%E5%9F%8E%E5%85%B3%E9%95%87%E4%B9%A1%E6%9D%91%E5%85%BD%E5%8C%BB%E8%AF%8A%E7%96%97%E7%82%B9&src=vetmap&coordinate=gaode&callnative=1"},{"name":"竹山县畜牧兽医服务中心","address":"人民路与永乐路交叉口南40米","phone":"","category":"医疗保健服务;动物医疗场所;宠物诊所","area":"","lng":110.227949,"lat":32.225322,"amap_id":"B0HRVR25C9","order":4,"prev_distance_km":1.04,"cumulative_distance_km":29.972,"amap_marker_url":"https://uri.amap.com/marker?position=110.227949,32.225322&name=%E7%AB%B9%E5%B1%B1%E5%8E%BF%E7%95%9C%E7%89%A7%E5%85%BD%E5%8C%BB%E6%9C%8D%E5%8A%A1%E4%B8%AD%E5%BF%83&src=vetmap&coordinate=gaode&callnative=1"},{"name":"联合动物医院","address":"竹山宾馆下坡15米","phone":"18772247220","category":"医疗保健服务;动物医疗场所;宠物诊所","area":"","lng":110.234993,"lat":32.21796,"amap_id":"B0IDDCH3AW","order":5,"prev_distance_km":1.053,"cumulative_distance_km":31.025,"amap_marker_url":"https://uri.amap.com/marker?position=110.234993,32.217960&name=%E8%81%94%E5%90%88%E5%8A%A8%E7%89%A9%E5%8C%BB%E9%99%A2&src=vetmap&coordinate=gaode&callnative=1"}]}