{"summary":{"id":"d01366","province":"浙江省","city":"衢州市","district":"开化县","count":6,"route_count":1,"max_route_clinics":6,"total_distance_km":15.157,"coordinate_system":"GCJ-02 / Amap","generated_at":"2026-05-08 19:47:54"},"routes":[{"id":"r1","name":"第1段","count":6,"total_distance_km":15.157,"rows":[{"name":"兽医站","address":"解放路147号","phone":"15924085521","category":"医疗保健服务;动物医疗场所;兽医站","area":"","lng":118.353679,"lat":29.013717,"amap_id":"B0ID7CIICP","order":1,"prev_distance_km":0.0,"cumulative_distance_km":0.0,"amap_marker_url":"https://uri.amap.com/marker?position=118.353679,29.013717&name=%E5%85%BD%E5%8C%BB%E7%AB%99&src=vetmap&coordinate=gaode&callnative=1","route_id":"r1","route_name":"第1段"},{"name":"开化县华埠镇动物诊疗所","address":"华埠镇解放路147号","phone":"","category":"医疗保健服务;动物医疗场所;兽医站","area":"","lng":118.353584,"lat":29.013783,"amap_id":"B0FFGQ6CWX","order":2,"prev_distance_km":0.012,"cumulative_distance_km":0.012,"amap_marker_url":"https://uri.amap.com/marker?position=118.353584,29.013783&name=%E5%BC%80%E5%8C%96%E5%8E%BF%E5%8D%8E%E5%9F%A0%E9%95%87%E5%8A%A8%E7%89%A9%E8%AF%8A%E7%96%97%E6%89%80&src=vetmap&coordinate=gaode&callnative=1","route_id":"r1","route_name":"第1段"},{"name":"开化县动物检疫服务中心","address":"城白线与马金路交叉口东20米","phone":"","category":"医疗保健服务;动物医疗场所;动物医疗场所","area":"","lng":118.384553,"lat":29.07399,"amap_id":"B0FFLD70KA","order":3,"prev_distance_km":7.34,"cumulative_distance_km":7.352,"amap_marker_url":"https://uri.amap.com/marker?position=118.384553,29.073990&name=%E5%BC%80%E5%8C%96%E5%8E%BF%E5%8A%A8%E7%89%A9%E6%A3%80%E7%96%AB%E6%9C%8D%E5%8A%A1%E4%B8%AD%E5%BF%83&src=vetmap&coordinate=gaode&callnative=1","route_id":"r1","route_name":"第1段"},{"name":"萌宠宠物诊疗中心","address":"开元路36号","phone":"15700018877","category":"医疗保健服务;动物医疗场所;宠物诊所","area":"","lng":118.406742,"lat":29.120848,"amap_id":"B0JABZTOBZ","order":4,"prev_distance_km":5.639,"cumulative_distance_km":12.991,"amap_marker_url":"https://uri.amap.com/marker?position=118.406742,29.120848&name=%E8%90%8C%E5%AE%A0%E5%AE%A0%E7%89%A9%E8%AF%8A%E7%96%97%E4%B8%AD%E5%BF%83&src=vetmap&coordinate=gaode&callnative=1","route_id":"r1","route_name":"第1段"},{"name":"小琦动物医院","address":"城关镇芹北路97-18号金泰家园店铺","phone":"15700018877","category":"医疗保健服务;动物医疗场所;宠物诊所","area":"","lng":118.40213,"lat":29.13778,"amap_id":"B0I6UAD684","order":5,"prev_distance_km":1.935,"cumulative_distance_km":14.926,"amap_marker_url":"https://uri.amap.com/marker?position=118.402130,29.137780&name=%E5%B0%8F%E7%90%A6%E5%8A%A8%E7%89%A9%E5%8C%BB%E9%99%A2&src=vetmap&coordinate=gaode&callnative=1","route_id":"r1","route_name":"第1段"},{"name":"康贝宠物诊所(开化县店)","address":"芹北路香溢人家8号楼92-4","phone":"18767064669","category":"医疗保健服务;动物医疗场所;宠物诊所","area":"","lng":118.40324,"lat":29.139616,"amap_id":"B0FFIXA2TC","order":6,"prev_distance_km":0.231,"cumulative_distance_km":15.157,"amap_marker_url":"https://uri.amap.com/marker?position=118.403240,29.139616&name=%E5%BA%B7%E8%B4%9D%E5%AE%A0%E7%89%A9%E8%AF%8A%E6%89%80%28%E5%BC%80%E5%8C%96%E5%8E%BF%E5%BA%97%29&src=vetmap&coordinate=gaode&callnative=1","route_id":"r1","route_name":"第1段"}]}],"rows":[{"name":"兽医站","address":"解放路147号","phone":"15924085521","category":"医疗保健服务;动物医疗场所;兽医站","area":"","lng":118.353679,"lat":29.013717,"amap_id":"B0ID7CIICP","order":1,"prev_distance_km":0.0,"cumulative_distance_km":0.0,"amap_marker_url":"https://uri.amap.com/marker?position=118.353679,29.013717&name=%E5%85%BD%E5%8C%BB%E7%AB%99&src=vetmap&coordinate=gaode&callnative=1","route_id":"r1","route_name":"第1段","global_order":1},{"name":"开化县华埠镇动物诊疗所","address":"华埠镇解放路147号","phone":"","category":"医疗保健服务;动物医疗场所;兽医站","area":"","lng":118.353584,"lat":29.013783,"amap_id":"B0FFGQ6CWX","order":2,"prev_distance_km":0.012,"cumulative_distance_km":0.012,"amap_marker_url":"https://uri.amap.com/marker?position=118.353584,29.013783&name=%E5%BC%80%E5%8C%96%E5%8E%BF%E5%8D%8E%E5%9F%A0%E9%95%87%E5%8A%A8%E7%89%A9%E8%AF%8A%E7%96%97%E6%89%80&src=vetmap&coordinate=gaode&callnative=1","route_id":"r1","route_name":"第1段","global_order":2},{"name":"开化县动物检疫服务中心","address":"城白线与马金路交叉口东20米","phone":"","category":"医疗保健服务;动物医疗场所;动物医疗场所","area":"","lng":118.384553,"lat":29.07399,"amap_id":"B0FFLD70KA","order":3,"prev_distance_km":7.34,"cumulative_distance_km":7.352,"amap_marker_url":"https://uri.amap.com/marker?position=118.384553,29.073990&name=%E5%BC%80%E5%8C%96%E5%8E%BF%E5%8A%A8%E7%89%A9%E6%A3%80%E7%96%AB%E6%9C%8D%E5%8A%A1%E4%B8%AD%E5%BF%83&src=vetmap&coordinate=gaode&callnative=1","route_id":"r1","route_name":"第1段","global_order":3},{"name":"萌宠宠物诊疗中心","address":"开元路36号","phone":"15700018877","category":"医疗保健服务;动物医疗场所;宠物诊所","area":"","lng":118.406742,"lat":29.120848,"amap_id":"B0JABZTOBZ","order":4,"prev_distance_km":5.639,"cumulative_distance_km":12.991,"amap_marker_url":"https://uri.amap.com/marker?position=118.406742,29.120848&name=%E8%90%8C%E5%AE%A0%E5%AE%A0%E7%89%A9%E8%AF%8A%E7%96%97%E4%B8%AD%E5%BF%83&src=vetmap&coordinate=gaode&callnative=1","route_id":"r1","route_name":"第1段","global_order":4},{"name":"小琦动物医院","address":"城关镇芹北路97-18号金泰家园店铺","phone":"15700018877","category":"医疗保健服务;动物医疗场所;宠物诊所","area":"","lng":118.40213,"lat":29.13778,"amap_id":"B0I6UAD684","order":5,"prev_distance_km":1.935,"cumulative_distance_km":14.926,"amap_marker_url":"https://uri.amap.com/marker?position=118.402130,29.137780&name=%E5%B0%8F%E7%90%A6%E5%8A%A8%E7%89%A9%E5%8C%BB%E9%99%A2&src=vetmap&coordinate=gaode&callnative=1","route_id":"r1","route_name":"第1段","global_order":5},{"name":"康贝宠物诊所(开化县店)","address":"芹北路香溢人家8号楼92-4","phone":"18767064669","category":"医疗保健服务;动物医疗场所;宠物诊所","area":"","lng":118.40324,"lat":29.139616,"amap_id":"B0FFIXA2TC","order":6,"prev_distance_km":0.231,"cumulative_distance_km":15.157,"amap_marker_url":"https://uri.amap.com/marker?position=118.403240,29.139616&name=%E5%BA%B7%E8%B4%9D%E5%AE%A0%E7%89%A9%E8%AF%8A%E6%89%80%28%E5%BC%80%E5%8C%96%E5%8E%BF%E5%BA%97%29&src=vetmap&coordinate=gaode&callnative=1","route_id":"r1","route_name":"第1段","global_order":6}]}