{"summary":{"id":"d01391","province":"湖北省","city":"咸宁市","district":"崇阳县","count":8,"total_distance_km":11.18,"coordinate_system":"GCJ-02 / Amap","generated_at":"2026-05-07 20:23:51"},"rows":[{"name":"安择动物医院(崇阳分院)","address":"天城镇崇阳大道15巷","phone":"19318032750","category":"医疗保健服务;动物医疗场所;宠物诊所","area":"","lng":114.042032,"lat":29.547414,"amap_id":"B0K1OSYKR9","order":1,"prev_distance_km":0.0,"cumulative_distance_km":0.0,"amap_marker_url":"https://uri.amap.com/marker?position=114.042032,29.547414&name=%E5%AE%89%E6%8B%A9%E5%8A%A8%E7%89%A9%E5%8C%BB%E9%99%A2%28%E5%B4%87%E9%98%B3%E5%88%86%E9%99%A2%29&src=vetmap&coordinate=gaode&callnative=1"},{"name":"辰鑫宠物医院","address":"仪表路加油站旁边天城镇政府斜对面113号","phone":"13235568900","category":"医疗保健服务;动物医疗场所;宠物诊所","area":"","lng":114.046651,"lat":29.548904,"amap_id":"B0K1B7WMYF","order":2,"prev_distance_km":0.477,"cumulative_distance_km":0.477,"amap_marker_url":"https://uri.amap.com/marker?position=114.046651,29.548904&name=%E8%BE%B0%E9%91%AB%E5%AE%A0%E7%89%A9%E5%8C%BB%E9%99%A2&src=vetmap&coordinate=gaode&callnative=1"},{"name":"宠艾(中山步行街店)","address":"中山步行街161号","phone":"18795619320;19086575953;19813825453","category":"医疗保健服务;动物医疗场所;动物医疗场所","area":"","lng":114.050525,"lat":29.543875,"amap_id":"B0LUPA1Q2D","order":3,"prev_distance_km":0.673,"cumulative_distance_km":1.15,"amap_marker_url":"https://uri.amap.com/marker?position=114.050525,29.543875&name=%E5%AE%A0%E8%89%BE%28%E4%B8%AD%E5%B1%B1%E6%AD%A5%E8%A1%8C%E8%A1%97%E5%BA%97%29&src=vetmap&coordinate=gaode&callnative=1"},{"name":"沈程兽医诊所","address":"中津路与陈河水路交叉口北40米","phone":"","category":"医疗保健服务;动物医疗场所;兽医站","area":"","lng":114.05192,"lat":29.533936,"amap_id":"B0FFK73RNF","order":4,"prev_distance_km":1.113,"cumulative_distance_km":2.263,"amap_marker_url":"https://uri.amap.com/marker?position=114.051920,29.533936&name=%E6%B2%88%E7%A8%8B%E5%85%BD%E5%8C%BB%E8%AF%8A%E6%89%80&src=vetmap&coordinate=gaode&callnative=1"},{"name":"沈氏兽医品牌兽药","address":"中津路与宏发路交叉口西北60米","phone":"13094192985;13476916422","category":"医疗保健服务;动物医疗场所;兽医站","area":"","lng":114.052616,"lat":29.529018,"amap_id":"B0FFK7F68R","order":5,"prev_distance_km":0.551,"cumulative_distance_km":2.814,"amap_marker_url":"https://uri.amap.com/marker?position=114.052616,29.529018&name=%E6%B2%88%E6%B0%8F%E5%85%BD%E5%8C%BB%E5%93%81%E7%89%8C%E5%85%BD%E8%8D%AF&src=vetmap&coordinate=gaode&callnative=1"},{"name":"崇阳县双通宠物医院","address":"天城镇四小物流街(至诚名车正对面)","phone":"","category":"医疗保健服务;动物医疗场所;兽医站","area":"","lng":114.05218,"lat":29.52857,"amap_id":"B0FFHVMN42","order":6,"prev_distance_km":0.065,"cumulative_distance_km":2.879,"amap_marker_url":"https://uri.amap.com/marker?position=114.052180,29.528570&name=%E5%B4%87%E9%98%B3%E5%8E%BF%E5%8F%8C%E9%80%9A%E5%AE%A0%E7%89%A9%E5%8C%BB%E9%99%A2&src=vetmap&coordinate=gaode&callnative=1"},{"name":"珍义兽药","address":"精武大道与金城大道交叉口东南200米","phone":"","category":"购物服务;购物相关场所;购物相关场所|医疗保健服务;动物医疗场所;动物医疗场所","area":"","lng":114.059333,"lat":29.525926,"amap_id":"B0KRKD3EE2","order":7,"prev_distance_km":0.752,"cumulative_distance_km":3.631,"amap_marker_url":"https://uri.amap.com/marker?position=114.059333,29.525926&name=%E7%8F%8D%E4%B9%89%E5%85%BD%E8%8D%AF&src=vetmap&coordinate=gaode&callnative=1"},{"name":"正得利兽医诊所","address":"下新街与古桥路交叉口南40米","phone":"","category":"医疗保健服务;动物医疗场所;宠物诊所","area":"","lng":114.136853,"lat":29.533642,"amap_id":"B0JRRNIF8Q","order":8,"prev_distance_km":7.549,"cumulative_distance_km":11.18,"amap_marker_url":"https://uri.amap.com/marker?position=114.136853,29.533642&name=%E6%AD%A3%E5%BE%97%E5%88%A9%E5%85%BD%E5%8C%BB%E8%AF%8A%E6%89%80&src=vetmap&coordinate=gaode&callnative=1"}]}