{"summary":{"id":"d01334","province":"浙江省","city":"杭州市","district":"滨江区","count":45,"total_distance_km":29.856,"coordinate_system":"GCJ-02 / Amap","generated_at":"2026-05-07 19:57:56"},"rows":[{"name":"可来宠物庄园","address":"陈家村60号","phone":"","category":"医疗保健服务;动物医疗场所;动物医疗场所","area":"","lng":120.193368,"lat":30.156693,"amap_id":"B0LGFUS42S","order":1,"prev_distance_km":0.0,"cumulative_distance_km":0.0,"amap_marker_url":"https://uri.amap.com/marker?position=120.193368,30.156693&name=%E5%8F%AF%E6%9D%A5%E5%AE%A0%E7%89%A9%E5%BA%84%E5%9B%AD&src=vetmap&coordinate=gaode&callnative=1"},{"name":"如荔宠物","address":"滨文路长虹苑27号商铺","phone":"15372977343","category":"医疗保健服务;动物医疗场所;动物医疗场所","area":"","lng":120.177075,"lat":30.173825,"amap_id":"B0LK5CTLUN","order":2,"prev_distance_km":2.466,"cumulative_distance_km":2.466,"amap_marker_url":"https://uri.amap.com/marker?position=120.177075,30.173825&name=%E5%A6%82%E8%8D%94%E5%AE%A0%E7%89%A9&src=vetmap&coordinate=gaode&callnative=1"},{"name":"仟浩动物医院(滨江旗舰店)","address":"浦沿街道巧圆公寓商铺","phone":"0571-88026601;13386508692","category":"医疗保健服务;动物医疗场所;宠物诊所","area":"浦沿","lng":120.148129,"lat":30.167867,"amap_id":"B0H6CSZKXB","order":3,"prev_distance_km":2.86,"cumulative_distance_km":5.327,"amap_marker_url":"https://uri.amap.com/marker?position=120.148129,30.167867&name=%E4%BB%9F%E6%B5%A9%E5%8A%A8%E7%89%A9%E5%8C%BB%E9%99%A2%28%E6%BB%A8%E6%B1%9F%E6%97%97%E8%88%B0%E5%BA%97%29&src=vetmap&coordinate=gaode&callnative=1"},{"name":"关心宠物医院24小时·急重症·疑难骨科·肿瘤专科","address":"绿城巧园2-3-4号(杨家墩地铁站B口步行180米)","phone":"0571-87753052;15355022336","category":"医疗保健服务;动物医疗场所;宠物诊所","area":"浦沿","lng":120.14792,"lat":30.167634,"amap_id":"B0FFGK7YT8","order":4,"prev_distance_km":0.033,"cumulative_distance_km":5.359,"amap_marker_url":"https://uri.amap.com/marker?position=120.147920,30.167634&name=%E5%85%B3%E5%BF%83%E5%AE%A0%E7%89%A9%E5%8C%BB%E9%99%A224%E5%B0%8F%E6%97%B6%C2%B7%E6%80%A5%E9%87%8D%E7%97%87%C2%B7%E7%96%91%E9%9A%BE%E9%AA%A8%E7%A7%91%C2%B7%E8%82%BF%E7%98%A4%E4%B8%93%E7%A7%91&src=vetmap&coordinate=gaode&callnative=1"},{"name":"宠之爱动物医院(绿城巧园店)","address":"坚塔街与和畅路交叉口北60米","phone":"","category":"医疗保健服务;动物医疗场所;宠物诊所","area":"浦沿","lng":120.147725,"lat":30.167575,"amap_id":"B0L21HT51J","order":5,"prev_distance_km":0.02,"cumulative_distance_km":5.379,"amap_marker_url":"https://uri.amap.com/marker?position=120.147725,30.167575&name=%E5%AE%A0%E4%B9%8B%E7%88%B1%E5%8A%A8%E7%89%A9%E5%8C%BB%E9%99%A2%28%E7%BB%BF%E5%9F%8E%E5%B7%A7%E5%9B%AD%E5%BA%97%29&src=vetmap&coordinate=gaode&callnative=1"},{"name":"福贝宠物医院24小时夜诊","address":"浦沿路703号(杨家墩地铁站B口步行300米)","phone":"17328878786","category":"医疗保健服务;动物医疗场所;宠物诊所","area":"浦沿","lng":120.147457,"lat":30.16997,"amap_id":"B0H6Y65NB7","order":6,"prev_distance_km":0.268,"cumulative_distance_km":5.647,"amap_marker_url":"https://uri.amap.com/marker?position=120.147457,30.169970&name=%E7%A6%8F%E8%B4%9D%E5%AE%A0%E7%89%A9%E5%8C%BB%E9%99%A224%E5%B0%8F%E6%97%B6%E5%A4%9C%E8%AF%8A&src=vetmap&coordinate=gaode&callnative=1"},{"name":"杭州莱浙佳动物医院","address":"滨文路655号(江南文苑7号楼14号底商)","phone":"19357167626","category":"医疗保健服务;动物医疗场所;宠物诊所","area":"浦沿","lng":120.143087,"lat":30.170264,"amap_id":"B0I1FRU9H5","order":7,"prev_distance_km":0.421,"cumulative_distance_km":6.068,"amap_marker_url":"https://uri.amap.com/marker?position=120.143087,30.170264&name=%E6%9D%AD%E5%B7%9E%E8%8E%B1%E6%B5%99%E4%BD%B3%E5%8A%A8%E7%89%A9%E5%8C%BB%E9%99%A2&src=vetmap&coordinate=gaode&callnative=1"},{"name":"嘉缘宠物诊所","address":"浦沿街道西浦社区滨文路665号","phone":"0571-87928212;13335888565","category":"医疗保健服务;动物医疗场所;宠物诊所","area":"浦沿","lng":120.142617,"lat":30.170113,"amap_id":"B0FFFWGYIQ","order":8,"prev_distance_km":0.048,"cumulative_distance_km":6.116,"amap_marker_url":"https://uri.amap.com/marker?position=120.142617,30.170113&name=%E5%98%89%E7%BC%98%E5%AE%A0%E7%89%A9%E8%AF%8A%E6%89%80&src=vetmap&coordinate=gaode&callnative=1"},{"name":"艾娃之树毛佬佬宠物医院犬猫全科CT影像中心","address":"龙禧硅谷广场内","phone":"19906611137","category":"医疗保健服务;动物医疗场所;宠物诊所","area":"江南","lng":120.149675,"lat":30.179325,"amap_id":"B0KRY5RQTO","order":9,"prev_distance_km":1.229,"cumulative_distance_km":7.345,"amap_marker_url":"https://uri.amap.com/marker?position=120.149675,30.179325&name=%E8%89%BE%E5%A8%83%E4%B9%8B%E6%A0%91%E6%AF%9B%E4%BD%AC%E4%BD%AC%E5%AE%A0%E7%89%A9%E5%8C%BB%E9%99%A2%E7%8A%AC%E7%8C%AB%E5%85%A8%E7%A7%91CT%E5%BD%B1%E5%83%8F%E4%B8%AD%E5%BF%83&src=vetmap&coordinate=gaode&callnative=1"},{"name":"小雨宠物医院","address":"东信大道1016号-1018号江涛阁商铺绝育疫苗抗体检测","phone":"15397019356","category":"医疗保健服务;动物医疗场所;宠物诊所","area":"江南","lng":120.150375,"lat":30.182075,"amap_id":"B0LGT7ZACJ","order":10,"prev_distance_km":0.313,"cumulative_distance_km":7.658,"amap_marker_url":"https://uri.amap.com/marker?position=120.150375,30.182075&name=%E5%B0%8F%E9%9B%A8%E5%AE%A0%E7%89%A9%E5%8C%BB%E9%99%A2&src=vetmap&coordinate=gaode&callnative=1"},{"name":"佳雯宠物医院(江南大道分院)","address":"浦沿街道江南大道4756号世融商业中心1栋1楼102-8","phone":"18143430616","category":"医疗保健服务;动物医疗场所;宠物诊所","area":"江南","lng":120.14754,"lat":30.187947,"amap_id":"B0FFKSH7WP","order":11,"prev_distance_km":0.708,"cumulative_distance_km":8.366,"amap_marker_url":"https://uri.amap.com/marker?position=120.147540,30.187947&name=%E4%BD%B3%E9%9B%AF%E5%AE%A0%E7%89%A9%E5%8C%BB%E9%99%A2%28%E6%B1%9F%E5%8D%97%E5%A4%A7%E9%81%93%E5%88%86%E9%99%A2%29&src=vetmap&coordinate=gaode&callnative=1"},{"name":"美美宠物诊疗中心(东信大道店)","address":"东信大道1068-1074号东信大道1068号","phone":"0571-88884068","category":"医疗保健服务;动物医疗场所;宠物诊所","area":"江南","lng":120.151017,"lat":30.183354,"amap_id":"B0FFIAH57E","order":12,"prev_distance_km":0.61,"cumulative_distance_km":8.976,"amap_marker_url":"https://uri.amap.com/marker?position=120.151017,30.183354&name=%E7%BE%8E%E7%BE%8E%E5%AE%A0%E7%89%A9%E8%AF%8A%E7%96%97%E4%B8%AD%E5%BF%83%28%E4%B8%9C%E4%BF%A1%E5%A4%A7%E9%81%93%E5%BA%97%29&src=vetmap&coordinate=gaode&callnative=1"},{"name":"元医动物医学诊断中心","address":"华杭科技园2号楼6层","phone":"","category":"医疗保健服务;动物医疗场所;宠物诊所","area":"江南","lng":120.161375,"lat":30.178712,"amap_id":"B0JAGSHUFI","order":13,"prev_distance_km":1.121,"cumulative_distance_km":10.098,"amap_marker_url":"https://uri.amap.com/marker?position=120.161375,30.178712&name=%E5%85%83%E5%8C%BB%E5%8A%A8%E7%89%A9%E5%8C%BB%E5%AD%A6%E8%AF%8A%E6%96%AD%E4%B8%AD%E5%BF%83&src=vetmap&coordinate=gaode&callnative=1"},{"name":"瑞派·虹泰宠物彩虹中心医院24H·CT·眼科·肿瘤科","address":"江南大道3672-32号","phone":"0571-87114537;13335881343","category":"医疗保健服务;动物医疗场所;宠物诊所","area":"江南","lng":120.1627,"lat":30.185343,"amap_id":"B0LU7CV533","order":14,"prev_distance_km":0.748,"cumulative_distance_km":10.846,"amap_marker_url":"https://uri.amap.com/marker?position=120.162700,30.185343&name=%E7%91%9E%E6%B4%BE%C2%B7%E8%99%B9%E6%B3%B0%E5%AE%A0%E7%89%A9%E5%BD%A9%E8%99%B9%E4%B8%AD%E5%BF%83%E5%8C%BB%E9%99%A224H%C2%B7CT%C2%B7%E7%9C%BC%E7%A7%91%C2%B7%E8%82%BF%E7%98%A4%E7%A7%91&src=vetmap&coordinate=gaode&callnative=1"},{"name":"滨盛路4149号瑞吉宠物医院","address":"滨盛路4149号","phone":"15372055125","category":"医疗保健服务;动物医疗场所;宠物诊所","area":"浦沿","lng":120.163145,"lat":30.188259,"amap_id":"B0JUG1LI71","order":15,"prev_distance_km":0.327,"cumulative_distance_km":11.173,"amap_marker_url":"https://uri.amap.com/marker?position=120.163145,30.188259&name=%E6%BB%A8%E7%9B%9B%E8%B7%AF4149%E5%8F%B7%E7%91%9E%E5%90%89%E5%AE%A0%E7%89%A9%E5%8C%BB%E9%99%A2&src=vetmap&coordinate=gaode&callnative=1"},{"name":"美美宠物医院滨盛分院","address":"滨盛路3113号(建业路地铁站B口步行480米)","phone":"0571-85171985","category":"医疗保健服务;动物医疗场所;宠物诊所","area":"江南","lng":120.178455,"lat":30.194019,"amap_id":"B0FFKOP7LX","order":16,"prev_distance_km":1.605,"cumulative_distance_km":12.778,"amap_marker_url":"https://uri.amap.com/marker?position=120.178455,30.194019&name=%E7%BE%8E%E7%BE%8E%E5%AE%A0%E7%89%A9%E5%8C%BB%E9%99%A2%E6%BB%A8%E7%9B%9B%E5%88%86%E9%99%A2&src=vetmap&coordinate=gaode&callnative=1"},{"name":"宓恩生宠物医院(白金海岸店)","address":"同人街176号","phone":"0571-87212172;15355086467;18857887467","category":"医疗保健服务;动物医疗场所;宠物诊所","area":"长河","lng":120.189249,"lat":30.201442,"amap_id":"B0FFG896TZ","order":17,"prev_distance_km":1.326,"cumulative_distance_km":14.103,"amap_marker_url":"https://uri.amap.com/marker?position=120.189249,30.201442&name=%E5%AE%93%E6%81%A9%E7%94%9F%E5%AE%A0%E7%89%A9%E5%8C%BB%E9%99%A2%28%E7%99%BD%E9%87%91%E6%B5%B7%E5%B2%B8%E5%BA%97%29&src=vetmap&coordinate=gaode&callnative=1"},{"name":"麦田宠物诊疗中心","address":"杭州市滨江区滨盛路2224号(水印城店)","phone":"13588442411","category":"医疗保健服务;动物医疗场所;宠物诊所","area":"长河","lng":120.193731,"lat":30.203105,"amap_id":"B0JKMS40KD","order":18,"prev_distance_km":0.469,"cumulative_distance_km":14.572,"amap_marker_url":"https://uri.amap.com/marker?position=120.193731,30.203105&name=%E9%BA%A6%E7%94%B0%E5%AE%A0%E7%89%A9%E8%AF%8A%E7%96%97%E4%B8%AD%E5%BF%83&src=vetmap&coordinate=gaode&callnative=1"},{"name":"萌悦家宠物医院24H(滨盛路分院)","address":"长河街道滨盛路1849号","phone":"0571-86870585;18157181880","category":"医疗保健服务;动物医疗场所;宠物诊所","area":"长河","lng":120.203799,"lat":30.207334,"amap_id":"B0IU4SG0D8","order":19,"prev_distance_km":1.076,"cumulative_distance_km":15.648,"amap_marker_url":"https://uri.amap.com/marker?position=120.203799,30.207334&name=%E8%90%8C%E6%82%A6%E5%AE%B6%E5%AE%A0%E7%89%A9%E5%8C%BB%E9%99%A224H%28%E6%BB%A8%E7%9B%9B%E8%B7%AF%E5%88%86%E9%99%A2%29&src=vetmap&coordinate=gaode&callnative=1"},{"name":"艾贝尔连锁宠物医院(滨盛路店)","address":"滨盛路1825号艾贝尔宠物医院","phone":"0571-85353731","category":"医疗保健服务;动物医疗场所;宠物诊所","area":"长河","lng":120.204891,"lat":30.207884,"amap_id":"B0FFJVSH35","order":20,"prev_distance_km":0.121,"cumulative_distance_km":15.769,"amap_marker_url":"https://uri.amap.com/marker?position=120.204891,30.207884&name=%E8%89%BE%E8%B4%9D%E5%B0%94%E8%BF%9E%E9%94%81%E5%AE%A0%E7%89%A9%E5%8C%BB%E9%99%A2%28%E6%BB%A8%E7%9B%9B%E8%B7%AF%E5%BA%97%29&src=vetmap&coordinate=gaode&callnative=1"},{"name":"松子宠物医院(滨江分院)","address":"长河街道江南大道129号","phone":"0571-88025569;18668452024;19157782667","category":"医疗保健服务;动物医疗场所;宠物诊所","area":"西兴","lng":120.211,"lat":30.205316,"amap_id":"B0J1CUGRYO","order":21,"prev_distance_km":0.653,"cumulative_distance_km":16.422,"amap_marker_url":"https://uri.amap.com/marker?position=120.211000,30.205316&name=%E6%9D%BE%E5%AD%90%E5%AE%A0%E7%89%A9%E5%8C%BB%E9%99%A2%28%E6%BB%A8%E6%B1%9F%E5%88%86%E9%99%A2%29&src=vetmap&coordinate=gaode&callnative=1"},{"name":"瑞派虹泰月明24H.CT.危重症.疑难外科中心宠物医院","address":"月明路827-829号","phone":"0571-86859066","category":"医疗保健服务;动物医疗场所;宠物诊所","area":"西兴","lng":120.21621,"lat":30.20436,"amap_id":"B0LUUZN7IB","order":22,"prev_distance_km":0.512,"cumulative_distance_km":16.934,"amap_marker_url":"https://uri.amap.com/marker?position=120.216210,30.204360&name=%E7%91%9E%E6%B4%BE%E8%99%B9%E6%B3%B0%E6%9C%88%E6%98%8E24H.CT.%E5%8D%B1%E9%87%8D%E7%97%87.%E7%96%91%E9%9A%BE%E5%A4%96%E7%A7%91%E4%B8%AD%E5%BF%83%E5%AE%A0%E7%89%A9%E5%8C%BB%E9%99%A2&src=vetmap&coordinate=gaode&callnative=1"},{"name":"绒畔宠物","address":"西兴街道明月路823-4号","phone":"0571-82712160","category":"医疗保健服务;动物医疗场所;动物医疗场所","area":"西兴","lng":120.216513,"lat":30.20441,"amap_id":"B0L27MJRN4","order":23,"prev_distance_km":0.03,"cumulative_distance_km":16.964,"amap_marker_url":"https://uri.amap.com/marker?position=120.216513,30.204410&name=%E7%BB%92%E7%95%94%E5%AE%A0%E7%89%A9&src=vetmap&coordinate=gaode&callnative=1"},{"name":"滨兴宠物医院(滨江店)","address":"启智街799号(滨和路地铁站B口步行290米)","phone":"0571-89903616;0571-89903618","category":"医疗保健服务;动物医疗场所;宠物诊所","area":"西兴","lng":120.216062,"lat":30.201323,"amap_id":"B023B0BKQE","order":24,"prev_distance_km":0.346,"cumulative_distance_km":17.31,"amap_marker_url":"https://uri.amap.com/marker?position=120.216062,30.201323&name=%E6%BB%A8%E5%85%B4%E5%AE%A0%E7%89%A9%E5%8C%BB%E9%99%A2%28%E6%BB%A8%E6%B1%9F%E5%BA%97%29&src=vetmap&coordinate=gaode&callnative=1"},{"name":"佳雯宠物医院·皮肤科·内外科(春晓路分院)","address":"长河街道春晓路225号","phone":"18958046621","category":"医疗保健服务;动物医疗场所;宠物诊所","area":"西兴","lng":120.214154,"lat":30.198373,"amap_id":"B0FFMCLQ2D","order":25,"prev_distance_km":0.376,"cumulative_distance_km":17.685,"amap_marker_url":"https://uri.amap.com/marker?position=120.214154,30.198373&name=%E4%BD%B3%E9%9B%AF%E5%AE%A0%E7%89%A9%E5%8C%BB%E9%99%A2%C2%B7%E7%9A%AE%E8%82%A4%E7%A7%91%C2%B7%E5%86%85%E5%A4%96%E7%A7%91%28%E6%98%A5%E6%99%93%E8%B7%AF%E5%88%86%E9%99%A2%29&src=vetmap&coordinate=gaode&callnative=1"},{"name":"浙江张旭动物医院(滨江院区)","address":"滨和路998号中赢国际F1层","phone":"0571-86873458","category":"医疗保健服务;动物医疗场所;宠物诊所","area":"长河","lng":120.210935,"lat":30.199356,"amap_id":"B0FFHWI2H0","order":26,"prev_distance_km":0.328,"cumulative_distance_km":18.013,"amap_marker_url":"https://uri.amap.com/marker?position=120.210935,30.199356&name=%E6%B5%99%E6%B1%9F%E5%BC%A0%E6%97%AD%E5%8A%A8%E7%89%A9%E5%8C%BB%E9%99%A2%28%E6%BB%A8%E6%B1%9F%E9%99%A2%E5%8C%BA%29&src=vetmap&coordinate=gaode&callnative=1"},{"name":"瑞鹏宠物医院猫砂猫粮","address":"月明路与江晖路交叉口西南120米","phone":"","category":"医疗保健服务;动物医疗场所;宠物诊所","area":"长河","lng":120.208925,"lat":30.201075,"amap_id":"B0M61HHQ6I","order":27,"prev_distance_km":0.272,"cumulative_distance_km":18.285,"amap_marker_url":"https://uri.amap.com/marker?position=120.208925,30.201075&name=%E7%91%9E%E9%B9%8F%E5%AE%A0%E7%89%A9%E5%8C%BB%E9%99%A2%E7%8C%AB%E7%A0%82%E7%8C%AB%E7%B2%AE&src=vetmap&coordinate=gaode&callnative=1"},{"name":"凯特喵猫专科宠物医院(江南分院)","address":"长河街道月明路1069号","phone":"0571-86919903","category":"医疗保健服务;动物医疗场所;宠物诊所","area":"长河","lng":120.208937,"lat":30.201013,"amap_id":"B0IDG7V3W0","order":28,"prev_distance_km":0.007,"cumulative_distance_km":18.292,"amap_marker_url":"https://uri.amap.com/marker?position=120.208937,30.201013&name=%E5%87%AF%E7%89%B9%E5%96%B5%E7%8C%AB%E4%B8%93%E7%A7%91%E5%AE%A0%E7%89%A9%E5%8C%BB%E9%99%A2%28%E6%B1%9F%E5%8D%97%E5%88%86%E9%99%A2%29&src=vetmap&coordinate=gaode&callnative=1"},{"name":"宠福园社宠物善后服务","address":"滨河路1150-1号","phone":"","category":"医疗保健服务;动物医疗场所;宠物诊所","area":"长河","lng":120.207729,"lat":30.198324,"amap_id":"B0LK3U08FZ","order":29,"prev_distance_km":0.321,"cumulative_distance_km":18.613,"amap_marker_url":"https://uri.amap.com/marker?position=120.207729,30.198324&name=%E5%AE%A0%E7%A6%8F%E5%9B%AD%E7%A4%BE%E5%AE%A0%E7%89%A9%E5%96%84%E5%90%8E%E6%9C%8D%E5%8A%A1&src=vetmap&coordinate=gaode&callnative=1"},{"name":"犬类狂犬病免疫点","address":"倾城之恋西南门旁(江汉路地铁站D口步行470米)","phone":"","category":"医疗保健服务;动物医疗场所;动物医疗场所","area":"长河","lng":120.206766,"lat":30.198512,"amap_id":"B0JDPZX8OQ","order":30,"prev_distance_km":0.095,"cumulative_distance_km":18.708,"amap_marker_url":"https://uri.amap.com/marker?position=120.206766,30.198512&name=%E7%8A%AC%E7%B1%BB%E7%8B%82%E7%8A%AC%E7%97%85%E5%85%8D%E7%96%AB%E7%82%B9&src=vetmap&coordinate=gaode&callnative=1"},{"name":"啾啾宠医(倾城之恋店)","address":"江汉路1342号(江汉路地铁站D口步行460米)","phone":"18258130883","category":"医疗保健服务;动物医疗场所;宠物诊所","area":"长河","lng":120.206733,"lat":30.198582,"amap_id":"B0HKAULXNQ","order":31,"prev_distance_km":0.008,"cumulative_distance_km":18.716,"amap_marker_url":"https://uri.amap.com/marker?position=120.206733,30.198582&name=%E5%95%BE%E5%95%BE%E5%AE%A0%E5%8C%BB%28%E5%80%BE%E5%9F%8E%E4%B9%8B%E6%81%8B%E5%BA%97%29&src=vetmap&coordinate=gaode&callnative=1"},{"name":"汤姆家宠物(滨江天街店)","address":"众创路中赢云际2幢108室","phone":"","category":"医疗保健服务;动物医疗场所;动物医疗场所","area":"长河","lng":120.203579,"lat":30.194441,"amap_id":"B0LA5LVAU4","order":32,"prev_distance_km":0.551,"cumulative_distance_km":19.267,"amap_marker_url":"https://uri.amap.com/marker?position=120.203579,30.194441&name=%E6%B1%A4%E5%A7%86%E5%AE%B6%E5%AE%A0%E7%89%A9%28%E6%BB%A8%E6%B1%9F%E5%A4%A9%E8%A1%97%E5%BA%97%29&src=vetmap&coordinate=gaode&callnative=1"},{"name":"修远宠物医院·急重症·心脏科·眼科中心(滨江店)","address":"齐飞路与滨和路交叉口东南40米","phone":"18757166896","category":"医疗保健服务;动物医疗场所;宠物诊所","area":"长河","lng":120.200417,"lat":30.195297,"amap_id":"B0H67A1GHI","order":33,"prev_distance_km":0.318,"cumulative_distance_km":19.586,"amap_marker_url":"https://uri.amap.com/marker?position=120.200417,30.195297&name=%E4%BF%AE%E8%BF%9C%E5%AE%A0%E7%89%A9%E5%8C%BB%E9%99%A2%C2%B7%E6%80%A5%E9%87%8D%E7%97%87%C2%B7%E5%BF%83%E8%84%8F%E7%A7%91%C2%B7%E7%9C%BC%E7%A7%91%E4%B8%AD%E5%BF%83%28%E6%BB%A8%E6%B1%9F%E5%BA%97%29&src=vetmap&coordinate=gaode&callnative=1"},{"name":"仟浩宠物中心医院(长河院区)","address":"长河街道滨康路367号","phone":"0571-85222120;13306713319","category":"医疗保健服务;动物医疗场所;宠物诊所","area":"长河","lng":120.194136,"lat":30.180985,"amap_id":"B0IGB5LLG0","order":34,"prev_distance_km":1.702,"cumulative_distance_km":21.288,"amap_marker_url":"https://uri.amap.com/marker?position=120.194136,30.180985&name=%E4%BB%9F%E6%B5%A9%E5%AE%A0%E7%89%A9%E4%B8%AD%E5%BF%83%E5%8C%BB%E9%99%A2%28%E9%95%BF%E6%B2%B3%E9%99%A2%E5%8C%BA%29&src=vetmap&coordinate=gaode&callnative=1"},{"name":"松子宠物医院(时光里分院)","address":"长河街道长河路滨康路交叉口滨汇之都7幢1层112-114室","phone":"0571-88309350;17757197928","category":"医疗保健服务;动物医疗场所;宠物诊所","area":"长河","lng":120.197675,"lat":30.182775,"amap_id":"B0JRX5Z0SR","order":35,"prev_distance_km":0.394,"cumulative_distance_km":21.682,"amap_marker_url":"https://uri.amap.com/marker?position=120.197675,30.182775&name=%E6%9D%BE%E5%AD%90%E5%AE%A0%E7%89%A9%E5%8C%BB%E9%99%A2%28%E6%97%B6%E5%85%89%E9%87%8C%E5%88%86%E9%99%A2%29&src=vetmap&coordinate=gaode&callnative=1"},{"name":"米奥宠物医院·24h急诊","address":"中天官河锦庭西陵路322-324","phone":"18158147816","category":"医疗保健服务;动物医疗场所;宠物诊所","area":"西兴","lng":120.222348,"lat":30.18289,"amap_id":"B0J6MMFW44","order":36,"prev_distance_km":2.372,"cumulative_distance_km":24.054,"amap_marker_url":"https://uri.amap.com/marker?position=120.222348,30.182890&name=%E7%B1%B3%E5%A5%A5%E5%AE%A0%E7%89%A9%E5%8C%BB%E9%99%A2%C2%B724h%E6%80%A5%E8%AF%8A&src=vetmap&coordinate=gaode&callnative=1"},{"name":"悠爱宠物医院·疑难内科·骨外科·24h急诊中心","address":"西兴街道锦绣玲珑府92-93号","phone":"17858867406","category":"医疗保健服务;动物医疗场所;宠物诊所","area":"西兴","lng":120.226141,"lat":30.18318,"amap_id":"B0K2ZD5EV9","order":37,"prev_distance_km":0.366,"cumulative_distance_km":24.42,"amap_marker_url":"https://uri.amap.com/marker?position=120.226141,30.183180&name=%E6%82%A0%E7%88%B1%E5%AE%A0%E7%89%A9%E5%8C%BB%E9%99%A2%C2%B7%E7%96%91%E9%9A%BE%E5%86%85%E7%A7%91%C2%B7%E9%AA%A8%E5%A4%96%E7%A7%91%C2%B724h%E6%80%A5%E8%AF%8A%E4%B8%AD%E5%BF%83&src=vetmap&coordinate=gaode&callnative=1"},{"name":"仟浩宠物医院24小时·肿瘤专科·眼科牙科(连园院区)","address":"西兴街道连园商铺2122号","phone":"0571-81999127","category":"医疗保健服务;动物医疗场所;宠物诊所","area":"西兴","lng":120.225109,"lat":30.188187,"amap_id":"B0JK7HJU4B","order":38,"prev_distance_km":0.566,"cumulative_distance_km":24.985,"amap_marker_url":"https://uri.amap.com/marker?position=120.225109,30.188187&name=%E4%BB%9F%E6%B5%A9%E5%AE%A0%E7%89%A9%E5%8C%BB%E9%99%A224%E5%B0%8F%E6%97%B6%C2%B7%E8%82%BF%E7%98%A4%E4%B8%93%E7%A7%91%C2%B7%E7%9C%BC%E7%A7%91%E7%89%99%E7%A7%91%28%E8%BF%9E%E5%9B%AD%E9%99%A2%E5%8C%BA%29&src=vetmap&coordinate=gaode&callnative=1"},{"name":"萌悦家宠物医院24小时(西兴分院)","address":"萌悦家宠物医院(西兴分院)","phone":"0571-86600005;18069890601","category":"医疗保健服务;动物医疗场所;宠物诊所","area":"西兴","lng":120.224065,"lat":30.197126,"amap_id":"B0IGOCIBCR","order":39,"prev_distance_km":0.999,"cumulative_distance_km":25.984,"amap_marker_url":"https://uri.amap.com/marker?position=120.224065,30.197126&name=%E8%90%8C%E6%82%A6%E5%AE%B6%E5%AE%A0%E7%89%A9%E5%8C%BB%E9%99%A224%E5%B0%8F%E6%97%B6%28%E8%A5%BF%E5%85%B4%E5%88%86%E9%99%A2%29&src=vetmap&coordinate=gaode&callnative=1"},{"name":"吾家宠物医院杭州转诊中心(暂停营业)","address":"明月江南公寓12号","phone":"18966177810","category":"医疗保健服务;动物医疗场所;宠物诊所","area":"西兴","lng":120.226374,"lat":30.206357,"amap_id":"B0L0L79YIB","order":40,"prev_distance_km":1.05,"cumulative_distance_km":27.034,"amap_marker_url":"https://uri.amap.com/marker?position=120.226374,30.206357&name=%E5%90%BE%E5%AE%B6%E5%AE%A0%E7%89%A9%E5%8C%BB%E9%99%A2%E6%9D%AD%E5%B7%9E%E8%BD%AC%E8%AF%8A%E4%B8%AD%E5%BF%83%28%E6%9A%82%E5%81%9C%E8%90%A5%E4%B8%9A%29&src=vetmap&coordinate=gaode&callnative=1"},{"name":"爱达宠物医院(滨江星民店)","address":"滨盛金茂府8-9号商铺","phone":"13282105659","category":"医疗保健服务;动物医疗场所;宠物诊所","area":"西兴","lng":120.22027,"lat":30.217153,"amap_id":"B0J29Z3A63","order":41,"prev_distance_km":1.336,"cumulative_distance_km":28.371,"amap_marker_url":"https://uri.amap.com/marker?position=120.220270,30.217153&name=%E7%88%B1%E8%BE%BE%E5%AE%A0%E7%89%A9%E5%8C%BB%E9%99%A2%28%E6%BB%A8%E6%B1%9F%E6%98%9F%E6%B0%91%E5%BA%97%29&src=vetmap&coordinate=gaode&callnative=1"},{"name":"喵咪爱猫专科宠物医院24H(奥体分店)","address":"旭江华庭172号门面(奥体中心地铁站E口步行460米)","phone":"0571-86028979;17300980617","category":"医疗保健服务;动物医疗场所;宠物诊所","area":"","lng":120.228892,"lat":30.223442,"amap_id":"B0H2YLWR5C","order":42,"prev_distance_km":1.084,"cumulative_distance_km":29.455,"amap_marker_url":"https://uri.amap.com/marker?position=120.228892,30.223442&name=%E5%96%B5%E5%92%AA%E7%88%B1%E7%8C%AB%E4%B8%93%E7%A7%91%E5%AE%A0%E7%89%A9%E5%8C%BB%E9%99%A224H%28%E5%A5%A5%E4%BD%93%E5%88%86%E5%BA%97%29&src=vetmap&coordinate=gaode&callnative=1"},{"name":"艾德来宠物诊所(奥体中心店)","address":"绿地旭江华庭商铺125-126号","phone":"18158516517","category":"医疗保健服务;动物医疗场所;宠物诊所","area":"","lng":120.230272,"lat":30.224365,"amap_id":"B0IR75A2UF","order":43,"prev_distance_km":0.168,"cumulative_distance_km":29.622,"amap_marker_url":"https://uri.amap.com/marker?position=120.230272,30.224365&name=%E8%89%BE%E5%BE%B7%E6%9D%A5%E5%AE%A0%E7%89%A9%E8%AF%8A%E6%89%80%28%E5%A5%A5%E4%BD%93%E4%B8%AD%E5%BF%83%E5%BA%97%29&src=vetmap&coordinate=gaode&callnative=1"},{"name":"诚泰宠物医院","address":"西兴街道旭江华庭商铺90、91、92号","phone":"15381171952","category":"医疗保健服务;动物医疗场所;宠物诊所","area":"","lng":120.230188,"lat":30.225048,"amap_id":"B0L3GHHIC1","order":44,"prev_distance_km":0.076,"cumulative_distance_km":29.699,"amap_marker_url":"https://uri.amap.com/marker?position=120.230188,30.225048&name=%E8%AF%9A%E6%B3%B0%E5%AE%A0%E7%89%A9%E5%8C%BB%E9%99%A2&src=vetmap&coordinate=gaode&callnative=1"},{"name":"修远宠物医院24H转诊中心","address":"旭江华庭45号商铺(奥体中心地铁站D5口步行110米)","phone":"18698560651","category":"医疗保健服务;动物医疗场所;宠物诊所","area":"","lng":120.228574,"lat":30.225296,"amap_id":"B0L17U92VL","order":45,"prev_distance_km":0.158,"cumulative_distance_km":29.856,"amap_marker_url":"https://uri.amap.com/marker?position=120.228574,30.225296&name=%E4%BF%AE%E8%BF%9C%E5%AE%A0%E7%89%A9%E5%8C%BB%E9%99%A224H%E8%BD%AC%E8%AF%8A%E4%B8%AD%E5%BF%83&src=vetmap&coordinate=gaode&callnative=1"}]}