{"summary":{"id":"d01455","province":"湖北省","city":"襄阳市","district":"樊城区","count":39,"total_distance_km":53.608,"coordinate_system":"GCJ-02 / Amap","generated_at":"2026-05-07 19:58:10"},"rows":[{"name":"珍鑫宠物医院(民发天地店)","address":"民发天地8号门旁","phone":"","category":"医疗保健服务;动物医疗场所;宠物诊所","area":"","lng":112.139317,"lat":32.087828,"amap_id":"B0HD4RHW8T","order":1,"prev_distance_km":0.0,"cumulative_distance_km":0.0,"amap_marker_url":"https://uri.amap.com/marker?position=112.139317,32.087828&name=%E7%8F%8D%E9%91%AB%E5%AE%A0%E7%89%A9%E5%8C%BB%E9%99%A2%28%E6%B0%91%E5%8F%91%E5%A4%A9%E5%9C%B0%E5%BA%97%29&src=vetmap&coordinate=gaode&callnative=1"},{"name":"宠心动物诊所","address":"长虹北路与江馨巷交叉口东北280米","phone":"","category":"医疗保健服务;动物医疗场所;宠物诊所","area":"","lng":112.136125,"lat":32.083921,"amap_id":"B0MBBUW8I2","order":2,"prev_distance_km":0.528,"cumulative_distance_km":0.528,"amap_marker_url":"https://uri.amap.com/marker?position=112.136125,32.083921&name=%E5%AE%A0%E5%BF%83%E5%8A%A8%E7%89%A9%E8%AF%8A%E6%89%80&src=vetmap&coordinate=gaode&callnative=1"},{"name":"精灵宠物诊疗中心","address":"高新技术开发区团山镇彭岗路门面6-7","phone":"19164591595","category":"医疗保健服务;动物医疗场所;宠物诊所","area":"","lng":112.13725,"lat":32.079977,"amap_id":"B0JBMOYHC5","order":3,"prev_distance_km":0.451,"cumulative_distance_km":0.98,"amap_marker_url":"https://uri.amap.com/marker?position=112.137250,32.079977&name=%E7%B2%BE%E7%81%B5%E5%AE%A0%E7%89%A9%E8%AF%8A%E7%96%97%E4%B8%AD%E5%BF%83&src=vetmap&coordinate=gaode&callnative=1"},{"name":"瑞特宠物医院","address":"艺苑·景观豪庭西北门东60米","phone":"15391590625","category":"医疗保健服务;动物医疗场所;宠物诊所","area":"","lng":112.140729,"lat":32.072527,"amap_id":"B0LA3LFYTH","order":4,"prev_distance_km":0.891,"cumulative_distance_km":1.87,"amap_marker_url":"https://uri.amap.com/marker?position=112.140729,32.072527&name=%E7%91%9E%E7%89%B9%E5%AE%A0%E7%89%A9%E5%8C%BB%E9%99%A2&src=vetmap&coordinate=gaode&callnative=1"},{"name":"精灵宠物医院(春园路店)","address":"中原街道春园东路社区东方银座商住楼1层107室","phone":"13317276250;13317276350","category":"医疗保健服务;动物医疗场所;宠物诊所","area":"","lng":112.153339,"lat":32.068813,"amap_id":"B0LRBHN9QO","order":5,"prev_distance_km":1.258,"cumulative_distance_km":3.128,"amap_marker_url":"https://uri.amap.com/marker?position=112.153339,32.068813&name=%E7%B2%BE%E7%81%B5%E5%AE%A0%E7%89%A9%E5%8C%BB%E9%99%A2%28%E6%98%A5%E5%9B%AD%E8%B7%AF%E5%BA%97%29&src=vetmap&coordinate=gaode&callnative=1"},{"name":"恋宠宠物诊所","address":"融侨锦江2期东门旁","phone":"13094135048","category":"医疗保健服务;动物医疗场所;宠物诊所","area":"","lng":112.16248,"lat":32.069783,"amap_id":"B0HAZ77YJ6","order":6,"prev_distance_km":0.868,"cumulative_distance_km":3.996,"amap_marker_url":"https://uri.amap.com/marker?position=112.162480,32.069783&name=%E6%81%8B%E5%AE%A0%E5%AE%A0%E7%89%A9%E8%AF%8A%E6%89%80&src=vetmap&coordinate=gaode&callnative=1"},{"name":"乐家宠物医院·24h急诊·心脏中心","address":"前锦公寓1号,猫疫苗,狗疫苗,猫绝育,狗绝育,宠物急诊,宠物美容,宠物洗澡,狂犬疫苗,宠物驱虫","phone":"18186766227;19871220933","category":"医疗保健服务;动物医疗场所;宠物诊所","area":"","lng":112.160913,"lat":32.067153,"amap_id":"B0K3ZLH591","order":7,"prev_distance_km":0.328,"cumulative_distance_km":4.324,"amap_marker_url":"https://uri.amap.com/marker?position=112.160913,32.067153&name=%E4%B9%90%E5%AE%B6%E5%AE%A0%E7%89%A9%E5%8C%BB%E9%99%A2%C2%B724h%E6%80%A5%E8%AF%8A%C2%B7%E5%BF%83%E8%84%8F%E4%B8%AD%E5%BF%83&src=vetmap&coordinate=gaode&callnative=1"},{"name":"维特宠物诊疗中心","address":"红光路七号红光紫都门面房1幢1层107室","phone":"18727082726","category":"医疗保健服务;动物医疗场所;宠物诊所","area":"大庆东路","lng":112.16314,"lat":32.056931,"amap_id":"B0G1PSMICB","order":8,"prev_distance_km":1.156,"cumulative_distance_km":5.48,"amap_marker_url":"https://uri.amap.com/marker?position=112.163140,32.056931&name=%E7%BB%B4%E7%89%B9%E5%AE%A0%E7%89%A9%E8%AF%8A%E7%96%97%E4%B8%AD%E5%BF%83&src=vetmap&coordinate=gaode&callnative=1"},{"name":"宠物诊疗中心","address":"国投招商雍江国际璟苑西北门西50米","phone":"0710-3467181;18727034999","category":"医疗保健服务;动物医疗场所;宠物诊所","area":"大庆东路","lng":112.164769,"lat":32.047031,"amap_id":"B0FFGIJXQT","order":9,"prev_distance_km":1.111,"cumulative_distance_km":6.591,"amap_marker_url":"https://uri.amap.com/marker?position=112.164769,32.047031&name=%E5%AE%A0%E7%89%A9%E8%AF%8A%E7%96%97%E4%B8%AD%E5%BF%83&src=vetmap&coordinate=gaode&callnative=1"},{"name":"宠同萌动物医院","address":"肖家台社区大庆东路5号襄江国投襄江苑1号楼商铺","phone":"","category":"医疗保健服务;动物医疗场所;宠物诊所","area":"大庆东路","lng":112.158202,"lat":32.046954,"amap_id":"B0L2ZD3DOC","order":10,"prev_distance_km":0.619,"cumulative_distance_km":7.21,"amap_marker_url":"https://uri.amap.com/marker?position=112.158202,32.046954&name=%E5%AE%A0%E5%90%8C%E8%90%8C%E5%8A%A8%E7%89%A9%E5%8C%BB%E9%99%A2&src=vetmap&coordinate=gaode&callnative=1"},{"name":"宝诺宠物诊所","address":"东风路8号襄港风情街门面","phone":"15391578683","category":"医疗保健服务;动物医疗场所;宠物诊所","area":"大庆东路","lng":112.158645,"lat":32.044718,"amap_id":"B0GRDSFCYR","order":11,"prev_distance_km":0.252,"cumulative_distance_km":7.462,"amap_marker_url":"https://uri.amap.com/marker?position=112.158645,32.044718&name=%E5%AE%9D%E8%AF%BA%E5%AE%A0%E7%89%A9%E8%AF%8A%E6%89%80&src=vetmap&coordinate=gaode&callnative=1"},{"name":"乐宠宠物诊疗中心","address":"中国工商银行股份有限公司襄阳分行解放桥支行东北门东70米","phone":"0710-2211120;19972249995","category":"医疗保健服务;动物医疗场所;宠物诊所","area":"拉美","lng":112.15933,"lat":32.041591,"amap_id":"B0FFHK5U0G","order":12,"prev_distance_km":0.354,"cumulative_distance_km":7.816,"amap_marker_url":"https://uri.amap.com/marker?position=112.159330,32.041591&name=%E4%B9%90%E5%AE%A0%E5%AE%A0%E7%89%A9%E8%AF%8A%E7%96%97%E4%B8%AD%E5%BF%83&src=vetmap&coordinate=gaode&callnative=1"},{"name":"拓源宠物医院","address":"炮铺街航瑞大厦1幢1层B7室","phone":"13871685833;18727034999","category":"医疗保健服务;动物医疗场所;宠物诊所","area":"解放路","lng":112.159376,"lat":32.039109,"amap_id":"B0FFL0MTEW","order":13,"prev_distance_km":0.276,"cumulative_distance_km":8.092,"amap_marker_url":"https://uri.amap.com/marker?position=112.159376,32.039109&name=%E6%8B%93%E6%BA%90%E5%AE%A0%E7%89%A9%E5%8C%BB%E9%99%A2&src=vetmap&coordinate=gaode&callnative=1"},{"name":"诸葛宠物诊所","address":"炮铺街特1号","phone":"","category":"医疗保健服务;动物医疗场所;宠物诊所","area":"解放路","lng":112.157821,"lat":32.03963,"amap_id":"B0L6MSQ6XQ","order":14,"prev_distance_km":0.158,"cumulative_distance_km":8.25,"amap_marker_url":"https://uri.amap.com/marker?position=112.157821,32.039630&name=%E8%AF%B8%E8%91%9B%E5%AE%A0%E7%89%A9%E8%AF%8A%E6%89%80&src=vetmap&coordinate=gaode&callnative=1"},{"name":"高菲宠物医疗诊所","address":"解放路定中街36号-1","phone":"","category":"医疗保健服务;动物医疗场所;宠物诊所","area":"定中街","lng":112.154285,"lat":32.039204,"amap_id":"B0J1SHYJ2Y","order":15,"prev_distance_km":0.337,"cumulative_distance_km":8.586,"amap_marker_url":"https://uri.amap.com/marker?position=112.154285,32.039204&name=%E9%AB%98%E8%8F%B2%E5%AE%A0%E7%89%A9%E5%8C%BB%E7%96%97%E8%AF%8A%E6%89%80&src=vetmap&coordinate=gaode&callnative=1"},{"name":"大可宠物医院(永安广场店)","address":"永安广场门面109室","phone":"19313977633","category":"医疗保健服务;动物医疗场所;宠物诊所","area":"","lng":112.149527,"lat":32.040578,"amap_id":"B0JAAMCT8C","order":16,"prev_distance_km":0.474,"cumulative_distance_km":9.06,"amap_marker_url":"https://uri.amap.com/marker?position=112.149527,32.040578&name=%E5%A4%A7%E5%8F%AF%E5%AE%A0%E7%89%A9%E5%8C%BB%E9%99%A2%28%E6%B0%B8%E5%AE%89%E5%B9%BF%E5%9C%BA%E5%BA%97%29&src=vetmap&coordinate=gaode&callnative=1"},{"name":"家萌宠物诊所","address":"新华路新华公园1号房01-01号","phone":"15927535596","category":"医疗保健服务;动物医疗场所;宠物诊所","area":"新华路","lng":112.148734,"lat":32.052736,"amap_id":"B0HU9782Z1","order":17,"prev_distance_km":1.354,"cumulative_distance_km":10.414,"amap_marker_url":"https://uri.amap.com/marker?position=112.148734,32.052736&name=%E5%AE%B6%E8%90%8C%E5%AE%A0%E7%89%A9%E8%AF%8A%E6%89%80&src=vetmap&coordinate=gaode&callnative=1"},{"name":"康萌宠物诊疗中心春园路店","address":"七里河街道春园路35-7","phone":"17771036557","category":"医疗保健服务;动物医疗场所;宠物诊所","area":"新华路","lng":112.143492,"lat":32.057654,"amap_id":"B0IUJLGA4B","order":18,"prev_distance_km":0.737,"cumulative_distance_km":11.151,"amap_marker_url":"https://uri.amap.com/marker?position=112.143492,32.057654&name=%E5%BA%B7%E8%90%8C%E5%AE%A0%E7%89%A9%E8%AF%8A%E7%96%97%E4%B8%AD%E5%BF%83%E6%98%A5%E5%9B%AD%E8%B7%AF%E5%BA%97&src=vetmap&coordinate=gaode&callnative=1"},{"name":"仲信宠物医院猫专科(长虹路店)","address":"长虹路56号海润名都2栋2单元1楼商铺B5","phone":"0710-3600680;19008619120","category":"医疗保健服务;动物医疗场所;宠物诊所","area":"春园西路","lng":112.13601,"lat":32.051667,"amap_id":"B0JA29H9F5","order":19,"prev_distance_km":0.97,"cumulative_distance_km":12.121,"amap_marker_url":"https://uri.amap.com/marker?position=112.136010,32.051667&name=%E4%BB%B2%E4%BF%A1%E5%AE%A0%E7%89%A9%E5%8C%BB%E9%99%A2%E7%8C%AB%E4%B8%93%E7%A7%91%28%E9%95%BF%E8%99%B9%E8%B7%AF%E5%BA%97%29&src=vetmap&coordinate=gaode&callnative=1"},{"name":"奕铭宠物门诊","address":"建华路与居安巷交叉口西220米","phone":"0710-3269300;15872281388","category":"医疗保健服务;动物医疗场所;宠物诊所","area":"","lng":112.138726,"lat":32.050338,"amap_id":"B0FFHK5VTK","order":20,"prev_distance_km":0.296,"cumulative_distance_km":12.416,"amap_marker_url":"https://uri.amap.com/marker?position=112.138726,32.050338&name=%E5%A5%95%E9%93%AD%E5%AE%A0%E7%89%A9%E9%97%A8%E8%AF%8A&src=vetmap&coordinate=gaode&callnative=1"},{"name":"多吉宠物医院(立业路店)","address":"立业路113号","phone":"0710-3773737;17771111305","category":"医疗保健服务;动物医疗场所;宠物诊所","area":"","lng":112.1388,"lat":32.046807,"amap_id":"B0FFI77MPC","order":21,"prev_distance_km":0.393,"cumulative_distance_km":12.809,"amap_marker_url":"https://uri.amap.com/marker?position=112.138800,32.046807&name=%E5%A4%9A%E5%90%89%E5%AE%A0%E7%89%A9%E5%8C%BB%E9%99%A2%28%E7%AB%8B%E4%B8%9A%E8%B7%AF%E5%BA%97%29&src=vetmap&coordinate=gaode&callnative=1"},{"name":"德蕊宠物医院犬猫科骨科转诊中心(南国城市广场店)","address":"风华路8号","phone":"19072667533","category":"医疗保健服务;动物医疗场所;宠物诊所","area":"华丰路","lng":112.138375,"lat":32.042425,"amap_id":"B0J6VRD3XQ","order":22,"prev_distance_km":0.489,"cumulative_distance_km":13.298,"amap_marker_url":"https://uri.amap.com/marker?position=112.138375,32.042425&name=%E5%BE%B7%E8%95%8A%E5%AE%A0%E7%89%A9%E5%8C%BB%E9%99%A2%E7%8A%AC%E7%8C%AB%E7%A7%91%E9%AA%A8%E7%A7%91%E8%BD%AC%E8%AF%8A%E4%B8%AD%E5%BF%83%28%E5%8D%97%E5%9B%BD%E5%9F%8E%E5%B8%82%E5%B9%BF%E5%9C%BA%E5%BA%97%29&src=vetmap&coordinate=gaode&callnative=1"},{"name":"康萌宠物诊疗中心(人民路总院)","address":"219号鑫鼎花园北门","phone":"18062264663","category":"医疗保健服务;动物医疗场所;宠物诊所","area":"朝阳路","lng":112.140992,"lat":32.040351,"amap_id":"B0FFI9CO9Q","order":23,"prev_distance_km":0.338,"cumulative_distance_km":13.636,"amap_marker_url":"https://uri.amap.com/marker?position=112.140992,32.040351&name=%E5%BA%B7%E8%90%8C%E5%AE%A0%E7%89%A9%E8%AF%8A%E7%96%97%E4%B8%AD%E5%BF%83%28%E4%BA%BA%E6%B0%91%E8%B7%AF%E6%80%BB%E9%99%A2%29&src=vetmap&coordinate=gaode&callnative=1"},{"name":"爱心宠物诊所(大庆西路店)","address":"中烟襄阳卷烟厂南门西南90米","phone":"15172655566","category":"医疗保健服务;动物医疗场所;宠物诊所","area":"","lng":112.143036,"lat":32.034996,"amap_id":"B0FFK9DRSY","order":24,"prev_distance_km":0.626,"cumulative_distance_km":14.262,"amap_marker_url":"https://uri.amap.com/marker?position=112.143036,32.034996&name=%E7%88%B1%E5%BF%83%E5%AE%A0%E7%89%A9%E8%AF%8A%E6%89%80%28%E5%A4%A7%E5%BA%86%E8%A5%BF%E8%B7%AF%E5%BA%97%29&src=vetmap&coordinate=gaode&callnative=1"},{"name":"快乐尾巴宠物会所","address":"沿江大道特1号闽发汉江国际2号楼(近长虹二桥)","phone":"0710-3423622;13687285235","category":"医疗保健服务;动物医疗场所;宠物诊所","area":"解放路","lng":112.141508,"lat":32.027371,"amap_id":"B0FFGXN2PL","order":25,"prev_distance_km":0.86,"cumulative_distance_km":15.122,"amap_marker_url":"https://uri.amap.com/marker?position=112.141508,32.027371&name=%E5%BF%AB%E4%B9%90%E5%B0%BE%E5%B7%B4%E5%AE%A0%E7%89%A9%E4%BC%9A%E6%89%80&src=vetmap&coordinate=gaode&callnative=1"},{"name":"维妮宠物医院·犬猫内外科·心脏科·骨科(汉水华城店)","address":"汉水华城商业街13栋12-1309","phone":"","category":"医疗保健服务;动物医疗场所;宠物诊所","area":"","lng":112.134555,"lat":32.037829,"amap_id":"B0KRU5398X","order":26,"prev_distance_km":1.335,"cumulative_distance_km":16.456,"amap_marker_url":"https://uri.amap.com/marker?position=112.134555,32.037829&name=%E7%BB%B4%E5%A6%AE%E5%AE%A0%E7%89%A9%E5%8C%BB%E9%99%A2%C2%B7%E7%8A%AC%E7%8C%AB%E5%86%85%E5%A4%96%E7%A7%91%C2%B7%E5%BF%83%E8%84%8F%E7%A7%91%C2%B7%E9%AA%A8%E7%A7%91%28%E6%B1%89%E6%B0%B4%E5%8D%8E%E5%9F%8E%E5%BA%97%29&src=vetmap&coordinate=gaode&callnative=1"},{"name":"九福宠物门诊","address":"人民西路58号恒大影城2号门","phone":"13343578341;13986365102","category":"医疗保健服务;动物医疗场所;宠物诊所","area":"","lng":112.123013,"lat":32.039891,"amap_id":"B0G1XZI82V","order":27,"prev_distance_km":1.112,"cumulative_distance_km":17.568,"amap_marker_url":"https://uri.amap.com/marker?position=112.123013,32.039891&name=%E4%B9%9D%E7%A6%8F%E5%AE%A0%E7%89%A9%E9%97%A8%E8%AF%8A&src=vetmap&coordinate=gaode&callnative=1"},{"name":"莱德宠物诊疗中心","address":"汉江路55号莱德宠物诊疗中心","phone":"17671174904","category":"医疗保健服务;动物医疗场所;宠物诊所","area":"","lng":112.126624,"lat":32.041585,"amap_id":"B0JG3Z12PJ","order":28,"prev_distance_km":0.389,"cumulative_distance_km":17.957,"amap_marker_url":"https://uri.amap.com/marker?position=112.126624,32.041585&name=%E8%8E%B1%E5%BE%B7%E5%AE%A0%E7%89%A9%E8%AF%8A%E7%96%97%E4%B8%AD%E5%BF%83&src=vetmap&coordinate=gaode&callnative=1"},{"name":"旭阳宠物诊疗中心","address":"汉江路28号101室","phone":"15997260387","category":"医疗保健服务;动物医疗场所;宠物诊所","area":"松鹤路","lng":112.126769,"lat":32.044514,"amap_id":"B0HAFMTNL5","order":29,"prev_distance_km":0.326,"cumulative_distance_km":18.283,"amap_marker_url":"https://uri.amap.com/marker?position=112.126769,32.044514&name=%E6%97%AD%E9%98%B3%E5%AE%A0%E7%89%A9%E8%AF%8A%E7%96%97%E4%B8%AD%E5%BF%83&src=vetmap&coordinate=gaode&callnative=1"},{"name":"乐家宠物医院·保险·犬猫眼科(松鹤路店)","address":"松鹤路13号乐家宠物医院,猫疫苗,狗疫苗,猫绝育,狗绝育,宠物急诊,宠物美容,宠物洗澡,狂犬疫苗,宠物驱虫","phone":"18186765767;19871220933","category":"医疗保健服务;动物医疗场所;宠物诊所","area":"松鹤路","lng":112.123006,"lat":32.046488,"amap_id":"B0GKXHFJBE","order":30,"prev_distance_km":0.417,"cumulative_distance_km":18.7,"amap_marker_url":"https://uri.amap.com/marker?position=112.123006,32.046488&name=%E4%B9%90%E5%AE%B6%E5%AE%A0%E7%89%A9%E5%8C%BB%E9%99%A2%C2%B7%E4%BF%9D%E9%99%A9%C2%B7%E7%8A%AC%E7%8C%AB%E7%9C%BC%E7%A7%91%28%E6%9D%BE%E9%B9%A4%E8%B7%AF%E5%BA%97%29&src=vetmap&coordinate=gaode&callnative=1"},{"name":"米祺宠物医院(万达路店)","address":"万达广场万达西路13幢122室","phone":"18986392166","category":"医疗保健服务;动物医疗场所;宠物诊所","area":"","lng":112.129749,"lat":32.061885,"amap_id":"B0FFF2R2YW","order":31,"prev_distance_km":1.826,"cumulative_distance_km":20.527,"amap_marker_url":"https://uri.amap.com/marker?position=112.129749,32.061885&name=%E7%B1%B3%E7%A5%BA%E5%AE%A0%E7%89%A9%E5%8C%BB%E9%99%A2%28%E4%B8%87%E8%BE%BE%E8%B7%AF%E5%BA%97%29&src=vetmap&coordinate=gaode&callnative=1"},{"name":"仲信宠物医院(万达总院)","address":"万达广场万达中路12-115号","phone":"0710-3245120;15997183991","category":"医疗保健服务;动物医疗场所;宠物诊所","area":"","lng":112.130123,"lat":32.062325,"amap_id":"B0FFG8SCBC","order":32,"prev_distance_km":0.06,"cumulative_distance_km":20.587,"amap_marker_url":"https://uri.amap.com/marker?position=112.130123,32.062325&name=%E4%BB%B2%E4%BF%A1%E5%AE%A0%E7%89%A9%E5%8C%BB%E9%99%A2%28%E4%B8%87%E8%BE%BE%E6%80%BB%E9%99%A2%29&src=vetmap&coordinate=gaode&callnative=1"},{"name":"宠屿动物医院","address":"高新区团山镇中原西路航天花园对面世豪轩时尚酒店旁","phone":"0710-3122882;19092833120","category":"医疗保健服务;动物医疗场所;宠物诊所","area":"黄家","lng":112.129363,"lat":32.068933,"amap_id":"B0KD7PV4BS","order":33,"prev_distance_km":0.738,"cumulative_distance_km":21.325,"amap_marker_url":"https://uri.amap.com/marker?position=112.129363,32.068933&name=%E5%AE%A0%E5%B1%BF%E5%8A%A8%E7%89%A9%E5%8C%BB%E9%99%A2&src=vetmap&coordinate=gaode&callnative=1"},{"name":"兽兽动物医院(瑞城国际店)","address":"中原西路瑞城国际3号楼门面(面临高架桥)","phone":"0710-3518120;13871719571","category":"医疗保健服务;动物医疗场所;宠物诊所","area":"","lng":112.122659,"lat":32.068168,"amap_id":"B0G37U7WSD","order":34,"prev_distance_km":0.637,"cumulative_distance_km":21.962,"amap_marker_url":"https://uri.amap.com/marker?position=112.122659,32.068168&name=%E5%85%BD%E5%85%BD%E5%8A%A8%E7%89%A9%E5%8C%BB%E9%99%A2%28%E7%91%9E%E5%9F%8E%E5%9B%BD%E9%99%85%E5%BA%97%29&src=vetmap&coordinate=gaode&callnative=1"},{"name":"瑞萌宠物诊所","address":"绿地中央广场饕界19号楼1层16号商铺","phone":"18120283922","category":"医疗保健服务;动物医疗场所;宠物诊所","area":"","lng":112.10747,"lat":32.068789,"amap_id":"B0FFIYY9PS","order":35,"prev_distance_km":1.433,"cumulative_distance_km":23.395,"amap_marker_url":"https://uri.amap.com/marker?position=112.107470,32.068789&name=%E7%91%9E%E8%90%8C%E5%AE%A0%E7%89%A9%E8%AF%8A%E6%89%80&src=vetmap&coordinate=gaode&callnative=1"},{"name":"宠贝爽宠物医疗诊所","address":"侨丰国际博览城61栋1号门面","phone":"","category":"医疗保健服务;动物医疗场所;宠物诊所","area":"","lng":112.065791,"lat":32.101495,"amap_id":"B0FFLJFJ4V","order":36,"prev_distance_km":5.352,"cumulative_distance_km":28.747,"amap_marker_url":"https://uri.amap.com/marker?position=112.065791,32.101495&name=%E5%AE%A0%E8%B4%9D%E7%88%BD%E5%AE%A0%E7%89%A9%E5%8C%BB%E7%96%97%E8%AF%8A%E6%89%80&src=vetmap&coordinate=gaode&callnative=1"},{"name":"竹条兽医站","address":"人民西路与万洲大道交叉口东南480米","phone":"","category":"医疗保健服务;动物医疗场所;兽医站","area":"","lng":112.028125,"lat":32.085975,"amap_id":"B0LKVL5KEJ","order":37,"prev_distance_km":3.946,"cumulative_distance_km":32.693,"amap_marker_url":"https://uri.amap.com/marker?position=112.028125,32.085975&name=%E7%AB%B9%E6%9D%A1%E5%85%BD%E5%8C%BB%E7%AB%99&src=vetmap&coordinate=gaode&callnative=1"},{"name":"朱坡街兽医站","address":"302省道与301乡道交叉口东300米","phone":"","category":"医疗保健服务;动物医疗场所;兽医站","area":"","lng":111.894975,"lat":32.113425,"amap_id":"B0LKSCJ5N5","order":38,"prev_distance_km":12.908,"cumulative_distance_km":45.601,"amap_marker_url":"https://uri.amap.com/marker?position=111.894975,32.113425&name=%E6%9C%B1%E5%9D%A1%E8%A1%97%E5%85%BD%E5%8C%BB%E7%AB%99&src=vetmap&coordinate=gaode&callnative=1"},{"name":"太平店镇畜牧兽医服务中心","address":"化纤路与太平路交叉口东220米","phone":"","category":"医疗保健服务;动物医疗场所;兽医站","area":"","lng":111.812725,"lat":32.131675,"amap_id":"B0FFIYEJ9S","order":39,"prev_distance_km":8.007,"cumulative_distance_km":53.608,"amap_marker_url":"https://uri.amap.com/marker?position=111.812725,32.131675&name=%E5%A4%AA%E5%B9%B3%E5%BA%97%E9%95%87%E7%95%9C%E7%89%A7%E5%85%BD%E5%8C%BB%E6%9C%8D%E5%8A%A1%E4%B8%AD%E5%BF%83&src=vetmap&coordinate=gaode&callnative=1"}]}