{"summary":{"id":"d01479","province":"湖北省","city":"黄石市","district":"阳新县","count":12,"total_distance_km":71.481,"coordinate_system":"GCJ-02 / Amap","generated_at":"2026-05-07 20:23:57"},"rows":[{"name":"乡村兽医诊疗点","address":"太子街与036县道交叉口北220米","phone":"","category":"医疗保健服务;动物医疗场所;兽医站","area":"","lng":115.185595,"lat":30.029877,"amap_id":"B0FFG0Y696","order":1,"prev_distance_km":0.0,"cumulative_distance_km":0.0,"amap_marker_url":"https://uri.amap.com/marker?position=115.185595,30.029877&name=%E4%B9%A1%E6%9D%91%E5%85%BD%E5%8C%BB%E8%AF%8A%E7%96%97%E7%82%B9&src=vetmap&coordinate=gaode&callnative=1"},{"name":"阳新县太子镇畜牧兽医站","address":"太子街与036县道交叉口北200米","phone":"0714-7810071;13507231781","category":"医疗保健服务;动物医疗场所;兽医站","area":"","lng":115.185648,"lat":30.029857,"amap_id":"B0FFHFUWYB","order":2,"prev_distance_km":0.006,"cumulative_distance_km":0.006,"amap_marker_url":"https://uri.amap.com/marker?position=115.185648,30.029857&name=%E9%98%B3%E6%96%B0%E5%8E%BF%E5%A4%AA%E5%AD%90%E9%95%87%E7%95%9C%E7%89%A7%E5%85%BD%E5%8C%BB%E7%AB%99&src=vetmap&coordinate=gaode&callnative=1"},{"name":"数宠动物医院·心脏骨科中心(阳新分院)","address":"莲花湖一号生活广场北门","phone":"18162953638","category":"医疗保健服务;动物医疗场所;宠物诊所","area":"","lng":115.229137,"lat":29.869022,"amap_id":"B0HKLCUBCY","order":3,"prev_distance_km":18.368,"cumulative_distance_km":18.374,"amap_marker_url":"https://uri.amap.com/marker?position=115.229137,29.869022&name=%E6%95%B0%E5%AE%A0%E5%8A%A8%E7%89%A9%E5%8C%BB%E9%99%A2%C2%B7%E5%BF%83%E8%84%8F%E9%AA%A8%E7%A7%91%E4%B8%AD%E5%BF%83%28%E9%98%B3%E6%96%B0%E5%88%86%E9%99%A2%29&src=vetmap&coordinate=gaode&callnative=1"},{"name":"御宠宠物诊所","address":"综合大道与新华路交叉口西220米","phone":"18051171563","category":"医疗保健服务;动物医疗场所;宠物诊所","area":"","lng":115.225828,"lat":29.869056,"amap_id":"B0L6RRNFKC","order":4,"prev_distance_km":0.319,"cumulative_distance_km":18.693,"amap_marker_url":"https://uri.amap.com/marker?position=115.225828,29.869056&name=%E5%BE%A1%E5%AE%A0%E5%AE%A0%E7%89%A9%E8%AF%8A%E6%89%80&src=vetmap&coordinate=gaode&callnative=1"},{"name":"宠归于好动物医院","address":"莲花湖一号一期21栋105-106号","phone":"13972775200;18327832783","category":"医疗保健服务;动物医疗场所;宠物诊所","area":"","lng":115.225881,"lat":29.865713,"amap_id":"B0K11H5QXA","order":5,"prev_distance_km":0.372,"cumulative_distance_km":19.065,"amap_marker_url":"https://uri.amap.com/marker?position=115.225881,29.865713&name=%E5%AE%A0%E5%BD%92%E4%BA%8E%E5%A5%BD%E5%8A%A8%E7%89%A9%E5%8C%BB%E9%99%A2&src=vetmap&coordinate=gaode&callnative=1"},{"name":"阳昕宠物(环湖东路公园壹号院店)","address":"城东新区环湖东路公园壹号院13栋120号","phone":"15327880706","category":"医疗保健服务;动物医疗场所;宠物诊所","area":"","lng":115.231524,"lat":29.861769,"amap_id":"B0LDPLO53Y","order":6,"prev_distance_km":0.699,"cumulative_distance_km":19.764,"amap_marker_url":"https://uri.amap.com/marker?position=115.231524,29.861769&name=%E9%98%B3%E6%98%95%E5%AE%A0%E7%89%A9%28%E7%8E%AF%E6%B9%96%E4%B8%9C%E8%B7%AF%E5%85%AC%E5%9B%AD%E5%A3%B9%E5%8F%B7%E9%99%A2%E5%BA%97%29&src=vetmap&coordinate=gaode&callnative=1"},{"name":"联宠宠物","address":"兴国镇李家湾锦绣城1号楼1层18号20附103-104","phone":"13197020595","category":"医疗保健服务;动物医疗场所;宠物诊所","area":"","lng":115.199567,"lat":29.853008,"amap_id":"B0FFJR0TWD","order":7,"prev_distance_km":3.232,"cumulative_distance_km":22.996,"amap_marker_url":"https://uri.amap.com/marker?position=115.199567,29.853008&name=%E8%81%94%E5%AE%A0%E5%AE%A0%E7%89%A9&src=vetmap&coordinate=gaode&callnative=1"},{"name":"联宠宠物医院(阳新县店)","address":"兴国镇锦绣城20号楼1-2层","phone":"13197020595;19277168793","category":"医疗保健服务;动物医疗场所;宠物诊所","area":"","lng":115.199622,"lat":29.852987,"amap_id":"B0I2J529M4","order":8,"prev_distance_km":0.006,"cumulative_distance_km":23.002,"amap_marker_url":"https://uri.amap.com/marker?position=115.199622,29.852987&name=%E8%81%94%E5%AE%A0%E5%AE%A0%E7%89%A9%E5%8C%BB%E9%99%A2%28%E9%98%B3%E6%96%B0%E5%8E%BF%E5%BA%97%29&src=vetmap&coordinate=gaode&callnative=1"},{"name":"福润宠物医院","address":"东坡路华鑫大厦一楼","phone":"18162958866;18671489775","category":"医疗保健服务;动物医疗场所;宠物诊所","area":"","lng":115.20354,"lat":29.847069,"amap_id":"B0FFIQVQ38","order":9,"prev_distance_km":0.759,"cumulative_distance_km":23.76,"amap_marker_url":"https://uri.amap.com/marker?position=115.203540,29.847069&name=%E7%A6%8F%E6%B6%A6%E5%AE%A0%E7%89%A9%E5%8C%BB%E9%99%A2&src=vetmap&coordinate=gaode&callnative=1"},{"name":"狂犬病救星","address":"兴国大道与乐业路交叉口北120米","phone":"","category":"医疗保健服务;动物医疗场所;动物医疗场所","area":"兴国大道","lng":115.208728,"lat":29.845291,"amap_id":"B0ID77MWDG","order":10,"prev_distance_km":0.538,"cumulative_distance_km":24.298,"amap_marker_url":"https://uri.amap.com/marker?position=115.208728,29.845291&name=%E7%8B%82%E7%8A%AC%E7%97%85%E6%95%91%E6%98%9F&src=vetmap&coordinate=gaode&callnative=1"},{"name":"木港镇畜牧兽医服务中心","address":"木港镇木港大道115号","phone":"13367146259;13507238319","category":"医疗保健服务;动物医疗场所;兽医站","area":"","lng":115.255375,"lat":29.720328,"amap_id":"B0LBDAPJUS","order":11,"prev_distance_km":14.606,"cumulative_distance_km":38.905,"amap_marker_url":"https://uri.amap.com/marker?position=115.255375,29.720328&name=%E6%9C%A8%E6%B8%AF%E9%95%87%E7%95%9C%E7%89%A7%E5%85%BD%E5%8C%BB%E6%9C%8D%E5%8A%A1%E4%B8%AD%E5%BF%83&src=vetmap&coordinate=gaode&callnative=1"},{"name":"龙港镇畜牧兽医服务中心","address":"106国道与G45大广高速出口交叉口东北420米","phone":"","category":"医疗保健服务;动物医疗场所;兽医站","area":"","lng":114.946443,"lat":29.603005,"amap_id":"B0K3M7NRJ9","order":12,"prev_distance_km":32.577,"cumulative_distance_km":71.481,"amap_marker_url":"https://uri.amap.com/marker?position=114.946443,29.603005&name=%E9%BE%99%E6%B8%AF%E9%95%87%E7%95%9C%E7%89%A7%E5%85%BD%E5%8C%BB%E6%9C%8D%E5%8A%A1%E4%B8%AD%E5%BF%83&src=vetmap&coordinate=gaode&callnative=1"}]}