{"summary":{"id":"d01441","province":"湖北省","city":"荆州市","district":"沙市区","count":29,"route_count":1,"max_route_clinics":29,"total_distance_km":30.268,"coordinate_system":"GCJ-02 / Amap","generated_at":"2026-05-07 21:30:17"},"routes":[{"id":"r1","name":"第1段","count":29,"total_distance_km":30.268,"rows":[{"name":"兽医站门诊","address":"318国道与碧波街交叉口东240米","phone":"","category":"医疗保健服务;动物医疗场所;兽医站","area":"","lng":112.390974,"lat":30.362117,"amap_id":"B0I2FHM789","order":1,"prev_distance_km":0.0,"cumulative_distance_km":0.0,"amap_marker_url":"https://uri.amap.com/marker?position=112.390974,30.362117&name=%E5%85%BD%E5%8C%BB%E7%AB%99%E9%97%A8%E8%AF%8A&src=vetmap&coordinate=gaode&callnative=1","route_id":"r1","route_name":"第1段"},{"name":"兽医站","address":"318国道与五支渠路交叉口西380米","phone":"","category":"医疗保健服务;动物医疗场所;兽医站","area":"锣场","lng":112.341442,"lat":30.35459,"amap_id":"B0LUDRCA8M","order":2,"prev_distance_km":4.826,"cumulative_distance_km":4.826,"amap_marker_url":"https://uri.amap.com/marker?position=112.341442,30.354590&name=%E5%85%BD%E5%8C%BB%E7%AB%99&src=vetmap&coordinate=gaode&callnative=1","route_id":"r1","route_name":"第1段"},{"name":"超爱动物医院","address":"立新街道明珠大道吾悦华府17-D109","phone":"13886606947","category":"医疗保健服务;动物医疗场所;宠物诊所","area":"","lng":112.268337,"lat":30.329925,"amap_id":"B0KUKN0MYK","order":3,"prev_distance_km":7.532,"cumulative_distance_km":12.358,"amap_marker_url":"https://uri.amap.com/marker?position=112.268337,30.329925&name=%E8%B6%85%E7%88%B1%E5%8A%A8%E7%89%A9%E5%8C%BB%E9%99%A2&src=vetmap&coordinate=gaode&callnative=1","route_id":"r1","route_name":"第1段"},{"name":"酷特宠物中心医院朗园分院","address":"明珠大道8号","phone":"0716-8434200;15090821055","category":"医疗保健服务;动物医疗场所;宠物诊所","area":"","lng":112.254071,"lat":30.34009,"amap_id":"B0FFJKZP3T","order":4,"prev_distance_km":1.775,"cumulative_distance_km":14.134,"amap_marker_url":"https://uri.amap.com/marker?position=112.254071,30.340090&name=%E9%85%B7%E7%89%B9%E5%AE%A0%E7%89%A9%E4%B8%AD%E5%BF%83%E5%8C%BB%E9%99%A2%E6%9C%97%E5%9B%AD%E5%88%86%E9%99%A2&src=vetmap&coordinate=gaode&callnative=1","route_id":"r1","route_name":"第1段"},{"name":"咔咔中心动物医院(新天地店)","address":"西干渠路新天地114号商铺","phone":"18986653275","category":"医疗保健服务;动物医疗场所;宠物诊所","area":"塔桥路","lng":112.251646,"lat":30.334586,"amap_id":"B0L6USY4ZL","order":5,"prev_distance_km":0.655,"cumulative_distance_km":14.788,"amap_marker_url":"https://uri.amap.com/marker?position=112.251646,30.334586&name=%E5%92%94%E5%92%94%E4%B8%AD%E5%BF%83%E5%8A%A8%E7%89%A9%E5%8C%BB%E9%99%A2%28%E6%96%B0%E5%A4%A9%E5%9C%B0%E5%BA%97%29&src=vetmap&coordinate=gaode&callnative=1","route_id":"r1","route_name":"第1段"},{"name":"佳德宠物医院—24小时急诊","address":"立新乡塔桥北路88号塔桥花园","phone":"0716-8877099;13317219192","category":"医疗保健服务;动物医疗场所;宠物诊所","area":"","lng":112.248441,"lat":30.336756,"amap_id":"B0FFKI2FO0","order":6,"prev_distance_km":0.391,"cumulative_distance_km":15.179,"amap_marker_url":"https://uri.amap.com/marker?position=112.248441,30.336756&name=%E4%BD%B3%E5%BE%B7%E5%AE%A0%E7%89%A9%E5%8C%BB%E9%99%A2%E2%80%9424%E5%B0%8F%E6%97%B6%E6%80%A5%E8%AF%8A&src=vetmap&coordinate=gaode&callnative=1","route_id":"r1","route_name":"第1段"},{"name":"锦麟宠物(新城国际店)","address":"立新街道新城国际3期40B栋09号","phone":"19371011533","category":"医疗保健服务;动物医疗场所;动物医疗场所","area":"武德路","lng":112.23477,"lat":30.348278,"amap_id":"B0LU4ML3YL","order":7,"prev_distance_km":1.834,"cumulative_distance_km":17.013,"amap_marker_url":"https://uri.amap.com/marker?position=112.234770,30.348278&name=%E9%94%A6%E9%BA%9F%E5%AE%A0%E7%89%A9%28%E6%96%B0%E5%9F%8E%E5%9B%BD%E9%99%85%E5%BA%97%29&src=vetmap&coordinate=gaode&callnative=1","route_id":"r1","route_name":"第1段"},{"name":"宠医森中西医结合门诊部","address":"新加坡城国际五期61栋A1-2层一号北湖冷库草市方向往前50米","phone":"18672683970","category":"医疗保健服务;动物医疗场所;宠物诊所","area":"武德路","lng":112.233343,"lat":30.346922,"amap_id":"B0I6VR6T23","order":8,"prev_distance_km":0.204,"cumulative_distance_km":17.217,"amap_marker_url":"https://uri.amap.com/marker?position=112.233343,30.346922&name=%E5%AE%A0%E5%8C%BB%E6%A3%AE%E4%B8%AD%E8%A5%BF%E5%8C%BB%E7%BB%93%E5%90%88%E9%97%A8%E8%AF%8A%E9%83%A8&src=vetmap&coordinate=gaode&callnative=1","route_id":"r1","route_name":"第1段"},{"name":"馨爱宠物医院","address":"武德路新城国际三期105号","phone":"0716-8887668;13872387410","category":"医疗保健服务;动物医疗场所;宠物诊所","area":"武德路","lng":112.233087,"lat":30.345218,"amap_id":"B0FFKE9HRS","order":9,"prev_distance_km":0.191,"cumulative_distance_km":17.408,"amap_marker_url":"https://uri.amap.com/marker?position=112.233087,30.345218&name=%E9%A6%A8%E7%88%B1%E5%AE%A0%E7%89%A9%E5%8C%BB%E9%99%A2&src=vetmap&coordinate=gaode&callnative=1","route_id":"r1","route_name":"第1段"},{"name":"沙市区煜宠活体宠物服务中心","address":"武德路21号","phone":"15927833603","category":"医疗保健服务;动物医疗场所;宠物诊所","area":"武德路","lng":112.229879,"lat":30.341074,"amap_id":"B0I3FLXXNJ","order":10,"prev_distance_km":0.554,"cumulative_distance_km":17.962,"amap_marker_url":"https://uri.amap.com/marker?position=112.229879,30.341074&name=%E6%B2%99%E5%B8%82%E5%8C%BA%E7%85%9C%E5%AE%A0%E6%B4%BB%E4%BD%93%E5%AE%A0%E7%89%A9%E6%9C%8D%E5%8A%A1%E4%B8%AD%E5%BF%83&src=vetmap&coordinate=gaode&callnative=1","route_id":"r1","route_name":"第1段"},{"name":"小乐狗宠物诊所","address":"武德路与江津西路交叉口西南220米","phone":"","category":"医疗保健服务;动物医疗场所;宠物诊所","area":"武德路","lng":112.229692,"lat":30.340957,"amap_id":"B0L1XUR5W8","order":11,"prev_distance_km":0.022,"cumulative_distance_km":17.984,"amap_marker_url":"https://uri.amap.com/marker?position=112.229692,30.340957&name=%E5%B0%8F%E4%B9%90%E7%8B%97%E5%AE%A0%E7%89%A9%E8%AF%8A%E6%89%80&src=vetmap&coordinate=gaode&callnative=1","route_id":"r1","route_name":"第1段"},{"name":"文湖动物医院","address":"共青路与工青三巷交叉口东160米","phone":"","category":"医疗保健服务;动物医疗场所;宠物诊所","area":"","lng":112.228527,"lat":30.334311,"amap_id":"B0M62HVL9Q","order":12,"prev_distance_km":0.747,"cumulative_distance_km":18.731,"amap_marker_url":"https://uri.amap.com/marker?position=112.228527,30.334311&name=%E6%96%87%E6%B9%96%E5%8A%A8%E7%89%A9%E5%8C%BB%E9%99%A2&src=vetmap&coordinate=gaode&callnative=1","route_id":"r1","route_name":"第1段"},{"name":"北江宠物诊疗中心","address":"太岳路与金龙路交叉口桥北收费站西北侧","phone":"0716-8270588;18186561293","category":"医疗保健服务;动物医疗场所;宠物诊所","area":"太岳路","lng":112.22722,"lat":30.328859,"amap_id":"B0FFKFFIMF","order":13,"prev_distance_km":0.619,"cumulative_distance_km":19.351,"amap_marker_url":"https://uri.amap.com/marker?position=112.227220,30.328859&name=%E5%8C%97%E6%B1%9F%E5%AE%A0%E7%89%A9%E8%AF%8A%E7%96%97%E4%B8%AD%E5%BF%83&src=vetmap&coordinate=gaode&callnative=1","route_id":"r1","route_name":"第1段"},{"name":"好爱宠物医院","address":"北京西路白云绿水小区门面","phone":"17720380984","category":"医疗保健服务;动物医疗场所;宠物诊所","area":"","lng":112.235842,"lat":30.326867,"amap_id":"B0FFH70D7Z","order":14,"prev_distance_km":0.857,"cumulative_distance_km":20.207,"amap_marker_url":"https://uri.amap.com/marker?position=112.235842,30.326867&name=%E5%A5%BD%E7%88%B1%E5%AE%A0%E7%89%A9%E5%8C%BB%E9%99%A2&src=vetmap&coordinate=gaode&callnative=1","route_id":"r1","route_name":"第1段"},{"name":"文湖动物诊所","address":"北湖路3号北湖紫晶城小区1-113号","phone":"0716-8808081;18062969918","category":"医疗保健服务;动物医疗场所;宠物诊所","area":"","lng":112.239568,"lat":30.327272,"amap_id":"B0FFHEWAH1","order":15,"prev_distance_km":0.36,"cumulative_distance_km":20.568,"amap_marker_url":"https://uri.amap.com/marker?position=112.239568,30.327272&name=%E6%96%87%E6%B9%96%E5%8A%A8%E7%89%A9%E8%AF%8A%E6%89%80&src=vetmap&coordinate=gaode&callnative=1","route_id":"r1","route_name":"第1段"},{"name":"荆州福心宠物医院","address":"长港路109-11号福利院对面","phone":"","category":"医疗保健服务;动物医疗场所;宠物诊所","area":"塔桥路","lng":112.248126,"lat":30.326837,"amap_id":"B0FFH72790","order":16,"prev_distance_km":0.823,"cumulative_distance_km":21.39,"amap_marker_url":"https://uri.amap.com/marker?position=112.248126,30.326837&name=%E8%8D%86%E5%B7%9E%E7%A6%8F%E5%BF%83%E5%AE%A0%E7%89%A9%E5%8C%BB%E9%99%A2&src=vetmap&coordinate=gaode&callnative=1","route_id":"r1","route_name":"第1段"},{"name":"琪琪宠物医院","address":"白云路津星花园九号琪琪宠物医疗","phone":"19986766880","category":"医疗保健服务;动物医疗场所;宠物诊所","area":"大庆路","lng":112.236799,"lat":30.323704,"amap_id":"B0IK6AFKFT","order":17,"prev_distance_km":1.142,"cumulative_distance_km":22.532,"amap_marker_url":"https://uri.amap.com/marker?position=112.236799,30.323704&name=%E7%90%AA%E7%90%AA%E5%AE%A0%E7%89%A9%E5%8C%BB%E9%99%A2&src=vetmap&coordinate=gaode&callnative=1","route_id":"r1","route_name":"第1段"},{"name":"金星宠物诊所(北京西路分店)","address":"北京西路3号","phone":"15927700518","category":"医疗保健服务;动物医疗场所;宠物诊所","area":"","lng":112.238938,"lat":30.320202,"amap_id":"B0FFFOENK4","order":18,"prev_distance_km":0.44,"cumulative_distance_km":22.972,"amap_marker_url":"https://uri.amap.com/marker?position=112.238938,30.320202&name=%E9%87%91%E6%98%9F%E5%AE%A0%E7%89%A9%E8%AF%8A%E6%89%80%28%E5%8C%97%E4%BA%AC%E8%A5%BF%E8%B7%AF%E5%88%86%E5%BA%97%29&src=vetmap&coordinate=gaode&callnative=1","route_id":"r1","route_name":"第1段"},{"name":"五一路小黑宠物门诊","address":"新沙路20-6号","phone":"13872223737","category":"医疗保健服务;动物医疗场所;宠物诊所","area":"北京中路","lng":112.242789,"lat":30.310643,"amap_id":"B0FFJ1QO37","order":19,"prev_distance_km":1.125,"cumulative_distance_km":24.098,"amap_marker_url":"https://uri.amap.com/marker?position=112.242789,30.310643&name=%E4%BA%94%E4%B8%80%E8%B7%AF%E5%B0%8F%E9%BB%91%E5%AE%A0%E7%89%A9%E9%97%A8%E8%AF%8A&src=vetmap&coordinate=gaode&callnative=1","route_id":"r1","route_name":"第1段"},{"name":"康佑宠物医疗中心","address":"北京中路358号长江商城一栋一层9号","phone":"","category":"医疗保健服务;动物医疗场所;宠物诊所","area":"北京中路","lng":112.244461,"lat":30.311479,"amap_id":"B0J3RU28W6","order":20,"prev_distance_km":0.185,"cumulative_distance_km":24.283,"amap_marker_url":"https://uri.amap.com/marker?position=112.244461,30.311479&name=%E5%BA%B7%E4%BD%91%E5%AE%A0%E7%89%A9%E5%8C%BB%E7%96%97%E4%B8%AD%E5%BF%83&src=vetmap&coordinate=gaode&callnative=1","route_id":"r1","route_name":"第1段"},{"name":"美派宠物医院","address":"江津中路235号","phone":"13972316087","category":"医疗保健服务;动物医疗场所;宠物诊所","area":"园林路","lng":112.255665,"lat":30.318517,"amap_id":"B0FFHFV5KE","order":21,"prev_distance_km":1.33,"cumulative_distance_km":25.613,"amap_marker_url":"https://uri.amap.com/marker?position=112.255665,30.318517&name=%E7%BE%8E%E6%B4%BE%E5%AE%A0%E7%89%A9%E5%8C%BB%E9%99%A2&src=vetmap&coordinate=gaode&callnative=1","route_id":"r1","route_name":"第1段"},{"name":"五星宠物医院","address":"江津中路210-5号附近","phone":"13872293623","category":"医疗保健服务;动物医疗场所;宠物诊所","area":"江津路","lng":112.260464,"lat":30.314998,"amap_id":"B0FFJPDXD5","order":22,"prev_distance_km":0.604,"cumulative_distance_km":26.218,"amap_marker_url":"https://uri.amap.com/marker?position=112.260464,30.314998&name=%E4%BA%94%E6%98%9F%E5%AE%A0%E7%89%A9%E5%8C%BB%E9%99%A2&src=vetmap&coordinate=gaode&callnative=1","route_id":"r1","route_name":"第1段"},{"name":"五星宠物医院","address":"香榭丽都东北门西北50米","phone":"","category":"医疗保健服务;动物医疗场所;宠物诊所","area":"江汉北路","lng":112.260625,"lat":30.314925,"amap_id":"B0LBL1RR1R","order":23,"prev_distance_km":0.017,"cumulative_distance_km":26.235,"amap_marker_url":"https://uri.amap.com/marker?position=112.260625,30.314925&name=%E4%BA%94%E6%98%9F%E5%AE%A0%E7%89%A9%E5%8C%BB%E9%99%A2&src=vetmap&coordinate=gaode&callnative=1","route_id":"r1","route_name":"第1段"},{"name":"科道动物医院(江津中路分院)","address":"红门路62-1号","phone":"0716-8323110;13349743885","category":"医疗保健服务;动物医疗场所;宠物诊所","area":"江津路","lng":112.263418,"lat":30.313806,"amap_id":"B0IDFCW9TH","order":24,"prev_distance_km":0.296,"cumulative_distance_km":26.531,"amap_marker_url":"https://uri.amap.com/marker?position=112.263418,30.313806&name=%E7%A7%91%E9%81%93%E5%8A%A8%E7%89%A9%E5%8C%BB%E9%99%A2%28%E6%B1%9F%E6%B4%A5%E4%B8%AD%E8%B7%AF%E5%88%86%E9%99%A2%29&src=vetmap&coordinate=gaode&callnative=1","route_id":"r1","route_name":"第1段"},{"name":"欧星宠物诊所","address":"红星路31号芳林苑小区3号楼","phone":"15927991866","category":"医疗保健服务;动物医疗场所;宠物诊所","area":"红星路","lng":112.270893,"lat":30.309645,"amap_id":"B0FFI8N958","order":25,"prev_distance_km":0.854,"cumulative_distance_km":27.384,"amap_marker_url":"https://uri.amap.com/marker?position=112.270893,30.309645&name=%E6%AC%A7%E6%98%9F%E5%AE%A0%E7%89%A9%E8%AF%8A%E6%89%80&src=vetmap&coordinate=gaode&callnative=1","route_id":"r1","route_name":"第1段"},{"name":"荆州市宠物中心门诊","address":"红星路","phone":"15872107841","category":"医疗保健服务;动物医疗场所;宠物诊所","area":"北京东路","lng":112.267394,"lat":30.304122,"amap_id":"B0L6KM2Q8E","order":26,"prev_distance_km":0.7,"cumulative_distance_km":28.084,"amap_marker_url":"https://uri.amap.com/marker?position=112.267394,30.304122&name=%E8%8D%86%E5%B7%9E%E5%B8%82%E5%AE%A0%E7%89%A9%E4%B8%AD%E5%BF%83%E9%97%A8%E8%AF%8A&src=vetmap&coordinate=gaode&callnative=1","route_id":"r1","route_name":"第1段"},{"name":"宠物中星门诊","address":"红星北路与北京路交叉口","phone":"0716-3188683;15872126417","category":"医疗保健服务;动物医疗场所;宠物诊所","area":"北京中路","lng":112.267461,"lat":30.304108,"amap_id":"B0FFGWOZT3","order":27,"prev_distance_km":0.007,"cumulative_distance_km":28.091,"amap_marker_url":"https://uri.amap.com/marker?position=112.267461,30.304108&name=%E5%AE%A0%E7%89%A9%E4%B8%AD%E6%98%9F%E9%97%A8%E8%AF%8A&src=vetmap&coordinate=gaode&callnative=1","route_id":"r1","route_name":"第1段"},{"name":"斯为特宠物诊疗中心","address":"北京东路149-4号门面","phone":"15272647952","category":"医疗保健服务;动物医疗场所;宠物诊所","area":"朝阳","lng":112.273334,"lat":30.299267,"amap_id":"B0J06UOZ41","order":28,"prev_distance_km":0.78,"cumulative_distance_km":28.871,"amap_marker_url":"https://uri.amap.com/marker?position=112.273334,30.299267&name=%E6%96%AF%E4%B8%BA%E7%89%B9%E5%AE%A0%E7%89%A9%E8%AF%8A%E7%96%97%E4%B8%AD%E5%BF%83&src=vetmap&coordinate=gaode&callnative=1","route_id":"r1","route_name":"第1段"},{"name":"宠物门诊","address":"枫华居东南2门旁","phone":"15826634911","category":"医疗保健服务;动物医疗场所;宠物诊所","area":"江津路","lng":112.287338,"lat":30.295825,"amap_id":"B0FFGFR4JA","order":29,"prev_distance_km":1.398,"cumulative_distance_km":30.268,"amap_marker_url":"https://uri.amap.com/marker?position=112.287338,30.295825&name=%E5%AE%A0%E7%89%A9%E9%97%A8%E8%AF%8A&src=vetmap&coordinate=gaode&callnative=1","route_id":"r1","route_name":"第1段"}]}],"rows":[{"name":"兽医站门诊","address":"318国道与碧波街交叉口东240米","phone":"","category":"医疗保健服务;动物医疗场所;兽医站","area":"","lng":112.390974,"lat":30.362117,"amap_id":"B0I2FHM789","order":1,"prev_distance_km":0.0,"cumulative_distance_km":0.0,"amap_marker_url":"https://uri.amap.com/marker?position=112.390974,30.362117&name=%E5%85%BD%E5%8C%BB%E7%AB%99%E9%97%A8%E8%AF%8A&src=vetmap&coordinate=gaode&callnative=1","route_id":"r1","route_name":"第1段","global_order":1},{"name":"兽医站","address":"318国道与五支渠路交叉口西380米","phone":"","category":"医疗保健服务;动物医疗场所;兽医站","area":"锣场","lng":112.341442,"lat":30.35459,"amap_id":"B0LUDRCA8M","order":2,"prev_distance_km":4.826,"cumulative_distance_km":4.826,"amap_marker_url":"https://uri.amap.com/marker?position=112.341442,30.354590&name=%E5%85%BD%E5%8C%BB%E7%AB%99&src=vetmap&coordinate=gaode&callnative=1","route_id":"r1","route_name":"第1段","global_order":2},{"name":"超爱动物医院","address":"立新街道明珠大道吾悦华府17-D109","phone":"13886606947","category":"医疗保健服务;动物医疗场所;宠物诊所","area":"","lng":112.268337,"lat":30.329925,"amap_id":"B0KUKN0MYK","order":3,"prev_distance_km":7.532,"cumulative_distance_km":12.358,"amap_marker_url":"https://uri.amap.com/marker?position=112.268337,30.329925&name=%E8%B6%85%E7%88%B1%E5%8A%A8%E7%89%A9%E5%8C%BB%E9%99%A2&src=vetmap&coordinate=gaode&callnative=1","route_id":"r1","route_name":"第1段","global_order":3},{"name":"酷特宠物中心医院朗园分院","address":"明珠大道8号","phone":"0716-8434200;15090821055","category":"医疗保健服务;动物医疗场所;宠物诊所","area":"","lng":112.254071,"lat":30.34009,"amap_id":"B0FFJKZP3T","order":4,"prev_distance_km":1.775,"cumulative_distance_km":14.134,"amap_marker_url":"https://uri.amap.com/marker?position=112.254071,30.340090&name=%E9%85%B7%E7%89%B9%E5%AE%A0%E7%89%A9%E4%B8%AD%E5%BF%83%E5%8C%BB%E9%99%A2%E6%9C%97%E5%9B%AD%E5%88%86%E9%99%A2&src=vetmap&coordinate=gaode&callnative=1","route_id":"r1","route_name":"第1段","global_order":4},{"name":"咔咔中心动物医院(新天地店)","address":"西干渠路新天地114号商铺","phone":"18986653275","category":"医疗保健服务;动物医疗场所;宠物诊所","area":"塔桥路","lng":112.251646,"lat":30.334586,"amap_id":"B0L6USY4ZL","order":5,"prev_distance_km":0.655,"cumulative_distance_km":14.788,"amap_marker_url":"https://uri.amap.com/marker?position=112.251646,30.334586&name=%E5%92%94%E5%92%94%E4%B8%AD%E5%BF%83%E5%8A%A8%E7%89%A9%E5%8C%BB%E9%99%A2%28%E6%96%B0%E5%A4%A9%E5%9C%B0%E5%BA%97%29&src=vetmap&coordinate=gaode&callnative=1","route_id":"r1","route_name":"第1段","global_order":5},{"name":"佳德宠物医院—24小时急诊","address":"立新乡塔桥北路88号塔桥花园","phone":"0716-8877099;13317219192","category":"医疗保健服务;动物医疗场所;宠物诊所","area":"","lng":112.248441,"lat":30.336756,"amap_id":"B0FFKI2FO0","order":6,"prev_distance_km":0.391,"cumulative_distance_km":15.179,"amap_marker_url":"https://uri.amap.com/marker?position=112.248441,30.336756&name=%E4%BD%B3%E5%BE%B7%E5%AE%A0%E7%89%A9%E5%8C%BB%E9%99%A2%E2%80%9424%E5%B0%8F%E6%97%B6%E6%80%A5%E8%AF%8A&src=vetmap&coordinate=gaode&callnative=1","route_id":"r1","route_name":"第1段","global_order":6},{"name":"锦麟宠物(新城国际店)","address":"立新街道新城国际3期40B栋09号","phone":"19371011533","category":"医疗保健服务;动物医疗场所;动物医疗场所","area":"武德路","lng":112.23477,"lat":30.348278,"amap_id":"B0LU4ML3YL","order":7,"prev_distance_km":1.834,"cumulative_distance_km":17.013,"amap_marker_url":"https://uri.amap.com/marker?position=112.234770,30.348278&name=%E9%94%A6%E9%BA%9F%E5%AE%A0%E7%89%A9%28%E6%96%B0%E5%9F%8E%E5%9B%BD%E9%99%85%E5%BA%97%29&src=vetmap&coordinate=gaode&callnative=1","route_id":"r1","route_name":"第1段","global_order":7},{"name":"宠医森中西医结合门诊部","address":"新加坡城国际五期61栋A1-2层一号北湖冷库草市方向往前50米","phone":"18672683970","category":"医疗保健服务;动物医疗场所;宠物诊所","area":"武德路","lng":112.233343,"lat":30.346922,"amap_id":"B0I6VR6T23","order":8,"prev_distance_km":0.204,"cumulative_distance_km":17.217,"amap_marker_url":"https://uri.amap.com/marker?position=112.233343,30.346922&name=%E5%AE%A0%E5%8C%BB%E6%A3%AE%E4%B8%AD%E8%A5%BF%E5%8C%BB%E7%BB%93%E5%90%88%E9%97%A8%E8%AF%8A%E9%83%A8&src=vetmap&coordinate=gaode&callnative=1","route_id":"r1","route_name":"第1段","global_order":8},{"name":"馨爱宠物医院","address":"武德路新城国际三期105号","phone":"0716-8887668;13872387410","category":"医疗保健服务;动物医疗场所;宠物诊所","area":"武德路","lng":112.233087,"lat":30.345218,"amap_id":"B0FFKE9HRS","order":9,"prev_distance_km":0.191,"cumulative_distance_km":17.408,"amap_marker_url":"https://uri.amap.com/marker?position=112.233087,30.345218&name=%E9%A6%A8%E7%88%B1%E5%AE%A0%E7%89%A9%E5%8C%BB%E9%99%A2&src=vetmap&coordinate=gaode&callnative=1","route_id":"r1","route_name":"第1段","global_order":9},{"name":"沙市区煜宠活体宠物服务中心","address":"武德路21号","phone":"15927833603","category":"医疗保健服务;动物医疗场所;宠物诊所","area":"武德路","lng":112.229879,"lat":30.341074,"amap_id":"B0I3FLXXNJ","order":10,"prev_distance_km":0.554,"cumulative_distance_km":17.962,"amap_marker_url":"https://uri.amap.com/marker?position=112.229879,30.341074&name=%E6%B2%99%E5%B8%82%E5%8C%BA%E7%85%9C%E5%AE%A0%E6%B4%BB%E4%BD%93%E5%AE%A0%E7%89%A9%E6%9C%8D%E5%8A%A1%E4%B8%AD%E5%BF%83&src=vetmap&coordinate=gaode&callnative=1","route_id":"r1","route_name":"第1段","global_order":10},{"name":"小乐狗宠物诊所","address":"武德路与江津西路交叉口西南220米","phone":"","category":"医疗保健服务;动物医疗场所;宠物诊所","area":"武德路","lng":112.229692,"lat":30.340957,"amap_id":"B0L1XUR5W8","order":11,"prev_distance_km":0.022,"cumulative_distance_km":17.984,"amap_marker_url":"https://uri.amap.com/marker?position=112.229692,30.340957&name=%E5%B0%8F%E4%B9%90%E7%8B%97%E5%AE%A0%E7%89%A9%E8%AF%8A%E6%89%80&src=vetmap&coordinate=gaode&callnative=1","route_id":"r1","route_name":"第1段","global_order":11},{"name":"文湖动物医院","address":"共青路与工青三巷交叉口东160米","phone":"","category":"医疗保健服务;动物医疗场所;宠物诊所","area":"","lng":112.228527,"lat":30.334311,"amap_id":"B0M62HVL9Q","order":12,"prev_distance_km":0.747,"cumulative_distance_km":18.731,"amap_marker_url":"https://uri.amap.com/marker?position=112.228527,30.334311&name=%E6%96%87%E6%B9%96%E5%8A%A8%E7%89%A9%E5%8C%BB%E9%99%A2&src=vetmap&coordinate=gaode&callnative=1","route_id":"r1","route_name":"第1段","global_order":12},{"name":"北江宠物诊疗中心","address":"太岳路与金龙路交叉口桥北收费站西北侧","phone":"0716-8270588;18186561293","category":"医疗保健服务;动物医疗场所;宠物诊所","area":"太岳路","lng":112.22722,"lat":30.328859,"amap_id":"B0FFKFFIMF","order":13,"prev_distance_km":0.619,"cumulative_distance_km":19.351,"amap_marker_url":"https://uri.amap.com/marker?position=112.227220,30.328859&name=%E5%8C%97%E6%B1%9F%E5%AE%A0%E7%89%A9%E8%AF%8A%E7%96%97%E4%B8%AD%E5%BF%83&src=vetmap&coordinate=gaode&callnative=1","route_id":"r1","route_name":"第1段","global_order":13},{"name":"好爱宠物医院","address":"北京西路白云绿水小区门面","phone":"17720380984","category":"医疗保健服务;动物医疗场所;宠物诊所","area":"","lng":112.235842,"lat":30.326867,"amap_id":"B0FFH70D7Z","order":14,"prev_distance_km":0.857,"cumulative_distance_km":20.207,"amap_marker_url":"https://uri.amap.com/marker?position=112.235842,30.326867&name=%E5%A5%BD%E7%88%B1%E5%AE%A0%E7%89%A9%E5%8C%BB%E9%99%A2&src=vetmap&coordinate=gaode&callnative=1","route_id":"r1","route_name":"第1段","global_order":14},{"name":"文湖动物诊所","address":"北湖路3号北湖紫晶城小区1-113号","phone":"0716-8808081;18062969918","category":"医疗保健服务;动物医疗场所;宠物诊所","area":"","lng":112.239568,"lat":30.327272,"amap_id":"B0FFHEWAH1","order":15,"prev_distance_km":0.36,"cumulative_distance_km":20.568,"amap_marker_url":"https://uri.amap.com/marker?position=112.239568,30.327272&name=%E6%96%87%E6%B9%96%E5%8A%A8%E7%89%A9%E8%AF%8A%E6%89%80&src=vetmap&coordinate=gaode&callnative=1","route_id":"r1","route_name":"第1段","global_order":15},{"name":"荆州福心宠物医院","address":"长港路109-11号福利院对面","phone":"","category":"医疗保健服务;动物医疗场所;宠物诊所","area":"塔桥路","lng":112.248126,"lat":30.326837,"amap_id":"B0FFH72790","order":16,"prev_distance_km":0.823,"cumulative_distance_km":21.39,"amap_marker_url":"https://uri.amap.com/marker?position=112.248126,30.326837&name=%E8%8D%86%E5%B7%9E%E7%A6%8F%E5%BF%83%E5%AE%A0%E7%89%A9%E5%8C%BB%E9%99%A2&src=vetmap&coordinate=gaode&callnative=1","route_id":"r1","route_name":"第1段","global_order":16},{"name":"琪琪宠物医院","address":"白云路津星花园九号琪琪宠物医疗","phone":"19986766880","category":"医疗保健服务;动物医疗场所;宠物诊所","area":"大庆路","lng":112.236799,"lat":30.323704,"amap_id":"B0IK6AFKFT","order":17,"prev_distance_km":1.142,"cumulative_distance_km":22.532,"amap_marker_url":"https://uri.amap.com/marker?position=112.236799,30.323704&name=%E7%90%AA%E7%90%AA%E5%AE%A0%E7%89%A9%E5%8C%BB%E9%99%A2&src=vetmap&coordinate=gaode&callnative=1","route_id":"r1","route_name":"第1段","global_order":17},{"name":"金星宠物诊所(北京西路分店)","address":"北京西路3号","phone":"15927700518","category":"医疗保健服务;动物医疗场所;宠物诊所","area":"","lng":112.238938,"lat":30.320202,"amap_id":"B0FFFOENK4","order":18,"prev_distance_km":0.44,"cumulative_distance_km":22.972,"amap_marker_url":"https://uri.amap.com/marker?position=112.238938,30.320202&name=%E9%87%91%E6%98%9F%E5%AE%A0%E7%89%A9%E8%AF%8A%E6%89%80%28%E5%8C%97%E4%BA%AC%E8%A5%BF%E8%B7%AF%E5%88%86%E5%BA%97%29&src=vetmap&coordinate=gaode&callnative=1","route_id":"r1","route_name":"第1段","global_order":18},{"name":"五一路小黑宠物门诊","address":"新沙路20-6号","phone":"13872223737","category":"医疗保健服务;动物医疗场所;宠物诊所","area":"北京中路","lng":112.242789,"lat":30.310643,"amap_id":"B0FFJ1QO37","order":19,"prev_distance_km":1.125,"cumulative_distance_km":24.098,"amap_marker_url":"https://uri.amap.com/marker?position=112.242789,30.310643&name=%E4%BA%94%E4%B8%80%E8%B7%AF%E5%B0%8F%E9%BB%91%E5%AE%A0%E7%89%A9%E9%97%A8%E8%AF%8A&src=vetmap&coordinate=gaode&callnative=1","route_id":"r1","route_name":"第1段","global_order":19},{"name":"康佑宠物医疗中心","address":"北京中路358号长江商城一栋一层9号","phone":"","category":"医疗保健服务;动物医疗场所;宠物诊所","area":"北京中路","lng":112.244461,"lat":30.311479,"amap_id":"B0J3RU28W6","order":20,"prev_distance_km":0.185,"cumulative_distance_km":24.283,"amap_marker_url":"https://uri.amap.com/marker?position=112.244461,30.311479&name=%E5%BA%B7%E4%BD%91%E5%AE%A0%E7%89%A9%E5%8C%BB%E7%96%97%E4%B8%AD%E5%BF%83&src=vetmap&coordinate=gaode&callnative=1","route_id":"r1","route_name":"第1段","global_order":20},{"name":"美派宠物医院","address":"江津中路235号","phone":"13972316087","category":"医疗保健服务;动物医疗场所;宠物诊所","area":"园林路","lng":112.255665,"lat":30.318517,"amap_id":"B0FFHFV5KE","order":21,"prev_distance_km":1.33,"cumulative_distance_km":25.613,"amap_marker_url":"https://uri.amap.com/marker?position=112.255665,30.318517&name=%E7%BE%8E%E6%B4%BE%E5%AE%A0%E7%89%A9%E5%8C%BB%E9%99%A2&src=vetmap&coordinate=gaode&callnative=1","route_id":"r1","route_name":"第1段","global_order":21},{"name":"五星宠物医院","address":"江津中路210-5号附近","phone":"13872293623","category":"医疗保健服务;动物医疗场所;宠物诊所","area":"江津路","lng":112.260464,"lat":30.314998,"amap_id":"B0FFJPDXD5","order":22,"prev_distance_km":0.604,"cumulative_distance_km":26.218,"amap_marker_url":"https://uri.amap.com/marker?position=112.260464,30.314998&name=%E4%BA%94%E6%98%9F%E5%AE%A0%E7%89%A9%E5%8C%BB%E9%99%A2&src=vetmap&coordinate=gaode&callnative=1","route_id":"r1","route_name":"第1段","global_order":22},{"name":"五星宠物医院","address":"香榭丽都东北门西北50米","phone":"","category":"医疗保健服务;动物医疗场所;宠物诊所","area":"江汉北路","lng":112.260625,"lat":30.314925,"amap_id":"B0LBL1RR1R","order":23,"prev_distance_km":0.017,"cumulative_distance_km":26.235,"amap_marker_url":"https://uri.amap.com/marker?position=112.260625,30.314925&name=%E4%BA%94%E6%98%9F%E5%AE%A0%E7%89%A9%E5%8C%BB%E9%99%A2&src=vetmap&coordinate=gaode&callnative=1","route_id":"r1","route_name":"第1段","global_order":23},{"name":"科道动物医院(江津中路分院)","address":"红门路62-1号","phone":"0716-8323110;13349743885","category":"医疗保健服务;动物医疗场所;宠物诊所","area":"江津路","lng":112.263418,"lat":30.313806,"amap_id":"B0IDFCW9TH","order":24,"prev_distance_km":0.296,"cumulative_distance_km":26.531,"amap_marker_url":"https://uri.amap.com/marker?position=112.263418,30.313806&name=%E7%A7%91%E9%81%93%E5%8A%A8%E7%89%A9%E5%8C%BB%E9%99%A2%28%E6%B1%9F%E6%B4%A5%E4%B8%AD%E8%B7%AF%E5%88%86%E9%99%A2%29&src=vetmap&coordinate=gaode&callnative=1","route_id":"r1","route_name":"第1段","global_order":24},{"name":"欧星宠物诊所","address":"红星路31号芳林苑小区3号楼","phone":"15927991866","category":"医疗保健服务;动物医疗场所;宠物诊所","area":"红星路","lng":112.270893,"lat":30.309645,"amap_id":"B0FFI8N958","order":25,"prev_distance_km":0.854,"cumulative_distance_km":27.384,"amap_marker_url":"https://uri.amap.com/marker?position=112.270893,30.309645&name=%E6%AC%A7%E6%98%9F%E5%AE%A0%E7%89%A9%E8%AF%8A%E6%89%80&src=vetmap&coordinate=gaode&callnative=1","route_id":"r1","route_name":"第1段","global_order":25},{"name":"荆州市宠物中心门诊","address":"红星路","phone":"15872107841","category":"医疗保健服务;动物医疗场所;宠物诊所","area":"北京东路","lng":112.267394,"lat":30.304122,"amap_id":"B0L6KM2Q8E","order":26,"prev_distance_km":0.7,"cumulative_distance_km":28.084,"amap_marker_url":"https://uri.amap.com/marker?position=112.267394,30.304122&name=%E8%8D%86%E5%B7%9E%E5%B8%82%E5%AE%A0%E7%89%A9%E4%B8%AD%E5%BF%83%E9%97%A8%E8%AF%8A&src=vetmap&coordinate=gaode&callnative=1","route_id":"r1","route_name":"第1段","global_order":26},{"name":"宠物中星门诊","address":"红星北路与北京路交叉口","phone":"0716-3188683;15872126417","category":"医疗保健服务;动物医疗场所;宠物诊所","area":"北京中路","lng":112.267461,"lat":30.304108,"amap_id":"B0FFGWOZT3","order":27,"prev_distance_km":0.007,"cumulative_distance_km":28.091,"amap_marker_url":"https://uri.amap.com/marker?position=112.267461,30.304108&name=%E5%AE%A0%E7%89%A9%E4%B8%AD%E6%98%9F%E9%97%A8%E8%AF%8A&src=vetmap&coordinate=gaode&callnative=1","route_id":"r1","route_name":"第1段","global_order":27},{"name":"斯为特宠物诊疗中心","address":"北京东路149-4号门面","phone":"15272647952","category":"医疗保健服务;动物医疗场所;宠物诊所","area":"朝阳","lng":112.273334,"lat":30.299267,"amap_id":"B0J06UOZ41","order":28,"prev_distance_km":0.78,"cumulative_distance_km":28.871,"amap_marker_url":"https://uri.amap.com/marker?position=112.273334,30.299267&name=%E6%96%AF%E4%B8%BA%E7%89%B9%E5%AE%A0%E7%89%A9%E8%AF%8A%E7%96%97%E4%B8%AD%E5%BF%83&src=vetmap&coordinate=gaode&callnative=1","route_id":"r1","route_name":"第1段","global_order":28},{"name":"宠物门诊","address":"枫华居东南2门旁","phone":"15826634911","category":"医疗保健服务;动物医疗场所;宠物诊所","area":"江津路","lng":112.287338,"lat":30.295825,"amap_id":"B0FFGFR4JA","order":29,"prev_distance_km":1.398,"cumulative_distance_km":30.268,"amap_marker_url":"https://uri.amap.com/marker?position=112.287338,30.295825&name=%E5%AE%A0%E7%89%A9%E9%97%A8%E8%AF%8A&src=vetmap&coordinate=gaode&callnative=1","route_id":"r1","route_name":"第1段","global_order":29}]}