{"summary":{"id":"d01407","province":"湖北省","city":"宜昌市","district":"宜都市","count":13,"route_count":1,"max_route_clinics":13,"total_distance_km":69.425,"coordinate_system":"GCJ-02 / Amap","generated_at":"2026-05-07 21:30:12"},"routes":[{"id":"r1","name":"第1段","count":13,"total_distance_km":69.425,"rows":[{"name":"乡村兽医诊疗点","address":"宜都市公安局潘家湾派出所南侧60米","phone":"","category":"医疗保健服务;动物医疗场所;兽医站","area":"","lng":111.214283,"lat":30.22,"amap_id":"B0J2LHRRJ5","order":1,"prev_distance_km":0.0,"cumulative_distance_km":0.0,"amap_marker_url":"https://uri.amap.com/marker?position=111.214283,30.220000&name=%E4%B9%A1%E6%9D%91%E5%85%BD%E5%8C%BB%E8%AF%8A%E7%96%97%E7%82%B9&src=vetmap&coordinate=gaode&callnative=1","route_id":"r1","route_name":"第1段"},{"name":"谭师傅兽医门诊","address":"胡敌路与五眼泉路交叉口东60米","phone":"","category":"医疗保健服务;动物医疗场所;兽医站","area":"","lng":111.329849,"lat":30.354428,"amap_id":"B0J09O08H4","order":2,"prev_distance_km":18.616,"cumulative_distance_km":18.616,"amap_marker_url":"https://uri.amap.com/marker?position=111.329849,30.354428&name=%E8%B0%AD%E5%B8%88%E5%82%85%E5%85%BD%E5%8C%BB%E9%97%A8%E8%AF%8A&src=vetmap&coordinate=gaode&callnative=1","route_id":"r1","route_name":"第1段"},{"name":"晓义畜禽服务部","address":"254省道与014乡道交叉口东南80米","phone":"","category":"医疗保健服务;动物医疗场所;兽医站","area":"","lng":111.434715,"lat":30.459902,"amap_id":"B0M6N5EONX","order":3,"prev_distance_km":15.45,"cumulative_distance_km":34.066,"amap_marker_url":"https://uri.amap.com/marker?position=111.434715,30.459902&name=%E6%99%93%E4%B9%89%E7%95%9C%E7%A6%BD%E6%9C%8D%E5%8A%A1%E9%83%A8&src=vetmap&coordinate=gaode&callnative=1","route_id":"r1","route_name":"第1段"},{"name":"依咪阳光宠物诊所","address":"城河大道28号","phone":"13677175537","category":"医疗保健服务;动物医疗场所;宠物诊所","area":"","lng":111.460596,"lat":30.390128,"amap_id":"B0FFI8MHVG","order":4,"prev_distance_km":8.146,"cumulative_distance_km":42.211,"amap_marker_url":"https://uri.amap.com/marker?position=111.460596,30.390128&name=%E4%BE%9D%E5%92%AA%E9%98%B3%E5%85%89%E5%AE%A0%E7%89%A9%E8%AF%8A%E6%89%80&src=vetmap&coordinate=gaode&callnative=1","route_id":"r1","route_name":"第1段"},{"name":"心怡宠物诊所","address":"陆城体育路88号门面","phone":"19071709428","category":"医疗保健服务;动物医疗场所;宠物诊所","area":"","lng":111.450523,"lat":30.384284,"amap_id":"B0JAMHFS1Z","order":5,"prev_distance_km":1.164,"cumulative_distance_km":43.376,"amap_marker_url":"https://uri.amap.com/marker?position=111.450523,30.384284&name=%E5%BF%83%E6%80%A1%E5%AE%A0%E7%89%A9%E8%AF%8A%E6%89%80&src=vetmap&coordinate=gaode&callnative=1","route_id":"r1","route_name":"第1段"},{"name":"联萌动物医院","address":"陆城名都路山水苑13号楼106号铺","phone":"18271335647","category":"医疗保健服务;动物医疗场所;宠物诊所","area":"名都","lng":111.43938,"lat":30.381535,"amap_id":"B0I1O5DDSL","order":6,"prev_distance_km":1.112,"cumulative_distance_km":44.488,"amap_marker_url":"https://uri.amap.com/marker?position=111.439380,30.381535&name=%E8%81%94%E8%90%8C%E5%8A%A8%E7%89%A9%E5%8C%BB%E9%99%A2&src=vetmap&coordinate=gaode&callnative=1","route_id":"r1","route_name":"第1段"},{"name":"茉茉宠物诊所名都旗舰店","address":"名都路122号","phone":"18827476291","category":"医疗保健服务;动物医疗场所;宠物诊所","area":"名都华府","lng":111.440917,"lat":30.37927,"amap_id":"B0GR1HXCFG","order":7,"prev_distance_km":0.292,"cumulative_distance_km":44.779,"amap_marker_url":"https://uri.amap.com/marker?position=111.440917,30.379270&name=%E8%8C%89%E8%8C%89%E5%AE%A0%E7%89%A9%E8%AF%8A%E6%89%80%E5%90%8D%E9%83%BD%E6%97%97%E8%88%B0%E5%BA%97&src=vetmap&coordinate=gaode&callnative=1","route_id":"r1","route_name":"第1段"},{"name":"宜都市万联兽药健康养殖服务中心","address":"姚家店镇楠竹园路130号","phone":"13377871968;18086389806","category":"医疗保健服务;动物医疗场所;动物医疗场所","area":"","lng":111.445007,"lat":30.364197,"amap_id":"B0IGVS30G8","order":8,"prev_distance_km":1.721,"cumulative_distance_km":46.501,"amap_marker_url":"https://uri.amap.com/marker?position=111.445007,30.364197&name=%E5%AE%9C%E9%83%BD%E5%B8%82%E4%B8%87%E8%81%94%E5%85%BD%E8%8D%AF%E5%81%A5%E5%BA%B7%E5%85%BB%E6%AE%96%E6%9C%8D%E5%8A%A1%E4%B8%AD%E5%BF%83&src=vetmap&coordinate=gaode&callnative=1","route_id":"r1","route_name":"第1段"},{"name":"宜都清江肉联动物检疫申报点","address":"姚家店镇宜华大道","phone":"","category":"医疗保健服务;动物医疗场所;动物医疗场所","area":"","lng":111.443458,"lat":30.358672,"amap_id":"B0FFHRNCRJ","order":9,"prev_distance_km":0.632,"cumulative_distance_km":47.133,"amap_marker_url":"https://uri.amap.com/marker?position=111.443458,30.358672&name=%E5%AE%9C%E9%83%BD%E6%B8%85%E6%B1%9F%E8%82%89%E8%81%94%E5%8A%A8%E7%89%A9%E6%A3%80%E7%96%AB%E7%94%B3%E6%8A%A5%E7%82%B9&src=vetmap&coordinate=gaode&callnative=1","route_id":"r1","route_name":"第1段"},{"name":"枝城畜牧兽医站西门诊所","address":"枝城镇解放路188号","phone":"13872518415","category":"医疗保健服务;动物医疗场所;兽医站","area":"","lng":111.505608,"lat":30.29634,"amap_id":"B0FFG05L8A","order":10,"prev_distance_km":9.144,"cumulative_distance_km":56.277,"amap_marker_url":"https://uri.amap.com/marker?position=111.505608,30.296340&name=%E6%9E%9D%E5%9F%8E%E7%95%9C%E7%89%A7%E5%85%BD%E5%8C%BB%E7%AB%99%E8%A5%BF%E9%97%A8%E8%AF%8A%E6%89%80&src=vetmap&coordinate=gaode&callnative=1","route_id":"r1","route_name":"第1段"},{"name":"乡村兽医诊疗点","address":"刘老牙科西侧150米","phone":"","category":"医疗保健服务;动物医疗场所;兽医站","area":"","lng":111.505751,"lat":30.296204,"amap_id":"B0KG3ACYPC","order":11,"prev_distance_km":0.02,"cumulative_distance_km":56.298,"amap_marker_url":"https://uri.amap.com/marker?position=111.505751,30.296204&name=%E4%B9%A1%E6%9D%91%E5%85%BD%E5%8C%BB%E8%AF%8A%E7%96%97%E7%82%B9&src=vetmap&coordinate=gaode&callnative=1","route_id":"r1","route_name":"第1段"},{"name":"乡村兽医诊疗室","address":"丹阳大道与兴宜大道交叉口西南120米","phone":"","category":"医疗保健服务;动物医疗场所;兽医站","area":"","lng":111.506581,"lat":30.28267,"amap_id":"B0L6H59OCY","order":12,"prev_distance_km":1.507,"cumulative_distance_km":57.805,"amap_marker_url":"https://uri.amap.com/marker?position=111.506581,30.282670&name=%E4%B9%A1%E6%9D%91%E5%85%BD%E5%8C%BB%E8%AF%8A%E7%96%97%E5%AE%A4&src=vetmap&coordinate=gaode&callnative=1","route_id":"r1","route_name":"第1段"},{"name":"乡村兽医诊疗点","address":"007乡道与006乡道交叉口东北420米","phone":"","category":"医疗保健服务;动物医疗场所;兽医站","area":"","lng":111.411075,"lat":30.218525,"amap_id":"B0L0Z7EZTS","order":13,"prev_distance_km":11.62,"cumulative_distance_km":69.425,"amap_marker_url":"https://uri.amap.com/marker?position=111.411075,30.218525&name=%E4%B9%A1%E6%9D%91%E5%85%BD%E5%8C%BB%E8%AF%8A%E7%96%97%E7%82%B9&src=vetmap&coordinate=gaode&callnative=1","route_id":"r1","route_name":"第1段"}]}],"rows":[{"name":"乡村兽医诊疗点","address":"宜都市公安局潘家湾派出所南侧60米","phone":"","category":"医疗保健服务;动物医疗场所;兽医站","area":"","lng":111.214283,"lat":30.22,"amap_id":"B0J2LHRRJ5","order":1,"prev_distance_km":0.0,"cumulative_distance_km":0.0,"amap_marker_url":"https://uri.amap.com/marker?position=111.214283,30.220000&name=%E4%B9%A1%E6%9D%91%E5%85%BD%E5%8C%BB%E8%AF%8A%E7%96%97%E7%82%B9&src=vetmap&coordinate=gaode&callnative=1","route_id":"r1","route_name":"第1段","global_order":1},{"name":"谭师傅兽医门诊","address":"胡敌路与五眼泉路交叉口东60米","phone":"","category":"医疗保健服务;动物医疗场所;兽医站","area":"","lng":111.329849,"lat":30.354428,"amap_id":"B0J09O08H4","order":2,"prev_distance_km":18.616,"cumulative_distance_km":18.616,"amap_marker_url":"https://uri.amap.com/marker?position=111.329849,30.354428&name=%E8%B0%AD%E5%B8%88%E5%82%85%E5%85%BD%E5%8C%BB%E9%97%A8%E8%AF%8A&src=vetmap&coordinate=gaode&callnative=1","route_id":"r1","route_name":"第1段","global_order":2},{"name":"晓义畜禽服务部","address":"254省道与014乡道交叉口东南80米","phone":"","category":"医疗保健服务;动物医疗场所;兽医站","area":"","lng":111.434715,"lat":30.459902,"amap_id":"B0M6N5EONX","order":3,"prev_distance_km":15.45,"cumulative_distance_km":34.066,"amap_marker_url":"https://uri.amap.com/marker?position=111.434715,30.459902&name=%E6%99%93%E4%B9%89%E7%95%9C%E7%A6%BD%E6%9C%8D%E5%8A%A1%E9%83%A8&src=vetmap&coordinate=gaode&callnative=1","route_id":"r1","route_name":"第1段","global_order":3},{"name":"依咪阳光宠物诊所","address":"城河大道28号","phone":"13677175537","category":"医疗保健服务;动物医疗场所;宠物诊所","area":"","lng":111.460596,"lat":30.390128,"amap_id":"B0FFI8MHVG","order":4,"prev_distance_km":8.146,"cumulative_distance_km":42.211,"amap_marker_url":"https://uri.amap.com/marker?position=111.460596,30.390128&name=%E4%BE%9D%E5%92%AA%E9%98%B3%E5%85%89%E5%AE%A0%E7%89%A9%E8%AF%8A%E6%89%80&src=vetmap&coordinate=gaode&callnative=1","route_id":"r1","route_name":"第1段","global_order":4},{"name":"心怡宠物诊所","address":"陆城体育路88号门面","phone":"19071709428","category":"医疗保健服务;动物医疗场所;宠物诊所","area":"","lng":111.450523,"lat":30.384284,"amap_id":"B0JAMHFS1Z","order":5,"prev_distance_km":1.164,"cumulative_distance_km":43.376,"amap_marker_url":"https://uri.amap.com/marker?position=111.450523,30.384284&name=%E5%BF%83%E6%80%A1%E5%AE%A0%E7%89%A9%E8%AF%8A%E6%89%80&src=vetmap&coordinate=gaode&callnative=1","route_id":"r1","route_name":"第1段","global_order":5},{"name":"联萌动物医院","address":"陆城名都路山水苑13号楼106号铺","phone":"18271335647","category":"医疗保健服务;动物医疗场所;宠物诊所","area":"名都","lng":111.43938,"lat":30.381535,"amap_id":"B0I1O5DDSL","order":6,"prev_distance_km":1.112,"cumulative_distance_km":44.488,"amap_marker_url":"https://uri.amap.com/marker?position=111.439380,30.381535&name=%E8%81%94%E8%90%8C%E5%8A%A8%E7%89%A9%E5%8C%BB%E9%99%A2&src=vetmap&coordinate=gaode&callnative=1","route_id":"r1","route_name":"第1段","global_order":6},{"name":"茉茉宠物诊所名都旗舰店","address":"名都路122号","phone":"18827476291","category":"医疗保健服务;动物医疗场所;宠物诊所","area":"名都华府","lng":111.440917,"lat":30.37927,"amap_id":"B0GR1HXCFG","order":7,"prev_distance_km":0.292,"cumulative_distance_km":44.779,"amap_marker_url":"https://uri.amap.com/marker?position=111.440917,30.379270&name=%E8%8C%89%E8%8C%89%E5%AE%A0%E7%89%A9%E8%AF%8A%E6%89%80%E5%90%8D%E9%83%BD%E6%97%97%E8%88%B0%E5%BA%97&src=vetmap&coordinate=gaode&callnative=1","route_id":"r1","route_name":"第1段","global_order":7},{"name":"宜都市万联兽药健康养殖服务中心","address":"姚家店镇楠竹园路130号","phone":"13377871968;18086389806","category":"医疗保健服务;动物医疗场所;动物医疗场所","area":"","lng":111.445007,"lat":30.364197,"amap_id":"B0IGVS30G8","order":8,"prev_distance_km":1.721,"cumulative_distance_km":46.501,"amap_marker_url":"https://uri.amap.com/marker?position=111.445007,30.364197&name=%E5%AE%9C%E9%83%BD%E5%B8%82%E4%B8%87%E8%81%94%E5%85%BD%E8%8D%AF%E5%81%A5%E5%BA%B7%E5%85%BB%E6%AE%96%E6%9C%8D%E5%8A%A1%E4%B8%AD%E5%BF%83&src=vetmap&coordinate=gaode&callnative=1","route_id":"r1","route_name":"第1段","global_order":8},{"name":"宜都清江肉联动物检疫申报点","address":"姚家店镇宜华大道","phone":"","category":"医疗保健服务;动物医疗场所;动物医疗场所","area":"","lng":111.443458,"lat":30.358672,"amap_id":"B0FFHRNCRJ","order":9,"prev_distance_km":0.632,"cumulative_distance_km":47.133,"amap_marker_url":"https://uri.amap.com/marker?position=111.443458,30.358672&name=%E5%AE%9C%E9%83%BD%E6%B8%85%E6%B1%9F%E8%82%89%E8%81%94%E5%8A%A8%E7%89%A9%E6%A3%80%E7%96%AB%E7%94%B3%E6%8A%A5%E7%82%B9&src=vetmap&coordinate=gaode&callnative=1","route_id":"r1","route_name":"第1段","global_order":9},{"name":"枝城畜牧兽医站西门诊所","address":"枝城镇解放路188号","phone":"13872518415","category":"医疗保健服务;动物医疗场所;兽医站","area":"","lng":111.505608,"lat":30.29634,"amap_id":"B0FFG05L8A","order":10,"prev_distance_km":9.144,"cumulative_distance_km":56.277,"amap_marker_url":"https://uri.amap.com/marker?position=111.505608,30.296340&name=%E6%9E%9D%E5%9F%8E%E7%95%9C%E7%89%A7%E5%85%BD%E5%8C%BB%E7%AB%99%E8%A5%BF%E9%97%A8%E8%AF%8A%E6%89%80&src=vetmap&coordinate=gaode&callnative=1","route_id":"r1","route_name":"第1段","global_order":10},{"name":"乡村兽医诊疗点","address":"刘老牙科西侧150米","phone":"","category":"医疗保健服务;动物医疗场所;兽医站","area":"","lng":111.505751,"lat":30.296204,"amap_id":"B0KG3ACYPC","order":11,"prev_distance_km":0.02,"cumulative_distance_km":56.298,"amap_marker_url":"https://uri.amap.com/marker?position=111.505751,30.296204&name=%E4%B9%A1%E6%9D%91%E5%85%BD%E5%8C%BB%E8%AF%8A%E7%96%97%E7%82%B9&src=vetmap&coordinate=gaode&callnative=1","route_id":"r1","route_name":"第1段","global_order":11},{"name":"乡村兽医诊疗室","address":"丹阳大道与兴宜大道交叉口西南120米","phone":"","category":"医疗保健服务;动物医疗场所;兽医站","area":"","lng":111.506581,"lat":30.28267,"amap_id":"B0L6H59OCY","order":12,"prev_distance_km":1.507,"cumulative_distance_km":57.805,"amap_marker_url":"https://uri.amap.com/marker?position=111.506581,30.282670&name=%E4%B9%A1%E6%9D%91%E5%85%BD%E5%8C%BB%E8%AF%8A%E7%96%97%E5%AE%A4&src=vetmap&coordinate=gaode&callnative=1","route_id":"r1","route_name":"第1段","global_order":12},{"name":"乡村兽医诊疗点","address":"007乡道与006乡道交叉口东北420米","phone":"","category":"医疗保健服务;动物医疗场所;兽医站","area":"","lng":111.411075,"lat":30.218525,"amap_id":"B0L0Z7EZTS","order":13,"prev_distance_km":11.62,"cumulative_distance_km":69.425,"amap_marker_url":"https://uri.amap.com/marker?position=111.411075,30.218525&name=%E4%B9%A1%E6%9D%91%E5%85%BD%E5%8C%BB%E8%AF%8A%E7%96%97%E7%82%B9&src=vetmap&coordinate=gaode&callnative=1","route_id":"r1","route_name":"第1段","global_order":13}]}