{"summary":{"id":"d01424","province":"湖北省","city":"武汉市","district":"新洲区","count":22,"route_count":1,"max_route_clinics":22,"total_distance_km":113.138,"coordinate_system":"GCJ-02 / Amap","generated_at":"2026-05-07 21:30:12"},"routes":[{"id":"r1","name":"第1段","count":22,"total_distance_km":113.138,"rows":[{"name":"汪家宠物门诊","address":"汽渡路99号","phone":"027-86977065;18071754059","category":"医疗保健服务;动物医疗场所;宠物诊所","area":"长江新区","lng":114.5672,"lat":30.653364,"amap_id":"B001B0ACQT","order":1,"prev_distance_km":0.0,"cumulative_distance_km":0.0,"amap_marker_url":"https://uri.amap.com/marker?position=114.567200,30.653364&name=%E6%B1%AA%E5%AE%B6%E5%AE%A0%E7%89%A9%E9%97%A8%E8%AF%8A&src=vetmap&coordinate=gaode&callnative=1","route_id":"r1","route_name":"第1段"},{"name":"众悦宠物医院","address":"阳逻金融街126号","phone":"15618272386","category":"医疗保健服务;动物医疗场所;宠物诊所","area":"长江新区","lng":114.571025,"lat":30.659725,"amap_id":"B0LGLROCM3","order":2,"prev_distance_km":0.796,"cumulative_distance_km":0.796,"amap_marker_url":"https://uri.amap.com/marker?position=114.571025,30.659725&name=%E4%BC%97%E6%82%A6%E5%AE%A0%E7%89%A9%E5%8C%BB%E9%99%A2&src=vetmap&coordinate=gaode&callnative=1","route_id":"r1","route_name":"第1段"},{"name":"祥福宠物医院","address":"军安路117号","phone":"15072318672","category":"医疗保健服务;动物医疗场所;宠物诊所","area":"阳逻","lng":114.576389,"lat":30.659431,"amap_id":"B0GUSZKB65","order":3,"prev_distance_km":0.514,"cumulative_distance_km":1.31,"amap_marker_url":"https://uri.amap.com/marker?position=114.576389,30.659431&name=%E7%A5%A5%E7%A6%8F%E5%AE%A0%E7%89%A9%E5%8C%BB%E9%99%A2&src=vetmap&coordinate=gaode&callnative=1","route_id":"r1","route_name":"第1段"},{"name":"派儿宠物诊所(阳逻店)","address":"阳逻开发区阳光新港中央花园城商铺E区6号商业栋1单元1层4号余泊大道与柴泊大道交叉口北40米","phone":"027-62307088;17771859665;18140535346;18162517375","category":"医疗保健服务;动物医疗场所;宠物诊所","area":"长江新区","lng":114.569643,"lat":30.688099,"amap_id":"B0KKS7KA8B","order":4,"prev_distance_km":3.252,"cumulative_distance_km":4.563,"amap_marker_url":"https://uri.amap.com/marker?position=114.569643,30.688099&name=%E6%B4%BE%E5%84%BF%E5%AE%A0%E7%89%A9%E8%AF%8A%E6%89%80%28%E9%98%B3%E9%80%BB%E5%BA%97%29&src=vetmap&coordinate=gaode&callnative=1","route_id":"r1","route_name":"第1段"},{"name":"它多爱宠物医院","address":"当代满庭春北区南门旁","phone":"","category":"医疗保健服务;动物医疗场所;宠物诊所","area":"","lng":114.579695,"lat":30.685472,"amap_id":"B0HD0C01Q3","order":5,"prev_distance_km":1.005,"cumulative_distance_km":5.567,"amap_marker_url":"https://uri.amap.com/marker?position=114.579695,30.685472&name=%E5%AE%83%E5%A4%9A%E7%88%B1%E5%AE%A0%E7%89%A9%E5%8C%BB%E9%99%A2&src=vetmap&coordinate=gaode&callnative=1","route_id":"r1","route_name":"第1段"},{"name":"阳逻张志刚兽医诊疗点","address":"111省道与037乡道交叉口西北100米","phone":"","category":"医疗保健服务;动物医疗场所;兽医站","area":"","lng":114.659782,"lat":30.741367,"amap_id":"B0KR15LY9E","order":6,"prev_distance_km":9.861,"cumulative_distance_km":15.429,"amap_marker_url":"https://uri.amap.com/marker?position=114.659782,30.741367&name=%E9%98%B3%E9%80%BB%E5%BC%A0%E5%BF%97%E5%88%9A%E5%85%BD%E5%8C%BB%E8%AF%8A%E7%96%97%E7%82%B9&src=vetmap&coordinate=gaode&callnative=1","route_id":"r1","route_name":"第1段"},{"name":"玉超畜禽服务中心","address":"仓埠街周铺烽火台21号","phone":"15327312680","category":"医疗保健服务;动物医疗场所;兽医站","area":"长江新区","lng":114.614193,"lat":30.793569,"amap_id":"B0LDHSLHFU","order":7,"prev_distance_km":7.257,"cumulative_distance_km":22.686,"amap_marker_url":"https://uri.amap.com/marker?position=114.614193,30.793569&name=%E7%8E%89%E8%B6%85%E7%95%9C%E7%A6%BD%E6%9C%8D%E5%8A%A1%E4%B8%AD%E5%BF%83&src=vetmap&coordinate=gaode&callnative=1","route_id":"r1","route_name":"第1段"},{"name":"新洲区仓埠畜牧兽医站","address":"骑云街与扒头街交叉口西40米","phone":"","category":"医疗保健服务;动物医疗场所;兽医站","area":"长江新区","lng":114.602488,"lat":30.835208,"amap_id":"B001B15P8W","order":8,"prev_distance_km":4.763,"cumulative_distance_km":27.449,"amap_marker_url":"https://uri.amap.com/marker?position=114.602488,30.835208&name=%E6%96%B0%E6%B4%B2%E5%8C%BA%E4%BB%93%E5%9F%A0%E7%95%9C%E7%89%A7%E5%85%BD%E5%8C%BB%E7%AB%99&src=vetmap&coordinate=gaode&callnative=1","route_id":"r1","route_name":"第1段"},{"name":"新洲区汪集畜牧兽医站","address":"汪集街中心卫生院东南侧110米","phone":"","category":"医疗保健服务;动物医疗场所;兽医站","area":"","lng":114.714055,"lat":30.775746,"amap_id":"B0FFLGW4JK","order":9,"prev_distance_km":12.54,"cumulative_distance_km":39.989,"amap_marker_url":"https://uri.amap.com/marker?position=114.714055,30.775746&name=%E6%96%B0%E6%B4%B2%E5%8C%BA%E6%B1%AA%E9%9B%86%E7%95%9C%E7%89%A7%E5%85%BD%E5%8C%BB%E7%AB%99&src=vetmap&coordinate=gaode&callnative=1","route_id":"r1","route_name":"第1段"},{"name":"汪集李文胜兽医诊疗点","address":"037乡道与生生路交叉口东南20米","phone":"","category":"医疗保健服务;动物医疗场所;兽医站","area":"","lng":114.70809,"lat":30.749678,"amap_id":"B0I04SKW0F","order":10,"prev_distance_km":2.954,"cumulative_distance_km":42.943,"amap_marker_url":"https://uri.amap.com/marker?position=114.708090,30.749678&name=%E6%B1%AA%E9%9B%86%E6%9D%8E%E6%96%87%E8%83%9C%E5%85%BD%E5%8C%BB%E8%AF%8A%E7%96%97%E7%82%B9&src=vetmap&coordinate=gaode&callnative=1","route_id":"r1","route_name":"第1段"},{"name":"新洲双柳富英兽医诊疗点(富英鱼药)","address":"双柳街莲湖村东湾57号","phone":"13871268652","category":"医疗保健服务;动物医疗场所;兽医站","area":"","lng":114.752848,"lat":30.702699,"amap_id":"B0JKO1OVJO","order":11,"prev_distance_km":6.752,"cumulative_distance_km":49.695,"amap_marker_url":"https://uri.amap.com/marker?position=114.752848,30.702699&name=%E6%96%B0%E6%B4%B2%E5%8F%8C%E6%9F%B3%E5%AF%8C%E8%8B%B1%E5%85%BD%E5%8C%BB%E8%AF%8A%E7%96%97%E7%82%B9%28%E5%AF%8C%E8%8B%B1%E9%B1%BC%E8%8D%AF%29&src=vetmap&coordinate=gaode&callnative=1","route_id":"r1","route_name":"第1段"},{"name":"武汉市新洲区旧街街畜牧兽医站","address":"武政路13号","phone":"","category":"医疗保健服务;动物医疗场所;兽医站","area":"旧街","lng":114.926076,"lat":30.834074,"amap_id":"B0FFKTFVDO","order":12,"prev_distance_km":22.076,"cumulative_distance_km":71.771,"amap_marker_url":"https://uri.amap.com/marker?position=114.926076,30.834074&name=%E6%AD%A6%E6%B1%89%E5%B8%82%E6%96%B0%E6%B4%B2%E5%8C%BA%E6%97%A7%E8%A1%97%E8%A1%97%E7%95%9C%E7%89%A7%E5%85%BD%E5%8C%BB%E7%AB%99&src=vetmap&coordinate=gaode&callnative=1","route_id":"r1","route_name":"第1段"},{"name":"新洲区辛冲畜牧兽医站","address":"商业街38号","phone":"","category":"医疗保健服务;动物医疗场所;兽医站","area":"邾城","lng":114.825872,"lat":30.828812,"amap_id":"B0FFGFSD9P","order":13,"prev_distance_km":9.585,"cumulative_distance_km":81.356,"amap_marker_url":"https://uri.amap.com/marker?position=114.825872,30.828812&name=%E6%96%B0%E6%B4%B2%E5%8C%BA%E8%BE%9B%E5%86%B2%E7%95%9C%E7%89%A7%E5%85%BD%E5%8C%BB%E7%AB%99&src=vetmap&coordinate=gaode&callnative=1","route_id":"r1","route_name":"第1段"},{"name":"科道阳光动物医院·绝育中心·犬猫全科(新洲分院)","address":"邾城街古城大道237号城南华府·书香御景S1栋20号","phone":"15907109114","category":"医疗保健服务;动物医疗场所;宠物诊所","area":"","lng":114.799012,"lat":30.823124,"amap_id":"B0LAR7D3GA","order":14,"prev_distance_km":2.642,"cumulative_distance_km":83.998,"amap_marker_url":"https://uri.amap.com/marker?position=114.799012,30.823124&name=%E7%A7%91%E9%81%93%E9%98%B3%E5%85%89%E5%8A%A8%E7%89%A9%E5%8C%BB%E9%99%A2%C2%B7%E7%BB%9D%E8%82%B2%E4%B8%AD%E5%BF%83%C2%B7%E7%8A%AC%E7%8C%AB%E5%85%A8%E7%A7%91%28%E6%96%B0%E6%B4%B2%E5%88%86%E9%99%A2%29&src=vetmap&coordinate=gaode&callnative=1","route_id":"r1","route_name":"第1段"},{"name":"武汉凯凯动物医院","address":"人民路62号","phone":"13995523868;15377653688","category":"医疗保健服务;动物医疗场所;宠物诊所","area":"邾城","lng":114.795346,"lat":30.828351,"amap_id":"B0FFI1P6BD","order":15,"prev_distance_km":0.678,"cumulative_distance_km":84.676,"amap_marker_url":"https://uri.amap.com/marker?position=114.795346,30.828351&name=%E6%AD%A6%E6%B1%89%E5%87%AF%E5%87%AF%E5%8A%A8%E7%89%A9%E5%8C%BB%E9%99%A2&src=vetmap&coordinate=gaode&callnative=1","route_id":"r1","route_name":"第1段"},{"name":"众悦宠物医疗中心","address":"永安大道86号","phone":"17067787999","category":"医疗保健服务;动物医疗场所;宠物诊所","area":"邾城","lng":114.807718,"lat":30.835125,"amap_id":"B0JRXZ4QKJ","order":16,"prev_distance_km":1.401,"cumulative_distance_km":86.077,"amap_marker_url":"https://uri.amap.com/marker?position=114.807718,30.835125&name=%E4%BC%97%E6%82%A6%E5%AE%A0%E7%89%A9%E5%8C%BB%E7%96%97%E4%B8%AD%E5%BF%83&src=vetmap&coordinate=gaode&callnative=1","route_id":"r1","route_name":"第1段"},{"name":"艺宠宠物美容工作室","address":"邾城街永安大道76号","phone":"15972226813","category":"医疗保健服务;动物医疗场所;宠物诊所","area":"邾城","lng":114.807765,"lat":30.835501,"amap_id":"B0K3YS6D4S","order":17,"prev_distance_km":0.042,"cumulative_distance_km":86.12,"amap_marker_url":"https://uri.amap.com/marker?position=114.807765,30.835501&name=%E8%89%BA%E5%AE%A0%E5%AE%A0%E7%89%A9%E7%BE%8E%E5%AE%B9%E5%B7%A5%E4%BD%9C%E5%AE%A4&src=vetmap&coordinate=gaode&callnative=1","route_id":"r1","route_name":"第1段"},{"name":"高氏兽药饲料","address":"永安大道310-1号","phone":"027-86915687","category":"医疗保健服务;动物医疗场所;动物医疗场所","area":"邾城","lng":114.808005,"lat":30.841282,"amap_id":"B0FFFFN89B","order":18,"prev_distance_km":0.643,"cumulative_distance_km":86.763,"amap_marker_url":"https://uri.amap.com/marker?position=114.808005,30.841282&name=%E9%AB%98%E6%B0%8F%E5%85%BD%E8%8D%AF%E9%A5%B2%E6%96%99&src=vetmap&coordinate=gaode&callnative=1","route_id":"r1","route_name":"第1段"},{"name":"武汉鸿康誉畜牧服务部","address":"邾城街与老街路交叉口东60米","phone":"13986043298","category":"医疗保健服务;动物医疗场所;兽医站","area":"邾城","lng":114.797609,"lat":30.84706,"amap_id":"B0H0OUY8NT","order":19,"prev_distance_km":1.182,"cumulative_distance_km":87.945,"amap_marker_url":"https://uri.amap.com/marker?position=114.797609,30.847060&name=%E6%AD%A6%E6%B1%89%E9%B8%BF%E5%BA%B7%E8%AA%89%E7%95%9C%E7%89%A7%E6%9C%8D%E5%8A%A1%E9%83%A8&src=vetmap&coordinate=gaode&callnative=1","route_id":"r1","route_name":"第1段"},{"name":"武汉市新洲区凤凰镇畜牧兽医站","address":"凤凰大道27号","phone":"","category":"医疗保健服务;动物医疗场所;兽医站","area":"","lng":114.75659,"lat":30.924039,"amap_id":"B001B15YL4","order":20,"prev_distance_km":9.412,"cumulative_distance_km":97.357,"amap_marker_url":"https://uri.amap.com/marker?position=114.756590,30.924039&name=%E6%AD%A6%E6%B1%89%E5%B8%82%E6%96%B0%E6%B4%B2%E5%8C%BA%E5%87%A4%E5%87%B0%E9%95%87%E7%95%9C%E7%89%A7%E5%85%BD%E5%8C%BB%E7%AB%99&src=vetmap&coordinate=gaode&callnative=1","route_id":"r1","route_name":"第1段"},{"name":"新洲区三店街畜牧兽医站","address":"龙贵街57号","phone":"","category":"医疗保健服务;动物医疗场所;兽医站","area":"","lng":114.792928,"lat":30.928052,"amap_id":"B0FFJQ6MFZ","order":21,"prev_distance_km":3.495,"cumulative_distance_km":100.852,"amap_marker_url":"https://uri.amap.com/marker?position=114.792928,30.928052&name=%E6%96%B0%E6%B4%B2%E5%8C%BA%E4%B8%89%E5%BA%97%E8%A1%97%E7%95%9C%E7%89%A7%E5%85%BD%E5%8C%BB%E7%AB%99&src=vetmap&coordinate=gaode&callnative=1","route_id":"r1","route_name":"第1段"},{"name":"新洲区潘塘畜牧兽医站","address":"潘塘路118号","phone":"","category":"医疗保健服务;动物医疗场所;兽医站","area":"潘塘","lng":114.894089,"lat":30.99648,"amap_id":"B001B17F47","order":22,"prev_distance_km":12.286,"cumulative_distance_km":113.138,"amap_marker_url":"https://uri.amap.com/marker?position=114.894089,30.996480&name=%E6%96%B0%E6%B4%B2%E5%8C%BA%E6%BD%98%E5%A1%98%E7%95%9C%E7%89%A7%E5%85%BD%E5%8C%BB%E7%AB%99&src=vetmap&coordinate=gaode&callnative=1","route_id":"r1","route_name":"第1段"}]}],"rows":[{"name":"汪家宠物门诊","address":"汽渡路99号","phone":"027-86977065;18071754059","category":"医疗保健服务;动物医疗场所;宠物诊所","area":"长江新区","lng":114.5672,"lat":30.653364,"amap_id":"B001B0ACQT","order":1,"prev_distance_km":0.0,"cumulative_distance_km":0.0,"amap_marker_url":"https://uri.amap.com/marker?position=114.567200,30.653364&name=%E6%B1%AA%E5%AE%B6%E5%AE%A0%E7%89%A9%E9%97%A8%E8%AF%8A&src=vetmap&coordinate=gaode&callnative=1","route_id":"r1","route_name":"第1段","global_order":1},{"name":"众悦宠物医院","address":"阳逻金融街126号","phone":"15618272386","category":"医疗保健服务;动物医疗场所;宠物诊所","area":"长江新区","lng":114.571025,"lat":30.659725,"amap_id":"B0LGLROCM3","order":2,"prev_distance_km":0.796,"cumulative_distance_km":0.796,"amap_marker_url":"https://uri.amap.com/marker?position=114.571025,30.659725&name=%E4%BC%97%E6%82%A6%E5%AE%A0%E7%89%A9%E5%8C%BB%E9%99%A2&src=vetmap&coordinate=gaode&callnative=1","route_id":"r1","route_name":"第1段","global_order":2},{"name":"祥福宠物医院","address":"军安路117号","phone":"15072318672","category":"医疗保健服务;动物医疗场所;宠物诊所","area":"阳逻","lng":114.576389,"lat":30.659431,"amap_id":"B0GUSZKB65","order":3,"prev_distance_km":0.514,"cumulative_distance_km":1.31,"amap_marker_url":"https://uri.amap.com/marker?position=114.576389,30.659431&name=%E7%A5%A5%E7%A6%8F%E5%AE%A0%E7%89%A9%E5%8C%BB%E9%99%A2&src=vetmap&coordinate=gaode&callnative=1","route_id":"r1","route_name":"第1段","global_order":3},{"name":"派儿宠物诊所(阳逻店)","address":"阳逻开发区阳光新港中央花园城商铺E区6号商业栋1单元1层4号余泊大道与柴泊大道交叉口北40米","phone":"027-62307088;17771859665;18140535346;18162517375","category":"医疗保健服务;动物医疗场所;宠物诊所","area":"长江新区","lng":114.569643,"lat":30.688099,"amap_id":"B0KKS7KA8B","order":4,"prev_distance_km":3.252,"cumulative_distance_km":4.563,"amap_marker_url":"https://uri.amap.com/marker?position=114.569643,30.688099&name=%E6%B4%BE%E5%84%BF%E5%AE%A0%E7%89%A9%E8%AF%8A%E6%89%80%28%E9%98%B3%E9%80%BB%E5%BA%97%29&src=vetmap&coordinate=gaode&callnative=1","route_id":"r1","route_name":"第1段","global_order":4},{"name":"它多爱宠物医院","address":"当代满庭春北区南门旁","phone":"","category":"医疗保健服务;动物医疗场所;宠物诊所","area":"","lng":114.579695,"lat":30.685472,"amap_id":"B0HD0C01Q3","order":5,"prev_distance_km":1.005,"cumulative_distance_km":5.567,"amap_marker_url":"https://uri.amap.com/marker?position=114.579695,30.685472&name=%E5%AE%83%E5%A4%9A%E7%88%B1%E5%AE%A0%E7%89%A9%E5%8C%BB%E9%99%A2&src=vetmap&coordinate=gaode&callnative=1","route_id":"r1","route_name":"第1段","global_order":5},{"name":"阳逻张志刚兽医诊疗点","address":"111省道与037乡道交叉口西北100米","phone":"","category":"医疗保健服务;动物医疗场所;兽医站","area":"","lng":114.659782,"lat":30.741367,"amap_id":"B0KR15LY9E","order":6,"prev_distance_km":9.861,"cumulative_distance_km":15.429,"amap_marker_url":"https://uri.amap.com/marker?position=114.659782,30.741367&name=%E9%98%B3%E9%80%BB%E5%BC%A0%E5%BF%97%E5%88%9A%E5%85%BD%E5%8C%BB%E8%AF%8A%E7%96%97%E7%82%B9&src=vetmap&coordinate=gaode&callnative=1","route_id":"r1","route_name":"第1段","global_order":6},{"name":"玉超畜禽服务中心","address":"仓埠街周铺烽火台21号","phone":"15327312680","category":"医疗保健服务;动物医疗场所;兽医站","area":"长江新区","lng":114.614193,"lat":30.793569,"amap_id":"B0LDHSLHFU","order":7,"prev_distance_km":7.257,"cumulative_distance_km":22.686,"amap_marker_url":"https://uri.amap.com/marker?position=114.614193,30.793569&name=%E7%8E%89%E8%B6%85%E7%95%9C%E7%A6%BD%E6%9C%8D%E5%8A%A1%E4%B8%AD%E5%BF%83&src=vetmap&coordinate=gaode&callnative=1","route_id":"r1","route_name":"第1段","global_order":7},{"name":"新洲区仓埠畜牧兽医站","address":"骑云街与扒头街交叉口西40米","phone":"","category":"医疗保健服务;动物医疗场所;兽医站","area":"长江新区","lng":114.602488,"lat":30.835208,"amap_id":"B001B15P8W","order":8,"prev_distance_km":4.763,"cumulative_distance_km":27.449,"amap_marker_url":"https://uri.amap.com/marker?position=114.602488,30.835208&name=%E6%96%B0%E6%B4%B2%E5%8C%BA%E4%BB%93%E5%9F%A0%E7%95%9C%E7%89%A7%E5%85%BD%E5%8C%BB%E7%AB%99&src=vetmap&coordinate=gaode&callnative=1","route_id":"r1","route_name":"第1段","global_order":8},{"name":"新洲区汪集畜牧兽医站","address":"汪集街中心卫生院东南侧110米","phone":"","category":"医疗保健服务;动物医疗场所;兽医站","area":"","lng":114.714055,"lat":30.775746,"amap_id":"B0FFLGW4JK","order":9,"prev_distance_km":12.54,"cumulative_distance_km":39.989,"amap_marker_url":"https://uri.amap.com/marker?position=114.714055,30.775746&name=%E6%96%B0%E6%B4%B2%E5%8C%BA%E6%B1%AA%E9%9B%86%E7%95%9C%E7%89%A7%E5%85%BD%E5%8C%BB%E7%AB%99&src=vetmap&coordinate=gaode&callnative=1","route_id":"r1","route_name":"第1段","global_order":9},{"name":"汪集李文胜兽医诊疗点","address":"037乡道与生生路交叉口东南20米","phone":"","category":"医疗保健服务;动物医疗场所;兽医站","area":"","lng":114.70809,"lat":30.749678,"amap_id":"B0I04SKW0F","order":10,"prev_distance_km":2.954,"cumulative_distance_km":42.943,"amap_marker_url":"https://uri.amap.com/marker?position=114.708090,30.749678&name=%E6%B1%AA%E9%9B%86%E6%9D%8E%E6%96%87%E8%83%9C%E5%85%BD%E5%8C%BB%E8%AF%8A%E7%96%97%E7%82%B9&src=vetmap&coordinate=gaode&callnative=1","route_id":"r1","route_name":"第1段","global_order":10},{"name":"新洲双柳富英兽医诊疗点(富英鱼药)","address":"双柳街莲湖村东湾57号","phone":"13871268652","category":"医疗保健服务;动物医疗场所;兽医站","area":"","lng":114.752848,"lat":30.702699,"amap_id":"B0JKO1OVJO","order":11,"prev_distance_km":6.752,"cumulative_distance_km":49.695,"amap_marker_url":"https://uri.amap.com/marker?position=114.752848,30.702699&name=%E6%96%B0%E6%B4%B2%E5%8F%8C%E6%9F%B3%E5%AF%8C%E8%8B%B1%E5%85%BD%E5%8C%BB%E8%AF%8A%E7%96%97%E7%82%B9%28%E5%AF%8C%E8%8B%B1%E9%B1%BC%E8%8D%AF%29&src=vetmap&coordinate=gaode&callnative=1","route_id":"r1","route_name":"第1段","global_order":11},{"name":"武汉市新洲区旧街街畜牧兽医站","address":"武政路13号","phone":"","category":"医疗保健服务;动物医疗场所;兽医站","area":"旧街","lng":114.926076,"lat":30.834074,"amap_id":"B0FFKTFVDO","order":12,"prev_distance_km":22.076,"cumulative_distance_km":71.771,"amap_marker_url":"https://uri.amap.com/marker?position=114.926076,30.834074&name=%E6%AD%A6%E6%B1%89%E5%B8%82%E6%96%B0%E6%B4%B2%E5%8C%BA%E6%97%A7%E8%A1%97%E8%A1%97%E7%95%9C%E7%89%A7%E5%85%BD%E5%8C%BB%E7%AB%99&src=vetmap&coordinate=gaode&callnative=1","route_id":"r1","route_name":"第1段","global_order":12},{"name":"新洲区辛冲畜牧兽医站","address":"商业街38号","phone":"","category":"医疗保健服务;动物医疗场所;兽医站","area":"邾城","lng":114.825872,"lat":30.828812,"amap_id":"B0FFGFSD9P","order":13,"prev_distance_km":9.585,"cumulative_distance_km":81.356,"amap_marker_url":"https://uri.amap.com/marker?position=114.825872,30.828812&name=%E6%96%B0%E6%B4%B2%E5%8C%BA%E8%BE%9B%E5%86%B2%E7%95%9C%E7%89%A7%E5%85%BD%E5%8C%BB%E7%AB%99&src=vetmap&coordinate=gaode&callnative=1","route_id":"r1","route_name":"第1段","global_order":13},{"name":"科道阳光动物医院·绝育中心·犬猫全科(新洲分院)","address":"邾城街古城大道237号城南华府·书香御景S1栋20号","phone":"15907109114","category":"医疗保健服务;动物医疗场所;宠物诊所","area":"","lng":114.799012,"lat":30.823124,"amap_id":"B0LAR7D3GA","order":14,"prev_distance_km":2.642,"cumulative_distance_km":83.998,"amap_marker_url":"https://uri.amap.com/marker?position=114.799012,30.823124&name=%E7%A7%91%E9%81%93%E9%98%B3%E5%85%89%E5%8A%A8%E7%89%A9%E5%8C%BB%E9%99%A2%C2%B7%E7%BB%9D%E8%82%B2%E4%B8%AD%E5%BF%83%C2%B7%E7%8A%AC%E7%8C%AB%E5%85%A8%E7%A7%91%28%E6%96%B0%E6%B4%B2%E5%88%86%E9%99%A2%29&src=vetmap&coordinate=gaode&callnative=1","route_id":"r1","route_name":"第1段","global_order":14},{"name":"武汉凯凯动物医院","address":"人民路62号","phone":"13995523868;15377653688","category":"医疗保健服务;动物医疗场所;宠物诊所","area":"邾城","lng":114.795346,"lat":30.828351,"amap_id":"B0FFI1P6BD","order":15,"prev_distance_km":0.678,"cumulative_distance_km":84.676,"amap_marker_url":"https://uri.amap.com/marker?position=114.795346,30.828351&name=%E6%AD%A6%E6%B1%89%E5%87%AF%E5%87%AF%E5%8A%A8%E7%89%A9%E5%8C%BB%E9%99%A2&src=vetmap&coordinate=gaode&callnative=1","route_id":"r1","route_name":"第1段","global_order":15},{"name":"众悦宠物医疗中心","address":"永安大道86号","phone":"17067787999","category":"医疗保健服务;动物医疗场所;宠物诊所","area":"邾城","lng":114.807718,"lat":30.835125,"amap_id":"B0JRXZ4QKJ","order":16,"prev_distance_km":1.401,"cumulative_distance_km":86.077,"amap_marker_url":"https://uri.amap.com/marker?position=114.807718,30.835125&name=%E4%BC%97%E6%82%A6%E5%AE%A0%E7%89%A9%E5%8C%BB%E7%96%97%E4%B8%AD%E5%BF%83&src=vetmap&coordinate=gaode&callnative=1","route_id":"r1","route_name":"第1段","global_order":16},{"name":"艺宠宠物美容工作室","address":"邾城街永安大道76号","phone":"15972226813","category":"医疗保健服务;动物医疗场所;宠物诊所","area":"邾城","lng":114.807765,"lat":30.835501,"amap_id":"B0K3YS6D4S","order":17,"prev_distance_km":0.042,"cumulative_distance_km":86.12,"amap_marker_url":"https://uri.amap.com/marker?position=114.807765,30.835501&name=%E8%89%BA%E5%AE%A0%E5%AE%A0%E7%89%A9%E7%BE%8E%E5%AE%B9%E5%B7%A5%E4%BD%9C%E5%AE%A4&src=vetmap&coordinate=gaode&callnative=1","route_id":"r1","route_name":"第1段","global_order":17},{"name":"高氏兽药饲料","address":"永安大道310-1号","phone":"027-86915687","category":"医疗保健服务;动物医疗场所;动物医疗场所","area":"邾城","lng":114.808005,"lat":30.841282,"amap_id":"B0FFFFN89B","order":18,"prev_distance_km":0.643,"cumulative_distance_km":86.763,"amap_marker_url":"https://uri.amap.com/marker?position=114.808005,30.841282&name=%E9%AB%98%E6%B0%8F%E5%85%BD%E8%8D%AF%E9%A5%B2%E6%96%99&src=vetmap&coordinate=gaode&callnative=1","route_id":"r1","route_name":"第1段","global_order":18},{"name":"武汉鸿康誉畜牧服务部","address":"邾城街与老街路交叉口东60米","phone":"13986043298","category":"医疗保健服务;动物医疗场所;兽医站","area":"邾城","lng":114.797609,"lat":30.84706,"amap_id":"B0H0OUY8NT","order":19,"prev_distance_km":1.182,"cumulative_distance_km":87.945,"amap_marker_url":"https://uri.amap.com/marker?position=114.797609,30.847060&name=%E6%AD%A6%E6%B1%89%E9%B8%BF%E5%BA%B7%E8%AA%89%E7%95%9C%E7%89%A7%E6%9C%8D%E5%8A%A1%E9%83%A8&src=vetmap&coordinate=gaode&callnative=1","route_id":"r1","route_name":"第1段","global_order":19},{"name":"武汉市新洲区凤凰镇畜牧兽医站","address":"凤凰大道27号","phone":"","category":"医疗保健服务;动物医疗场所;兽医站","area":"","lng":114.75659,"lat":30.924039,"amap_id":"B001B15YL4","order":20,"prev_distance_km":9.412,"cumulative_distance_km":97.357,"amap_marker_url":"https://uri.amap.com/marker?position=114.756590,30.924039&name=%E6%AD%A6%E6%B1%89%E5%B8%82%E6%96%B0%E6%B4%B2%E5%8C%BA%E5%87%A4%E5%87%B0%E9%95%87%E7%95%9C%E7%89%A7%E5%85%BD%E5%8C%BB%E7%AB%99&src=vetmap&coordinate=gaode&callnative=1","route_id":"r1","route_name":"第1段","global_order":20},{"name":"新洲区三店街畜牧兽医站","address":"龙贵街57号","phone":"","category":"医疗保健服务;动物医疗场所;兽医站","area":"","lng":114.792928,"lat":30.928052,"amap_id":"B0FFJQ6MFZ","order":21,"prev_distance_km":3.495,"cumulative_distance_km":100.852,"amap_marker_url":"https://uri.amap.com/marker?position=114.792928,30.928052&name=%E6%96%B0%E6%B4%B2%E5%8C%BA%E4%B8%89%E5%BA%97%E8%A1%97%E7%95%9C%E7%89%A7%E5%85%BD%E5%8C%BB%E7%AB%99&src=vetmap&coordinate=gaode&callnative=1","route_id":"r1","route_name":"第1段","global_order":21},{"name":"新洲区潘塘畜牧兽医站","address":"潘塘路118号","phone":"","category":"医疗保健服务;动物医疗场所;兽医站","area":"潘塘","lng":114.894089,"lat":30.99648,"amap_id":"B001B17F47","order":22,"prev_distance_km":12.286,"cumulative_distance_km":113.138,"amap_marker_url":"https://uri.amap.com/marker?position=114.894089,30.996480&name=%E6%96%B0%E6%B4%B2%E5%8C%BA%E6%BD%98%E5%A1%98%E7%95%9C%E7%89%A7%E5%85%BD%E5%8C%BB%E7%AB%99&src=vetmap&coordinate=gaode&callnative=1","route_id":"r1","route_name":"第1段","global_order":22}]}