{"summary":{"id":"d01436","province":"湖北省","city":"潜江市","district":"潜江市","count":22,"total_distance_km":115.583,"coordinate_system":"GCJ-02 / Amap","generated_at":"2026-05-07 19:58:08"},"rows":[{"name":"畜牧兽医技术服务中心","address":"滨河南路与乐园一路交叉口东北60米","phone":"","category":"医疗保健服务;动物医疗场所;兽医站","area":"","lng":112.598797,"lat":30.193538,"amap_id":"B0LB3U7GY7","order":1,"prev_distance_km":0.0,"cumulative_distance_km":0.0,"amap_marker_url":"https://uri.amap.com/marker?position=112.598797,30.193538&name=%E7%95%9C%E7%89%A7%E5%85%BD%E5%8C%BB%E6%8A%80%E6%9C%AF%E6%9C%8D%E5%8A%A1%E4%B8%AD%E5%BF%83&src=vetmap&coordinate=gaode&callnative=1"},{"name":"潜江市浩口镇畜牧兽医站","address":"318国道附近","phone":"","category":"医疗保健服务;动物医疗场所;兽医站","area":"","lng":112.639554,"lat":30.376212,"amap_id":"B0AA80LX81","order":2,"prev_distance_km":20.686,"cumulative_distance_km":20.686,"amap_marker_url":"https://uri.amap.com/marker?position=112.639554,30.376212&name=%E6%BD%9C%E6%B1%9F%E5%B8%82%E6%B5%A9%E5%8F%A3%E9%95%87%E7%95%9C%E7%89%A7%E5%85%BD%E5%8C%BB%E7%AB%99&src=vetmap&coordinate=gaode&callnative=1"},{"name":"欣慰宠物诊所","address":"广华寺街道办事处再就业广场4号楼9-12号门面","phone":"13872968218","category":"医疗保健服务;动物医疗场所;兽医站","area":"","lng":112.698206,"lat":30.442673,"amap_id":"B0J24RAJ73","order":3,"prev_distance_km":9.287,"cumulative_distance_km":29.973,"amap_marker_url":"https://uri.amap.com/marker?position=112.698206,30.442673&name=%E6%AC%A3%E6%85%B0%E5%AE%A0%E7%89%A9%E8%AF%8A%E6%89%80&src=vetmap&coordinate=gaode&callnative=1"},{"name":"万康动物医院","address":"广华广南一路君天下小区天赐佳苑1栋105号-108号商铺","phone":"13593982310","category":"医疗保健服务;动物医疗场所;宠物诊所","area":"","lng":112.703935,"lat":30.448175,"amap_id":"B0G3TZOW7Q","order":4,"prev_distance_km":0.822,"cumulative_distance_km":30.795,"amap_marker_url":"https://uri.amap.com/marker?position=112.703935,30.448175&name=%E4%B8%87%E5%BA%B7%E5%8A%A8%E7%89%A9%E5%8C%BB%E9%99%A2&src=vetmap&coordinate=gaode&callnative=1"},{"name":"万康宠物医院","address":"广华办事处向阳派出所旁","phone":"13593982310","category":"医疗保健服务;动物医疗场所;宠物诊所","area":"","lng":112.734541,"lat":30.457024,"amap_id":"B0FFG51ZEE","order":5,"prev_distance_km":3.094,"cumulative_distance_km":33.89,"amap_marker_url":"https://uri.amap.com/marker?position=112.734541,30.457024&name=%E4%B8%87%E5%BA%B7%E5%AE%A0%E7%89%A9%E5%8C%BB%E9%99%A2&src=vetmap&coordinate=gaode&callnative=1"},{"name":"潜江市高石碑镇畜牧兽医站","address":"建设街与陈岭路交叉口东北200米","phone":"","category":"医疗保健服务;动物医疗场所;兽医站","area":"","lng":112.671588,"lat":30.544795,"amap_id":"B0FFK9NAO6","order":6,"prev_distance_km":11.473,"cumulative_distance_km":45.363,"amap_marker_url":"https://uri.amap.com/marker?position=112.671588,30.544795&name=%E6%BD%9C%E6%B1%9F%E5%B8%82%E9%AB%98%E7%9F%B3%E7%A2%91%E9%95%87%E7%95%9C%E7%89%A7%E5%85%BD%E5%8C%BB%E7%AB%99&src=vetmap&coordinate=gaode&callnative=1"},{"name":"潜江市王场镇兽医站","address":"东岳街与红旗路交叉口西南80米","phone":"","category":"医疗保健服务;动物医疗场所;兽医站","area":"","lng":112.779175,"lat":30.506475,"amap_id":"B0M61AFYKV","order":7,"prev_distance_km":11.151,"cumulative_distance_km":56.514,"amap_marker_url":"https://uri.amap.com/marker?position=112.779175,30.506475&name=%E6%BD%9C%E6%B1%9F%E5%B8%82%E7%8E%8B%E5%9C%BA%E9%95%87%E5%85%BD%E5%8C%BB%E7%AB%99&src=vetmap&coordinate=gaode&callnative=1"},{"name":"兽医站诊疗点","address":"东岳街与红旗路交叉口西60米","phone":"","category":"医疗保健服务;动物医疗场所;兽医站","area":"","lng":112.779346,"lat":30.506648,"amap_id":"B0H06DCMFS","order":8,"prev_distance_km":0.025,"cumulative_distance_km":56.539,"amap_marker_url":"https://uri.amap.com/marker?position=112.779346,30.506648&name=%E5%85%BD%E5%8C%BB%E7%AB%99%E8%AF%8A%E7%96%97%E7%82%B9&src=vetmap&coordinate=gaode&callnative=1"},{"name":"潜江市贝尔动物医院转诊中心","address":"马昌垸路6号","phone":"0728-6238358","category":"医疗保健服务;动物医疗场所;宠物诊所","area":"","lng":112.895675,"lat":30.429975,"amap_id":"B0H395RKAO","order":9,"prev_distance_km":14.035,"cumulative_distance_km":70.574,"amap_marker_url":"https://uri.amap.com/marker?position=112.895675,30.429975&name=%E6%BD%9C%E6%B1%9F%E5%B8%82%E8%B4%9D%E5%B0%94%E5%8A%A8%E7%89%A9%E5%8C%BB%E9%99%A2%E8%BD%AC%E8%AF%8A%E4%B8%AD%E5%BF%83&src=vetmap&coordinate=gaode&callnative=1"},{"name":"新华星动保连锁","address":"江汉路与共建巷交叉口西20米","phone":"","category":"医疗保健服务;动物医疗场所;动物医疗场所","area":"","lng":112.89406,"lat":30.42565,"amap_id":"B0FFKJJV5S","order":10,"prev_distance_km":0.505,"cumulative_distance_km":71.08,"amap_marker_url":"https://uri.amap.com/marker?position=112.894060,30.425650&name=%E6%96%B0%E5%8D%8E%E6%98%9F%E5%8A%A8%E4%BF%9D%E8%BF%9E%E9%94%81&src=vetmap&coordinate=gaode&callnative=1"},{"name":"金安动物药业中心","address":"农业发展中心江汉路办公区东南门旁","phone":"","category":"医疗保健服务;动物医疗场所;兽医站","area":"","lng":112.893503,"lat":30.425122,"amap_id":"B0AA800046","order":11,"prev_distance_km":0.079,"cumulative_distance_km":71.159,"amap_marker_url":"https://uri.amap.com/marker?position=112.893503,30.425122&name=%E9%87%91%E5%AE%89%E5%8A%A8%E7%89%A9%E8%8D%AF%E4%B8%9A%E4%B8%AD%E5%BF%83&src=vetmap&coordinate=gaode&callnative=1"},{"name":"新宠宠物药店","address":"潜阳东路19号,棉原社区委员会隔壁","phone":"","category":"医疗保健服务;动物医疗场所;宠物诊所","area":"","lng":112.904729,"lat":30.41248,"amap_id":"B0L0VRJ4MY","order":12,"prev_distance_km":1.771,"cumulative_distance_km":72.929,"amap_marker_url":"https://uri.amap.com/marker?position=112.904729,30.412480&name=%E6%96%B0%E5%AE%A0%E5%AE%A0%E7%89%A9%E8%8D%AF%E5%BA%97&src=vetmap&coordinate=gaode&callnative=1"},{"name":"瑞佳宠物医院","address":"潜阳东路与泰丰路交叉口东120米","phone":"13349729454","category":"医疗保健服务;动物医疗场所;宠物诊所","area":"","lng":112.905733,"lat":30.412346,"amap_id":"B0FFL7VFXM","order":13,"prev_distance_km":0.097,"cumulative_distance_km":73.027,"amap_marker_url":"https://uri.amap.com/marker?position=112.905733,30.412346&name=%E7%91%9E%E4%BD%B3%E5%AE%A0%E7%89%A9%E5%8C%BB%E9%99%A2&src=vetmap&coordinate=gaode&callnative=1"},{"name":"安琪宠物诊所(泰丰)","address":"泰丰办事处保驾路实验高中旁","phone":"19720982367","category":"医疗保健服务;动物医疗场所;宠物诊所","area":"","lng":112.905555,"lat":30.407913,"amap_id":"B0K3CAZ86K","order":14,"prev_distance_km":0.493,"cumulative_distance_km":73.52,"amap_marker_url":"https://uri.amap.com/marker?position=112.905555,30.407913&name=%E5%AE%89%E7%90%AA%E5%AE%A0%E7%89%A9%E8%AF%8A%E6%89%80%28%E6%B3%B0%E4%B8%B0%29&src=vetmap&coordinate=gaode&callnative=1"},{"name":"雅致宠物医院","address":"育才花苑南门西北140米","phone":"18672889202","category":"医疗保健服务;动物医疗场所;宠物诊所","area":"","lng":112.894748,"lat":30.408957,"amap_id":"B0FFI084MC","order":15,"prev_distance_km":1.043,"cumulative_distance_km":74.563,"amap_marker_url":"https://uri.amap.com/marker?position=112.894748,30.408957&name=%E9%9B%85%E8%87%B4%E5%AE%A0%E7%89%A9%E5%8C%BB%E9%99%A2&src=vetmap&coordinate=gaode&callnative=1"},{"name":"美斯道格动物医院","address":"南浦路东升育才府115-116号商铺","phone":"13597440029;15902717242;18819202056","category":"医疗保健服务;动物医疗场所;宠物诊所","area":"","lng":112.892347,"lat":30.408488,"amap_id":"B0KGR5NKZW","order":16,"prev_distance_km":0.236,"cumulative_distance_km":74.799,"amap_marker_url":"https://uri.amap.com/marker?position=112.892347,30.408488&name=%E7%BE%8E%E6%96%AF%E9%81%93%E6%A0%BC%E5%8A%A8%E7%89%A9%E5%8C%BB%E9%99%A2&src=vetmap&coordinate=gaode&callnative=1"},{"name":"雅致宠物诊疗中心","address":"长渠路与红梅路交叉口东北280米","phone":"13407282636;16620158084","category":"医疗保健服务;动物医疗场所;宠物诊所","area":"","lng":112.883735,"lat":30.40201,"amap_id":"B0JKFCTSER","order":17,"prev_distance_km":1.096,"cumulative_distance_km":75.895,"amap_marker_url":"https://uri.amap.com/marker?position=112.883735,30.402010&name=%E9%9B%85%E8%87%B4%E5%AE%A0%E7%89%A9%E8%AF%8A%E7%96%97%E4%B8%AD%E5%BF%83&src=vetmap&coordinate=gaode&callnative=1"},{"name":"安择动物医院(潜江万达)","address":"万达广场2号门2层19号","phone":"18207220403","category":"医疗保健服务;动物医疗场所;宠物诊所","area":"","lng":112.888275,"lat":30.388775,"amap_id":"B0KKPUC404","order":18,"prev_distance_km":1.535,"cumulative_distance_km":77.43,"amap_marker_url":"https://uri.amap.com/marker?position=112.888275,30.388775&name=%E5%AE%89%E6%8B%A9%E5%8A%A8%E7%89%A9%E5%8C%BB%E9%99%A2%28%E6%BD%9C%E6%B1%9F%E4%B8%87%E8%BE%BE%29&src=vetmap&coordinate=gaode&callnative=1"},{"name":"潜江市总口管理区畜牧兽医站","address":"总口路西50米","phone":"","category":"医疗保健服务;动物医疗场所;兽医站","area":"","lng":112.919918,"lat":30.296529,"amap_id":"B0FFF43Z36","order":19,"prev_distance_km":10.697,"cumulative_distance_km":88.127,"amap_marker_url":"https://uri.amap.com/marker?position=112.919918,30.296529&name=%E6%BD%9C%E6%B1%9F%E5%B8%82%E6%80%BB%E5%8F%A3%E7%AE%A1%E7%90%86%E5%8C%BA%E7%95%9C%E7%89%A7%E5%85%BD%E5%8C%BB%E7%AB%99&src=vetmap&coordinate=gaode&callnative=1"},{"name":"潜江市熊口镇畜牧兽医站","address":"熊老路与继红路交叉口东260米","phone":"","category":"医疗保健服务;动物医疗场所;兽医站","area":"","lng":112.786125,"lat":30.304175,"amap_id":"B0FFKJ7X3O","order":20,"prev_distance_km":12.873,"cumulative_distance_km":101.0,"amap_marker_url":"https://uri.amap.com/marker?position=112.786125,30.304175&name=%E6%BD%9C%E6%B1%9F%E5%B8%82%E7%86%8A%E5%8F%A3%E9%95%87%E7%95%9C%E7%89%A7%E5%85%BD%E5%8C%BB%E7%AB%99&src=vetmap&coordinate=gaode&callnative=1"},{"name":"老新水产医院","address":"老新路","phone":"13593985244","category":"医疗保健服务;动物医疗场所;动物医疗场所","area":"","lng":112.855602,"lat":30.196214,"amap_id":"B0LDYL1MRU","order":21,"prev_distance_km":13.735,"cumulative_distance_km":114.735,"amap_marker_url":"https://uri.amap.com/marker?position=112.855602,30.196214&name=%E8%80%81%E6%96%B0%E6%B0%B4%E4%BA%A7%E5%8C%BB%E9%99%A2&src=vetmap&coordinate=gaode&callnative=1"},{"name":"潜江市乡村兽医诊疗点","address":"老新镇老西路12号镇府旁","phone":"","category":"医疗保健服务;动物医疗场所;兽医站","area":"","lng":112.857827,"lat":30.188836,"amap_id":"B0FFLAFO2O","order":22,"prev_distance_km":0.848,"cumulative_distance_km":115.583,"amap_marker_url":"https://uri.amap.com/marker?position=112.857827,30.188836&name=%E6%BD%9C%E6%B1%9F%E5%B8%82%E4%B9%A1%E6%9D%91%E5%85%BD%E5%8C%BB%E8%AF%8A%E7%96%97%E7%82%B9&src=vetmap&coordinate=gaode&callnative=1"}]}