{"summary":{"id":"d01474","province":"湖北省","city":"黄冈市","district":"黄州区","count":9,"route_count":1,"max_route_clinics":9,"total_distance_km":7.497,"coordinate_system":"GCJ-02 / Amap","generated_at":"2026-05-08 19:48:11"},"routes":[{"id":"r1","name":"第1段","count":9,"total_distance_km":7.497,"rows":[{"name":"一生宠动物诊所","address":"赤壁二路21号碧桂园中央公馆1幢1层111商铺","phone":"15171422256","category":"医疗保健服务;动物医疗场所;宠物诊所","area":"","lng":114.902207,"lat":30.462618,"amap_id":"B0HAMC2HC7","order":1,"prev_distance_km":0.0,"cumulative_distance_km":0.0,"amap_marker_url":"https://uri.amap.com/marker?position=114.902207,30.462618&name=%E4%B8%80%E7%94%9F%E5%AE%A0%E5%8A%A8%E7%89%A9%E8%AF%8A%E6%89%80&src=vetmap&coordinate=gaode&callnative=1","route_id":"r1","route_name":"第1段"},{"name":"黄尚宠物诊所","address":"赤壁二路东方名都4-105","phone":"15271619967","category":"医疗保健服务;动物医疗场所;宠物诊所","area":"","lng":114.899933,"lat":30.466245,"amap_id":"B0IU9UW0PS","order":2,"prev_distance_km":0.458,"cumulative_distance_km":0.458,"amap_marker_url":"https://uri.amap.com/marker?position=114.899933,30.466245&name=%E9%BB%84%E5%B0%9A%E5%AE%A0%E7%89%A9%E8%AF%8A%E6%89%80&src=vetmap&coordinate=gaode&callnative=1","route_id":"r1","route_name":"第1段"},{"name":"博爱宠物","address":"涵晖路6-1号","phone":"13409869138","category":"医疗保健服务;动物医疗场所;动物医疗场所","area":"体育路","lng":114.877901,"lat":30.456392,"amap_id":"B0FFFHDAVB","order":3,"prev_distance_km":2.379,"cumulative_distance_km":2.837,"amap_marker_url":"https://uri.amap.com/marker?position=114.877901,30.456392&name=%E5%8D%9A%E7%88%B1%E5%AE%A0%E7%89%A9&src=vetmap&coordinate=gaode&callnative=1","route_id":"r1","route_name":"第1段"},{"name":"饶医生宠物诊所","address":"东门路与筷子巷交叉口西140米","phone":"15007256112","category":"医疗保健服务;动物医疗场所;宠物诊所","area":"","lng":114.880443,"lat":30.451378,"amap_id":"B0IU2CR9V8","order":4,"prev_distance_km":0.608,"cumulative_distance_km":3.446,"amap_marker_url":"https://uri.amap.com/marker?position=114.880443,30.451378&name=%E9%A5%B6%E5%8C%BB%E7%94%9F%E5%AE%A0%E7%89%A9%E8%AF%8A%E6%89%80&src=vetmap&coordinate=gaode&callnative=1","route_id":"r1","route_name":"第1段"},{"name":"黄冈市黄州区动物疫病预防控制中心","address":"体育路1号","phone":"","category":"医疗保健服务;动物医疗场所;动物医疗场所","area":"体育路","lng":114.876661,"lat":30.449723,"amap_id":"B02C90P1DY","order":5,"prev_distance_km":0.407,"cumulative_distance_km":3.852,"amap_marker_url":"https://uri.amap.com/marker?position=114.876661,30.449723&name=%E9%BB%84%E5%86%88%E5%B8%82%E9%BB%84%E5%B7%9E%E5%8C%BA%E5%8A%A8%E7%89%A9%E7%96%AB%E7%97%85%E9%A2%84%E9%98%B2%E6%8E%A7%E5%88%B6%E4%B8%AD%E5%BF%83&src=vetmap&coordinate=gaode&callnative=1","route_id":"r1","route_name":"第1段"},{"name":"元亨宠物诊所","address":"宝塔大道3号","phone":"13409850363","category":"医疗保健服务;动物医疗场所;宠物诊所","area":"宝塔大道","lng":114.874962,"lat":30.442219,"amap_id":"B02C90PO34","order":6,"prev_distance_km":0.85,"cumulative_distance_km":4.703,"amap_marker_url":"https://uri.amap.com/marker?position=114.874962,30.442219&name=%E5%85%83%E4%BA%A8%E5%AE%A0%E7%89%A9%E8%AF%8A%E6%89%80&src=vetmap&coordinate=gaode&callnative=1","route_id":"r1","route_name":"第1段"},{"name":"伴侣宠物医院(黄州大道店)","address":"黄州大道88号(阳光宾馆对面)","phone":"13986565280","category":"医疗保健服务;动物医疗场所;宠物诊所","area":"","lng":114.885743,"lat":30.448592,"amap_id":"B0FFG9OEOA","order":7,"prev_distance_km":1.253,"cumulative_distance_km":5.956,"amap_marker_url":"https://uri.amap.com/marker?position=114.885743,30.448592&name=%E4%BC%B4%E4%BE%A3%E5%AE%A0%E7%89%A9%E5%8C%BB%E9%99%A2%28%E9%BB%84%E5%B7%9E%E5%A4%A7%E9%81%93%E5%BA%97%29&src=vetmap&coordinate=gaode&callnative=1","route_id":"r1","route_name":"第1段"},{"name":"广缘宠物医院","address":"黄州宇济一号西2门旁","phone":"","category":"医疗保健服务;动物医疗场所;宠物诊所","area":"","lng":114.887666,"lat":30.445306,"amap_id":"B0K1AYU90H","order":8,"prev_distance_km":0.409,"cumulative_distance_km":6.365,"amap_marker_url":"https://uri.amap.com/marker?position=114.887666,30.445306&name=%E5%B9%BF%E7%BC%98%E5%AE%A0%E7%89%A9%E5%8C%BB%E9%99%A2&src=vetmap&coordinate=gaode&callnative=1","route_id":"r1","route_name":"第1段"},{"name":"振牧宠物诊所","address":"青砖湖路与西湖二路交叉口东南120米","phone":"13972754620;15098008216","category":"医疗保健服务;动物医疗场所;宠物诊所","area":"青砖湖路","lng":114.888719,"lat":30.435162,"amap_id":"B0HDGAM2OZ","order":9,"prev_distance_km":1.132,"cumulative_distance_km":7.497,"amap_marker_url":"https://uri.amap.com/marker?position=114.888719,30.435162&name=%E6%8C%AF%E7%89%A7%E5%AE%A0%E7%89%A9%E8%AF%8A%E6%89%80&src=vetmap&coordinate=gaode&callnative=1","route_id":"r1","route_name":"第1段"}]}],"rows":[{"name":"一生宠动物诊所","address":"赤壁二路21号碧桂园中央公馆1幢1层111商铺","phone":"15171422256","category":"医疗保健服务;动物医疗场所;宠物诊所","area":"","lng":114.902207,"lat":30.462618,"amap_id":"B0HAMC2HC7","order":1,"prev_distance_km":0.0,"cumulative_distance_km":0.0,"amap_marker_url":"https://uri.amap.com/marker?position=114.902207,30.462618&name=%E4%B8%80%E7%94%9F%E5%AE%A0%E5%8A%A8%E7%89%A9%E8%AF%8A%E6%89%80&src=vetmap&coordinate=gaode&callnative=1","route_id":"r1","route_name":"第1段","global_order":1},{"name":"黄尚宠物诊所","address":"赤壁二路东方名都4-105","phone":"15271619967","category":"医疗保健服务;动物医疗场所;宠物诊所","area":"","lng":114.899933,"lat":30.466245,"amap_id":"B0IU9UW0PS","order":2,"prev_distance_km":0.458,"cumulative_distance_km":0.458,"amap_marker_url":"https://uri.amap.com/marker?position=114.899933,30.466245&name=%E9%BB%84%E5%B0%9A%E5%AE%A0%E7%89%A9%E8%AF%8A%E6%89%80&src=vetmap&coordinate=gaode&callnative=1","route_id":"r1","route_name":"第1段","global_order":2},{"name":"博爱宠物","address":"涵晖路6-1号","phone":"13409869138","category":"医疗保健服务;动物医疗场所;动物医疗场所","area":"体育路","lng":114.877901,"lat":30.456392,"amap_id":"B0FFFHDAVB","order":3,"prev_distance_km":2.379,"cumulative_distance_km":2.837,"amap_marker_url":"https://uri.amap.com/marker?position=114.877901,30.456392&name=%E5%8D%9A%E7%88%B1%E5%AE%A0%E7%89%A9&src=vetmap&coordinate=gaode&callnative=1","route_id":"r1","route_name":"第1段","global_order":3},{"name":"饶医生宠物诊所","address":"东门路与筷子巷交叉口西140米","phone":"15007256112","category":"医疗保健服务;动物医疗场所;宠物诊所","area":"","lng":114.880443,"lat":30.451378,"amap_id":"B0IU2CR9V8","order":4,"prev_distance_km":0.608,"cumulative_distance_km":3.446,"amap_marker_url":"https://uri.amap.com/marker?position=114.880443,30.451378&name=%E9%A5%B6%E5%8C%BB%E7%94%9F%E5%AE%A0%E7%89%A9%E8%AF%8A%E6%89%80&src=vetmap&coordinate=gaode&callnative=1","route_id":"r1","route_name":"第1段","global_order":4},{"name":"黄冈市黄州区动物疫病预防控制中心","address":"体育路1号","phone":"","category":"医疗保健服务;动物医疗场所;动物医疗场所","area":"体育路","lng":114.876661,"lat":30.449723,"amap_id":"B02C90P1DY","order":5,"prev_distance_km":0.407,"cumulative_distance_km":3.852,"amap_marker_url":"https://uri.amap.com/marker?position=114.876661,30.449723&name=%E9%BB%84%E5%86%88%E5%B8%82%E9%BB%84%E5%B7%9E%E5%8C%BA%E5%8A%A8%E7%89%A9%E7%96%AB%E7%97%85%E9%A2%84%E9%98%B2%E6%8E%A7%E5%88%B6%E4%B8%AD%E5%BF%83&src=vetmap&coordinate=gaode&callnative=1","route_id":"r1","route_name":"第1段","global_order":5},{"name":"元亨宠物诊所","address":"宝塔大道3号","phone":"13409850363","category":"医疗保健服务;动物医疗场所;宠物诊所","area":"宝塔大道","lng":114.874962,"lat":30.442219,"amap_id":"B02C90PO34","order":6,"prev_distance_km":0.85,"cumulative_distance_km":4.703,"amap_marker_url":"https://uri.amap.com/marker?position=114.874962,30.442219&name=%E5%85%83%E4%BA%A8%E5%AE%A0%E7%89%A9%E8%AF%8A%E6%89%80&src=vetmap&coordinate=gaode&callnative=1","route_id":"r1","route_name":"第1段","global_order":6},{"name":"伴侣宠物医院(黄州大道店)","address":"黄州大道88号(阳光宾馆对面)","phone":"13986565280","category":"医疗保健服务;动物医疗场所;宠物诊所","area":"","lng":114.885743,"lat":30.448592,"amap_id":"B0FFG9OEOA","order":7,"prev_distance_km":1.253,"cumulative_distance_km":5.956,"amap_marker_url":"https://uri.amap.com/marker?position=114.885743,30.448592&name=%E4%BC%B4%E4%BE%A3%E5%AE%A0%E7%89%A9%E5%8C%BB%E9%99%A2%28%E9%BB%84%E5%B7%9E%E5%A4%A7%E9%81%93%E5%BA%97%29&src=vetmap&coordinate=gaode&callnative=1","route_id":"r1","route_name":"第1段","global_order":7},{"name":"广缘宠物医院","address":"黄州宇济一号西2门旁","phone":"","category":"医疗保健服务;动物医疗场所;宠物诊所","area":"","lng":114.887666,"lat":30.445306,"amap_id":"B0K1AYU90H","order":8,"prev_distance_km":0.409,"cumulative_distance_km":6.365,"amap_marker_url":"https://uri.amap.com/marker?position=114.887666,30.445306&name=%E5%B9%BF%E7%BC%98%E5%AE%A0%E7%89%A9%E5%8C%BB%E9%99%A2&src=vetmap&coordinate=gaode&callnative=1","route_id":"r1","route_name":"第1段","global_order":8},{"name":"振牧宠物诊所","address":"青砖湖路与西湖二路交叉口东南120米","phone":"13972754620;15098008216","category":"医疗保健服务;动物医疗场所;宠物诊所","area":"青砖湖路","lng":114.888719,"lat":30.435162,"amap_id":"B0HDGAM2OZ","order":9,"prev_distance_km":1.132,"cumulative_distance_km":7.497,"amap_marker_url":"https://uri.amap.com/marker?position=114.888719,30.435162&name=%E6%8C%AF%E7%89%A7%E5%AE%A0%E7%89%A9%E8%AF%8A%E6%89%80&src=vetmap&coordinate=gaode&callnative=1","route_id":"r1","route_name":"第1段","global_order":9}]}