{"summary":{"id":"d01497","province":"湖南省","city":"常德市","district":"武陵区","count":32,"total_distance_km":30.06,"coordinate_system":"GCJ-02 / Amap","generated_at":"2026-05-07 19:58:11"},"rows":[{"name":"鼎沣金城宠物医院","address":"老堤障路鼎沣金城里南门1-108","phone":"0736-7723337;13297360006","category":"医疗保健服务;动物医疗场所;宠物诊所","area":"","lng":111.72198,"lat":29.041047,"amap_id":"B0JKT790S9","order":1,"prev_distance_km":0.0,"cumulative_distance_km":0.0,"amap_marker_url":"https://uri.amap.com/marker?position=111.721980,29.041047&name=%E9%BC%8E%E6%B2%A3%E9%87%91%E5%9F%8E%E5%AE%A0%E7%89%A9%E5%8C%BB%E9%99%A2&src=vetmap&coordinate=gaode&callnative=1"},{"name":"柳叶动物医院","address":"乾园博士府西门旁","phone":"15673114506;18627366813","category":"医疗保健服务;动物医疗场所;宠物诊所","area":"","lng":111.712801,"lat":29.052377,"amap_id":"B0IKSHYP5Y","order":2,"prev_distance_km":1.544,"cumulative_distance_km":1.544,"amap_marker_url":"https://uri.amap.com/marker?position=111.712801,29.052377&name=%E6%9F%B3%E5%8F%B6%E5%8A%A8%E7%89%A9%E5%8C%BB%E9%99%A2&src=vetmap&coordinate=gaode&callnative=1"},{"name":"瑞鹏宠物医院(紫菱路分院)","address":"柳叶湖旅游度假区七里桥街道七里桥社区丹阳路军安小区787号门面","phone":"0736-7719018","category":"医疗保健服务;动物医疗场所;宠物诊所","area":"","lng":111.711356,"lat":29.054194,"amap_id":"B0H1KD2DAQ","order":3,"prev_distance_km":0.246,"cumulative_distance_km":1.79,"amap_marker_url":"https://uri.amap.com/marker?position=111.711356,29.054194&name=%E7%91%9E%E9%B9%8F%E5%AE%A0%E7%89%A9%E5%8C%BB%E9%99%A2%28%E7%B4%AB%E8%8F%B1%E8%B7%AF%E5%88%86%E9%99%A2%29&src=vetmap&coordinate=gaode&callnative=1"},{"name":"元佑动物医院","address":"紫缘路与保靖路交叉口北100米","phone":"","category":"医疗保健服务;动物医疗场所;宠物诊所","area":"","lng":111.712575,"lat":29.058125,"amap_id":"B0LRU1D7M0","order":4,"prev_distance_km":0.453,"cumulative_distance_km":2.243,"amap_marker_url":"https://uri.amap.com/marker?position=111.712575,29.058125&name=%E5%85%83%E4%BD%91%E5%8A%A8%E7%89%A9%E5%8C%BB%E9%99%A2&src=vetmap&coordinate=gaode&callnative=1"},{"name":"华瑞宠物医院","address":"三星路中南春熙集13栋103号门面","phone":"13575210292;15616619637;18670693527","category":"医疗保健服务;动物医疗场所;宠物诊所","area":"","lng":111.70858,"lat":29.065646,"amap_id":"B0LGKUMJVQ","order":5,"prev_distance_km":0.922,"cumulative_distance_km":3.165,"amap_marker_url":"https://uri.amap.com/marker?position=111.708580,29.065646&name=%E5%8D%8E%E7%91%9E%E5%AE%A0%E7%89%A9%E5%8C%BB%E9%99%A2&src=vetmap&coordinate=gaode&callnative=1"},{"name":"武陵区动物医院疑难骨科心内科(新河路分院)","address":"新河路华达幸福湾","phone":"0736-7226120;18670667598","category":"医疗保健服务;动物医疗场所;动物医疗场所","area":"","lng":111.700031,"lat":29.064358,"amap_id":"B0K135U5ZB","order":6,"prev_distance_km":0.843,"cumulative_distance_km":4.008,"amap_marker_url":"https://uri.amap.com/marker?position=111.700031,29.064358&name=%E6%AD%A6%E9%99%B5%E5%8C%BA%E5%8A%A8%E7%89%A9%E5%8C%BB%E9%99%A2%E7%96%91%E9%9A%BE%E9%AA%A8%E7%A7%91%E5%BF%83%E5%86%85%E7%A7%91%28%E6%96%B0%E6%B2%B3%E8%B7%AF%E5%88%86%E9%99%A2%29&src=vetmap&coordinate=gaode&callnative=1"},{"name":"武陵区动物医院(新河路分院)","address":"华达·幸福湾北门旁","phone":"","category":"医疗保健服务;动物医疗场所;宠物诊所","area":"","lng":111.699949,"lat":29.064266,"amap_id":"B0FFKC0REU","order":7,"prev_distance_km":0.013,"cumulative_distance_km":4.021,"amap_marker_url":"https://uri.amap.com/marker?position=111.699949,29.064266&name=%E6%AD%A6%E9%99%B5%E5%8C%BA%E5%8A%A8%E7%89%A9%E5%8C%BB%E9%99%A2%28%E6%96%B0%E6%B2%B3%E8%B7%AF%E5%88%86%E9%99%A2%29&src=vetmap&coordinate=gaode&callnative=1"},{"name":"常德市中心动物医院","address":"柳河鑫苑南门对面门面","phone":"19907361120;19973689280","category":"医疗保健服务;动物医疗场所;宠物诊所","area":"","lng":111.696738,"lat":29.05685,"amap_id":"B0J6ZZIKGJ","order":8,"prev_distance_km":0.882,"cumulative_distance_km":4.903,"amap_marker_url":"https://uri.amap.com/marker?position=111.696738,29.056850&name=%E5%B8%B8%E5%BE%B7%E5%B8%82%E4%B8%AD%E5%BF%83%E5%8A%A8%E7%89%A9%E5%8C%BB%E9%99%A2&src=vetmap&coordinate=gaode&callnative=1"},{"name":"朝阳宠物诊所","address":"南坪街道沙港社区朝阳路朝阳时光1栋110号","phone":"15580083075","category":"医疗保健服务;动物医疗场所;宠物诊所","area":"","lng":111.689791,"lat":29.060527,"amap_id":"B0H2BZKWXH","order":9,"prev_distance_km":0.789,"cumulative_distance_km":5.692,"amap_marker_url":"https://uri.amap.com/marker?position=111.689791,29.060527&name=%E6%9C%9D%E9%98%B3%E5%AE%A0%E7%89%A9%E8%AF%8A%E6%89%80&src=vetmap&coordinate=gaode&callnative=1"},{"name":"瑞鹏宠物医院(皂果路分院)","address":"皂果路万达湖公馆A2区119商铺(紫菱路与皂果路交汇口)","phone":"0736-7719008;19936869792","category":"医疗保健服务;动物医疗场所;宠物诊所","area":"皂果路","lng":111.681948,"lat":29.060459,"amap_id":"B0H1KS0X4C","order":10,"prev_distance_km":0.762,"cumulative_distance_km":6.454,"amap_marker_url":"https://uri.amap.com/marker?position=111.681948,29.060459&name=%E7%91%9E%E9%B9%8F%E5%AE%A0%E7%89%A9%E5%8C%BB%E9%99%A2%28%E7%9A%82%E6%9E%9C%E8%B7%AF%E5%88%86%E9%99%A2%29&src=vetmap&coordinate=gaode&callnative=1"},{"name":"陵宠起航宠物医院·猫科·急重症·ICU","address":"南坪街道白马社区龙港路汇景城118-120门面","phone":"19310780524","category":"医疗保健服务;动物医疗场所;宠物诊所","area":"","lng":111.674774,"lat":29.06279,"amap_id":"B0I2MUDG1E","order":11,"prev_distance_km":0.744,"cumulative_distance_km":7.198,"amap_marker_url":"https://uri.amap.com/marker?position=111.674774,29.062790&name=%E9%99%B5%E5%AE%A0%E8%B5%B7%E8%88%AA%E5%AE%A0%E7%89%A9%E5%8C%BB%E9%99%A2%C2%B7%E7%8C%AB%E7%A7%91%C2%B7%E6%80%A5%E9%87%8D%E7%97%87%C2%B7ICU&src=vetmap&coordinate=gaode&callnative=1"},{"name":"德宠宠物医院","address":"德和园南门西130米","phone":"","category":"医疗保健服务;动物医疗场所;宠物诊所","area":"","lng":111.672375,"lat":29.055425,"amap_id":"B0LKPCZJV9","order":12,"prev_distance_km":0.852,"cumulative_distance_km":8.05,"amap_marker_url":"https://uri.amap.com/marker?position=111.672375,29.055425&name=%E5%BE%B7%E5%AE%A0%E5%AE%A0%E7%89%A9%E5%8C%BB%E9%99%A2&src=vetmap&coordinate=gaode&callnative=1"},{"name":"圣佰宠物诊所","address":"芙蓉路1330号","phone":"17373685877","category":"医疗保健服务;动物医疗场所;宠物诊所","area":"","lng":111.666999,"lat":29.05756,"amap_id":"B0J675O4MT","order":13,"prev_distance_km":0.574,"cumulative_distance_km":8.624,"amap_marker_url":"https://uri.amap.com/marker?position=111.666999,29.057560&name=%E5%9C%A3%E4%BD%B0%E5%AE%A0%E7%89%A9%E8%AF%8A%E6%89%80&src=vetmap&coordinate=gaode&callnative=1"},{"name":"铭瑞动物诊所","address":"长庚街道仙源社区汇景中央广场二期3-2号楼102号商铺","phone":"","category":"医疗保健服务;动物医疗场所;宠物诊所","area":"","lng":111.665993,"lat":29.049773,"amap_id":"B0M606L312","order":14,"prev_distance_km":0.871,"cumulative_distance_km":9.495,"amap_marker_url":"https://uri.amap.com/marker?position=111.665993,29.049773&name=%E9%93%AD%E7%91%9E%E5%8A%A8%E7%89%A9%E8%AF%8A%E6%89%80&src=vetmap&coordinate=gaode&callnative=1"},{"name":"小项兽药","address":"高车路与常澧路交叉口北60米","phone":"","category":"购物服务;购物相关场所;购物相关场所|医疗保健服务;动物医疗场所;动物医疗场所","area":"","lng":111.657575,"lat":29.048125,"amap_id":"B0L0D6LWCL","order":15,"prev_distance_km":0.839,"cumulative_distance_km":10.334,"amap_marker_url":"https://uri.amap.com/marker?position=111.657575,29.048125&name=%E5%B0%8F%E9%A1%B9%E5%85%BD%E8%8D%AF&src=vetmap&coordinate=gaode&callnative=1"},{"name":"王子宠物诊所(创元美景店)","address":"洞庭大道2578号泰和园门面(途虎养车旁)","phone":"13875118481;18107428734","category":"医疗保健服务;动物医疗场所;宠物诊所","area":"","lng":111.658621,"lat":29.040645,"amap_id":"B0JRR7Y2YZ","order":16,"prev_distance_km":0.838,"cumulative_distance_km":11.172,"amap_marker_url":"https://uri.amap.com/marker?position=111.658621,29.040645&name=%E7%8E%8B%E5%AD%90%E5%AE%A0%E7%89%A9%E8%AF%8A%E6%89%80%28%E5%88%9B%E5%85%83%E7%BE%8E%E6%99%AF%E5%BA%97%29&src=vetmap&coordinate=gaode&callnative=1"},{"name":"龙港巷宠物医院(富强社区店)","address":"南坪街道三岔路","phone":"13027401956;15607362587","category":"医疗保健服务;动物医疗场所;宠物诊所","area":"","lng":111.675898,"lat":29.038042,"amap_id":"B0FFHKRTSS","order":17,"prev_distance_km":1.704,"cumulative_distance_km":12.876,"amap_marker_url":"https://uri.amap.com/marker?position=111.675898,29.038042&name=%E9%BE%99%E6%B8%AF%E5%B7%B7%E5%AE%A0%E7%89%A9%E5%8C%BB%E9%99%A2%28%E5%AF%8C%E5%BC%BA%E7%A4%BE%E5%8C%BA%E5%BA%97%29&src=vetmap&coordinate=gaode&callnative=1"},{"name":"广德动物医院","address":"皂果路227号","phone":"0736-7173120;13575217537","category":"医疗保健服务;动物医疗场所;宠物诊所","area":"皂果路","lng":111.680915,"lat":29.038577,"amap_id":"B0FFGF4P7L","order":18,"prev_distance_km":0.491,"cumulative_distance_km":13.367,"amap_marker_url":"https://uri.amap.com/marker?position=111.680915,29.038577&name=%E5%B9%BF%E5%BE%B7%E5%8A%A8%E7%89%A9%E5%8C%BB%E9%99%A2&src=vetmap&coordinate=gaode&callnative=1"},{"name":"元佑动物医院","address":"皂果路德景园金街4栋108号","phone":"0736-7201121","category":"医疗保健服务;动物医疗场所;宠物诊所","area":"白马湖","lng":111.68089,"lat":29.042709,"amap_id":"B0FFGK6TZL","order":19,"prev_distance_km":0.459,"cumulative_distance_km":13.827,"amap_marker_url":"https://uri.amap.com/marker?position=111.680890,29.042709&name=%E5%85%83%E4%BD%91%E5%8A%A8%E7%89%A9%E5%8C%BB%E9%99%A2&src=vetmap&coordinate=gaode&callnative=1"},{"name":"广德动物医院诊疗中心·急重症ICU·异宠专科(滨湖路店)","address":"中原·德景园北1门东130米","phone":"18175621599","category":"医疗保健服务;动物医疗场所;宠物诊所","area":"白马湖","lng":111.679962,"lat":29.046071,"amap_id":"B0KB27QU7C","order":20,"prev_distance_km":0.385,"cumulative_distance_km":14.211,"amap_marker_url":"https://uri.amap.com/marker?position=111.679962,29.046071&name=%E5%B9%BF%E5%BE%B7%E5%8A%A8%E7%89%A9%E5%8C%BB%E9%99%A2%E8%AF%8A%E7%96%97%E4%B8%AD%E5%BF%83%C2%B7%E6%80%A5%E9%87%8D%E7%97%87ICU%C2%B7%E5%BC%82%E5%AE%A0%E4%B8%93%E7%A7%91%28%E6%BB%A8%E6%B9%96%E8%B7%AF%E5%BA%97%29&src=vetmap&coordinate=gaode&callnative=1"},{"name":"广德动物医院朝阳路分院","address":"朝阳路朝阳新居","phone":"0736-7285120;18307362532","category":"医疗保健服务;动物医疗场所;宠物诊所","area":"","lng":111.688673,"lat":29.052106,"amap_id":"B0FFIV06UD","order":21,"prev_distance_km":1.08,"cumulative_distance_km":15.292,"amap_marker_url":"https://uri.amap.com/marker?position=111.688673,29.052106&name=%E5%B9%BF%E5%BE%B7%E5%8A%A8%E7%89%A9%E5%8C%BB%E9%99%A2%E6%9C%9D%E9%98%B3%E8%B7%AF%E5%88%86%E9%99%A2&src=vetmap&coordinate=gaode&callnative=1"},{"name":"思思爱心动物诊所","address":"穿紫河街道西园路45号","phone":"13974297182","category":"医疗保健服务;动物医疗场所;宠物诊所","area":"武陵大道","lng":111.691158,"lat":29.04394,"amap_id":"B02E00Q6FZ","order":22,"prev_distance_km":0.94,"cumulative_distance_km":16.231,"amap_marker_url":"https://uri.amap.com/marker?position=111.691158,29.043940&name=%E6%80%9D%E6%80%9D%E7%88%B1%E5%BF%83%E5%8A%A8%E7%89%A9%E8%AF%8A%E6%89%80&src=vetmap&coordinate=gaode&callnative=1"},{"name":"杏林宠物医院(金桥社区店)","address":"丹阳街道办事处金桥社区朗州北路808号","phone":"13055020310","category":"医疗保健服务;动物医疗场所;宠物诊所","area":"","lng":111.699389,"lat":29.046371,"amap_id":"B0LR1RUGKC","order":23,"prev_distance_km":0.845,"cumulative_distance_km":17.076,"amap_marker_url":"https://uri.amap.com/marker?position=111.699389,29.046371&name=%E6%9D%8F%E6%9E%97%E5%AE%A0%E7%89%A9%E5%8C%BB%E9%99%A2%28%E9%87%91%E6%A1%A5%E7%A4%BE%E5%8C%BA%E5%BA%97%29&src=vetmap&coordinate=gaode&callnative=1"},{"name":"康美宠物医院(大润发店)","address":"洞庭大道水榭花城中城2期14栋106号","phone":"0736-7237120","category":"医疗保健服务;动物医疗场所;宠物诊所","area":"","lng":111.701158,"lat":29.04088,"amap_id":"B0FFI40YF8","order":24,"prev_distance_km":0.634,"cumulative_distance_km":17.71,"amap_marker_url":"https://uri.amap.com/marker?position=111.701158,29.040880&name=%E5%BA%B7%E7%BE%8E%E5%AE%A0%E7%89%A9%E5%8C%BB%E9%99%A2%28%E5%A4%A7%E6%B6%A6%E5%8F%91%E5%BA%97%29&src=vetmap&coordinate=gaode&callnative=1"},{"name":"鸿康贝贝康宠物医院","address":"洞庭大道787号","phone":"13973657970","category":"医疗保健服务;动物医疗场所;宠物诊所","area":"","lng":111.702698,"lat":29.041232,"amap_id":"B0FFMDZH7T","order":25,"prev_distance_km":0.155,"cumulative_distance_km":17.865,"amap_marker_url":"https://uri.amap.com/marker?position=111.702698,29.041232&name=%E9%B8%BF%E5%BA%B7%E8%B4%9D%E8%B4%9D%E5%BA%B7%E5%AE%A0%E7%89%A9%E5%8C%BB%E9%99%A2&src=vetmap&coordinate=gaode&callnative=1"},{"name":"星星宠物诊所","address":"光荣路水榭花城北城8号楼门面103号","phone":"13288888633;15073666966","category":"医疗保健服务;动物医疗场所;宠物诊所","area":"光荣路","lng":111.705365,"lat":29.03881,"amap_id":"B0JA4U0OCW","order":26,"prev_distance_km":0.374,"cumulative_distance_km":18.239,"amap_marker_url":"https://uri.amap.com/marker?position=111.705365,29.038810&name=%E6%98%9F%E6%98%9F%E5%AE%A0%E7%89%A9%E8%AF%8A%E6%89%80&src=vetmap&coordinate=gaode&callnative=1"},{"name":"爱恬动物医院(育才路店)","address":"穿紫河街道育才路356号","phone":"0736-7179120;13875161982","category":"医疗保健服务;动物医疗场所;宠物诊所","area":"武陵大道","lng":111.690842,"lat":29.037152,"amap_id":"B0FFIK60BE","order":27,"prev_distance_km":1.424,"cumulative_distance_km":19.663,"amap_marker_url":"https://uri.amap.com/marker?position=111.690842,29.037152&name=%E7%88%B1%E6%81%AC%E5%8A%A8%E7%89%A9%E5%8C%BB%E9%99%A2%28%E8%82%B2%E6%89%8D%E8%B7%AF%E5%BA%97%29&src=vetmap&coordinate=gaode&callnative=1"},{"name":"狗仔队宠物医院·金钻院","address":"刘海巷10号","phone":"0736-7951120","category":"医疗保健服务;动物医疗场所;宠物诊所","area":"","lng":111.695039,"lat":29.030869,"amap_id":"B0FFF44YJ7","order":28,"prev_distance_km":0.809,"cumulative_distance_km":20.472,"amap_marker_url":"https://uri.amap.com/marker?position=111.695039,29.030869&name=%E7%8B%97%E4%BB%94%E9%98%9F%E5%AE%A0%E7%89%A9%E5%8C%BB%E9%99%A2%C2%B7%E9%87%91%E9%92%BB%E9%99%A2&src=vetmap&coordinate=gaode&callnative=1"},{"name":"宠e生宠物医院","address":"丹阳街道建民巷社区朗州路182号","phone":"0736-7171120;19386763355","category":"医疗保健服务;动物医疗场所;宠物诊所","area":"","lng":111.698806,"lat":29.032328,"amap_id":"B0K6RCGBTP","order":29,"prev_distance_km":0.401,"cumulative_distance_km":20.872,"amap_marker_url":"https://uri.amap.com/marker?position=111.698806,29.032328&name=%E5%AE%A0e%E7%94%9F%E5%AE%A0%E7%89%A9%E5%8C%BB%E9%99%A2&src=vetmap&coordinate=gaode&callnative=1"},{"name":"常德市武陵区动物医院","address":"青年路478号","phone":"0736-7236814;13973651350;18670667598","category":"医疗保健服务;动物医疗场所;宠物诊所","area":"","lng":111.708227,"lat":29.029974,"amap_id":"B0FFGXXV0E","order":30,"prev_distance_km":0.953,"cumulative_distance_km":21.825,"amap_marker_url":"https://uri.amap.com/marker?position=111.708227,29.029974&name=%E5%B8%B8%E5%BE%B7%E5%B8%82%E6%AD%A6%E9%99%B5%E5%8C%BA%E5%8A%A8%E7%89%A9%E5%8C%BB%E9%99%A2&src=vetmap&coordinate=gaode&callnative=1"},{"name":"宠济堂动物医院","address":"沅安路617号","phone":"15367790700","category":"医疗保健服务;动物医疗场所;宠物诊所","area":"沅安路","lng":111.703869,"lat":29.019825,"amap_id":"B0FFJ03YWF","order":31,"prev_distance_km":1.205,"cumulative_distance_km":23.03,"amap_marker_url":"https://uri.amap.com/marker?position=111.703869,29.019825&name=%E5%AE%A0%E6%B5%8E%E5%A0%82%E5%8A%A8%E7%89%A9%E5%8C%BB%E9%99%A2&src=vetmap&coordinate=gaode&callnative=1"},{"name":"狗先生宠物诊所","address":"德山街道莲花池社区冷家窝路92号","phone":"18670620445;18974265550","category":"医疗保健服务;动物医疗场所;宠物诊所","area":"","lng":111.704721,"lat":28.95661,"amap_id":"B0FFMBCSOW","order":32,"prev_distance_km":7.03,"cumulative_distance_km":30.06,"amap_marker_url":"https://uri.amap.com/marker?position=111.704721,28.956610&name=%E7%8B%97%E5%85%88%E7%94%9F%E5%AE%A0%E7%89%A9%E8%AF%8A%E6%89%80&src=vetmap&coordinate=gaode&callnative=1"}]}