{"summary":{"id":"d01490","province":"湖南省","city":"岳阳市","district":"岳阳楼区","count":16,"route_count":1,"max_route_clinics":16,"total_distance_km":14.728,"coordinate_system":"GCJ-02 / Amap","generated_at":"2026-05-07 21:30:19"},"routes":[{"id":"r1","name":"第1段","count":16,"total_distance_km":14.728,"rows":[{"name":"可萌宠物诊所","address":"北港社区蓝盾新天地1栋112号","phone":"19967010168","category":"医疗保健服务;动物医疗场所;宠物诊所","area":"","lng":113.166582,"lat":29.352464,"amap_id":"B0K3T5PM27","order":1,"prev_distance_km":0.0,"cumulative_distance_km":0.0,"amap_marker_url":"https://uri.amap.com/marker?position=113.166582,29.352464&name=%E5%8F%AF%E8%90%8C%E5%AE%A0%E7%89%A9%E8%AF%8A%E6%89%80&src=vetmap&coordinate=gaode&callnative=1","route_id":"r1","route_name":"第1段"},{"name":"仁爱宠物医院(八字门店)","address":"富兴康城·兴悦花园南门东50米","phone":"0730-8696200;13975005828","category":"医疗保健服务;动物医疗场所;宠物诊所","area":"青年东路","lng":113.167784,"lat":29.361501,"amap_id":"B0FFIWBTIJ","order":2,"prev_distance_km":1.012,"cumulative_distance_km":1.012,"amap_marker_url":"https://uri.amap.com/marker?position=113.167784,29.361501&name=%E4%BB%81%E7%88%B1%E5%AE%A0%E7%89%A9%E5%8C%BB%E9%99%A2%28%E5%85%AB%E5%AD%97%E9%97%A8%E5%BA%97%29&src=vetmap&coordinate=gaode&callnative=1","route_id":"r1","route_name":"第1段"},{"name":"贝康宠物诊疗","address":"八字门富兴鹏程西E栋107-108号","phone":"15074038424","category":"医疗保健服务;动物医疗场所;宠物诊所","area":"青年东路","lng":113.164103,"lat":29.366106,"amap_id":"B0KR4RFPJ5","order":3,"prev_distance_km":0.624,"cumulative_distance_km":1.636,"amap_marker_url":"https://uri.amap.com/marker?position=113.164103,29.366106&name=%E8%B4%9D%E5%BA%B7%E5%AE%A0%E7%89%A9%E8%AF%8A%E7%96%97&src=vetmap&coordinate=gaode&callnative=1","route_id":"r1","route_name":"第1段"},{"name":"岳阳仁心宠物医院","address":"北港路128号","phone":"0730-8340120;18274120953","category":"医疗保健服务;动物医疗场所;宠物诊所","area":"","lng":113.150687,"lat":29.360675,"amap_id":"B0H11DOARF","order":4,"prev_distance_km":1.434,"cumulative_distance_km":3.069,"amap_marker_url":"https://uri.amap.com/marker?position=113.150687,29.360675&name=%E5%B2%B3%E9%98%B3%E4%BB%81%E5%BF%83%E5%AE%A0%E7%89%A9%E5%8C%BB%E9%99%A2&src=vetmap&coordinate=gaode&callnative=1","route_id":"r1","route_name":"第1段"},{"name":"沐恩宠物医院","address":"学院路387号","phone":"18673008570","category":"医疗保健服务;动物医疗场所;宠物诊所","area":"学院路","lng":113.143274,"lat":29.349778,"amap_id":"B0FFKFM1MO","order":5,"prev_distance_km":1.409,"cumulative_distance_km":4.478,"amap_marker_url":"https://uri.amap.com/marker?position=113.143274,29.349778&name=%E6%B2%90%E6%81%A9%E5%AE%A0%E7%89%A9%E5%8C%BB%E9%99%A2&src=vetmap&coordinate=gaode&callnative=1","route_id":"r1","route_name":"第1段"},{"name":"友医知宠动物医院","address":"南湖新苑南门旁","phone":"18075710022;18659721590;19330017797","category":"医疗保健服务;动物医疗场所;宠物诊所","area":"南湖","lng":113.125532,"lat":29.347835,"amap_id":"B0IKHSEUJ5","order":6,"prev_distance_km":1.733,"cumulative_distance_km":6.211,"amap_marker_url":"https://uri.amap.com/marker?position=113.125532,29.347835&name=%E5%8F%8B%E5%8C%BB%E7%9F%A5%E5%AE%A0%E5%8A%A8%E7%89%A9%E5%8C%BB%E9%99%A2&src=vetmap&coordinate=gaode&callnative=1","route_id":"r1","route_name":"第1段"},{"name":"仁爱宠物医院(四化建店)","address":"天伦城花板桥路336号","phone":"15073033922","category":"医疗保健服务;动物医疗场所;宠物诊所","area":"建湘路","lng":113.132329,"lat":29.361771,"amap_id":"B0FFGR2H21","order":7,"prev_distance_km":1.684,"cumulative_distance_km":7.895,"amap_marker_url":"https://uri.amap.com/marker?position=113.132329,29.361771&name=%E4%BB%81%E7%88%B1%E5%AE%A0%E7%89%A9%E5%8C%BB%E9%99%A2%28%E5%9B%9B%E5%8C%96%E5%BB%BA%E5%BA%97%29&src=vetmap&coordinate=gaode&callnative=1","route_id":"r1","route_name":"第1段"},{"name":"犬通社宠物医院","address":"五里牌路鸿世家园小区29-30号门面","phone":"13786025959;15173006306","category":"医疗保健服务;动物医疗场所;宠物诊所","area":"建湘路","lng":113.134089,"lat":29.368621,"amap_id":"B0FFIW2MJG","order":8,"prev_distance_km":0.781,"cumulative_distance_km":8.675,"amap_marker_url":"https://uri.amap.com/marker?position=113.134089,29.368621&name=%E7%8A%AC%E9%80%9A%E7%A4%BE%E5%AE%A0%E7%89%A9%E5%8C%BB%E9%99%A2&src=vetmap&coordinate=gaode&callnative=1","route_id":"r1","route_name":"第1段"},{"name":"顽皮宠物(天伦城店)","address":"天伦城步行街外街美食街105号","phone":"15107300834","category":"医疗保健服务;动物医疗场所;宠物诊所","area":"建湘路","lng":113.12774,"lat":29.364106,"amap_id":"B0FFI724UI","order":9,"prev_distance_km":0.794,"cumulative_distance_km":9.469,"amap_marker_url":"https://uri.amap.com/marker?position=113.127740,29.364106&name=%E9%A1%BD%E7%9A%AE%E5%AE%A0%E7%89%A9%28%E5%A4%A9%E4%BC%A6%E5%9F%8E%E5%BA%97%29&src=vetmap&coordinate=gaode&callnative=1","route_id":"r1","route_name":"第1段"},{"name":"动物咬伤门诊","address":"青年中路与平安巷交叉口东120米","phone":"","category":"医疗保健服务;动物医疗场所;兽医站","area":"","lng":113.122101,"lat":29.36532,"amap_id":"B0LB67DALK","order":10,"prev_distance_km":0.563,"cumulative_distance_km":10.032,"amap_marker_url":"https://uri.amap.com/marker?position=113.122101,29.365320&name=%E5%8A%A8%E7%89%A9%E5%92%AC%E4%BC%A4%E9%97%A8%E8%AF%8A&src=vetmap&coordinate=gaode&callnative=1","route_id":"r1","route_name":"第1段"},{"name":"鹏程宠物医院(岳阳总店)","address":"青年中路193号人防办旁","phone":"0730-8938293;19958007459","category":"医疗保健服务;动物医疗场所;宠物诊所","area":"","lng":113.115833,"lat":29.365367,"amap_id":"B0FFLLX310","order":11,"prev_distance_km":0.607,"cumulative_distance_km":10.64,"amap_marker_url":"https://uri.amap.com/marker?position=113.115833,29.365367&name=%E9%B9%8F%E7%A8%8B%E5%AE%A0%E7%89%A9%E5%8C%BB%E9%99%A2%28%E5%B2%B3%E9%98%B3%E6%80%BB%E5%BA%97%29&src=vetmap&coordinate=gaode&callnative=1","route_id":"r1","route_name":"第1段"},{"name":"派多格宠物医院(得胜路店)","address":"得胜路233号","phone":"19973083663","category":"医疗保健服务;动物医疗场所;宠物诊所","area":"得胜南路","lng":113.106284,"lat":29.358915,"amap_id":"B0JDDZY5Y9","order":12,"prev_distance_km":1.171,"cumulative_distance_km":11.811,"amap_marker_url":"https://uri.amap.com/marker?position=113.106284,29.358915&name=%E6%B4%BE%E5%A4%9A%E6%A0%BC%E5%AE%A0%E7%89%A9%E5%8C%BB%E9%99%A2%28%E5%BE%97%E8%83%9C%E8%B7%AF%E5%BA%97%29&src=vetmap&coordinate=gaode&callnative=1","route_id":"r1","route_name":"第1段"},{"name":"宠爱有家宠物医院","address":"得胜南路262号","phone":"13786010025","category":"医疗保健服务;动物医疗场所;宠物诊所","area":"得胜南路","lng":113.106872,"lat":29.3638,"amap_id":"B0HRRST72W","order":13,"prev_distance_km":0.546,"cumulative_distance_km":12.357,"amap_marker_url":"https://uri.amap.com/marker?position=113.106872,29.363800&name=%E5%AE%A0%E7%88%B1%E6%9C%89%E5%AE%B6%E5%AE%A0%E7%89%A9%E5%8C%BB%E9%99%A2&src=vetmap&coordinate=gaode&callnative=1","route_id":"r1","route_name":"第1段"},{"name":"岳阳市潇湘宠物诊所","address":"青年西路81号(青年路小学斜对面)","phone":"0730-8666120;0730-8973833;18073079684","category":"医疗保健服务;动物医疗场所;宠物诊所","area":"","lng":113.100427,"lat":29.366823,"amap_id":"B0FFF4H4MM","order":14,"prev_distance_km":0.709,"cumulative_distance_km":13.066,"amap_marker_url":"https://uri.amap.com/marker?position=113.100427,29.366823&name=%E5%B2%B3%E9%98%B3%E5%B8%82%E6%BD%87%E6%B9%98%E5%AE%A0%E7%89%A9%E8%AF%8A%E6%89%80&src=vetmap&coordinate=gaode&callnative=1","route_id":"r1","route_name":"第1段"},{"name":"安欣宠物医院","address":"岳阳楼区步行街南辅道5号","phone":"18973011118","category":"医疗保健服务;动物医疗场所;宠物诊所","area":"东茅岭","lng":113.105295,"lat":29.371716,"amap_id":"B0ID4ANHP0","order":15,"prev_distance_km":0.72,"cumulative_distance_km":13.786,"amap_marker_url":"https://uri.amap.com/marker?position=113.105295,29.371716&name=%E5%AE%89%E6%AC%A3%E5%AE%A0%E7%89%A9%E5%8C%BB%E9%99%A2&src=vetmap&coordinate=gaode&callnative=1","route_id":"r1","route_name":"第1段"},{"name":"友宠宠物医院","address":"巴陵西路10号","phone":"13307400103","category":"医疗保健服务;动物医疗场所;宠物诊所","area":"","lng":113.096027,"lat":29.374266,"amap_id":"B0I30HKWAQ","order":16,"prev_distance_km":0.942,"cumulative_distance_km":14.728,"amap_marker_url":"https://uri.amap.com/marker?position=113.096027,29.374266&name=%E5%8F%8B%E5%AE%A0%E5%AE%A0%E7%89%A9%E5%8C%BB%E9%99%A2&src=vetmap&coordinate=gaode&callnative=1","route_id":"r1","route_name":"第1段"}]}],"rows":[{"name":"可萌宠物诊所","address":"北港社区蓝盾新天地1栋112号","phone":"19967010168","category":"医疗保健服务;动物医疗场所;宠物诊所","area":"","lng":113.166582,"lat":29.352464,"amap_id":"B0K3T5PM27","order":1,"prev_distance_km":0.0,"cumulative_distance_km":0.0,"amap_marker_url":"https://uri.amap.com/marker?position=113.166582,29.352464&name=%E5%8F%AF%E8%90%8C%E5%AE%A0%E7%89%A9%E8%AF%8A%E6%89%80&src=vetmap&coordinate=gaode&callnative=1","route_id":"r1","route_name":"第1段","global_order":1},{"name":"仁爱宠物医院(八字门店)","address":"富兴康城·兴悦花园南门东50米","phone":"0730-8696200;13975005828","category":"医疗保健服务;动物医疗场所;宠物诊所","area":"青年东路","lng":113.167784,"lat":29.361501,"amap_id":"B0FFIWBTIJ","order":2,"prev_distance_km":1.012,"cumulative_distance_km":1.012,"amap_marker_url":"https://uri.amap.com/marker?position=113.167784,29.361501&name=%E4%BB%81%E7%88%B1%E5%AE%A0%E7%89%A9%E5%8C%BB%E9%99%A2%28%E5%85%AB%E5%AD%97%E9%97%A8%E5%BA%97%29&src=vetmap&coordinate=gaode&callnative=1","route_id":"r1","route_name":"第1段","global_order":2},{"name":"贝康宠物诊疗","address":"八字门富兴鹏程西E栋107-108号","phone":"15074038424","category":"医疗保健服务;动物医疗场所;宠物诊所","area":"青年东路","lng":113.164103,"lat":29.366106,"amap_id":"B0KR4RFPJ5","order":3,"prev_distance_km":0.624,"cumulative_distance_km":1.636,"amap_marker_url":"https://uri.amap.com/marker?position=113.164103,29.366106&name=%E8%B4%9D%E5%BA%B7%E5%AE%A0%E7%89%A9%E8%AF%8A%E7%96%97&src=vetmap&coordinate=gaode&callnative=1","route_id":"r1","route_name":"第1段","global_order":3},{"name":"岳阳仁心宠物医院","address":"北港路128号","phone":"0730-8340120;18274120953","category":"医疗保健服务;动物医疗场所;宠物诊所","area":"","lng":113.150687,"lat":29.360675,"amap_id":"B0H11DOARF","order":4,"prev_distance_km":1.434,"cumulative_distance_km":3.069,"amap_marker_url":"https://uri.amap.com/marker?position=113.150687,29.360675&name=%E5%B2%B3%E9%98%B3%E4%BB%81%E5%BF%83%E5%AE%A0%E7%89%A9%E5%8C%BB%E9%99%A2&src=vetmap&coordinate=gaode&callnative=1","route_id":"r1","route_name":"第1段","global_order":4},{"name":"沐恩宠物医院","address":"学院路387号","phone":"18673008570","category":"医疗保健服务;动物医疗场所;宠物诊所","area":"学院路","lng":113.143274,"lat":29.349778,"amap_id":"B0FFKFM1MO","order":5,"prev_distance_km":1.409,"cumulative_distance_km":4.478,"amap_marker_url":"https://uri.amap.com/marker?position=113.143274,29.349778&name=%E6%B2%90%E6%81%A9%E5%AE%A0%E7%89%A9%E5%8C%BB%E9%99%A2&src=vetmap&coordinate=gaode&callnative=1","route_id":"r1","route_name":"第1段","global_order":5},{"name":"友医知宠动物医院","address":"南湖新苑南门旁","phone":"18075710022;18659721590;19330017797","category":"医疗保健服务;动物医疗场所;宠物诊所","area":"南湖","lng":113.125532,"lat":29.347835,"amap_id":"B0IKHSEUJ5","order":6,"prev_distance_km":1.733,"cumulative_distance_km":6.211,"amap_marker_url":"https://uri.amap.com/marker?position=113.125532,29.347835&name=%E5%8F%8B%E5%8C%BB%E7%9F%A5%E5%AE%A0%E5%8A%A8%E7%89%A9%E5%8C%BB%E9%99%A2&src=vetmap&coordinate=gaode&callnative=1","route_id":"r1","route_name":"第1段","global_order":6},{"name":"仁爱宠物医院(四化建店)","address":"天伦城花板桥路336号","phone":"15073033922","category":"医疗保健服务;动物医疗场所;宠物诊所","area":"建湘路","lng":113.132329,"lat":29.361771,"amap_id":"B0FFGR2H21","order":7,"prev_distance_km":1.684,"cumulative_distance_km":7.895,"amap_marker_url":"https://uri.amap.com/marker?position=113.132329,29.361771&name=%E4%BB%81%E7%88%B1%E5%AE%A0%E7%89%A9%E5%8C%BB%E9%99%A2%28%E5%9B%9B%E5%8C%96%E5%BB%BA%E5%BA%97%29&src=vetmap&coordinate=gaode&callnative=1","route_id":"r1","route_name":"第1段","global_order":7},{"name":"犬通社宠物医院","address":"五里牌路鸿世家园小区29-30号门面","phone":"13786025959;15173006306","category":"医疗保健服务;动物医疗场所;宠物诊所","area":"建湘路","lng":113.134089,"lat":29.368621,"amap_id":"B0FFIW2MJG","order":8,"prev_distance_km":0.781,"cumulative_distance_km":8.675,"amap_marker_url":"https://uri.amap.com/marker?position=113.134089,29.368621&name=%E7%8A%AC%E9%80%9A%E7%A4%BE%E5%AE%A0%E7%89%A9%E5%8C%BB%E9%99%A2&src=vetmap&coordinate=gaode&callnative=1","route_id":"r1","route_name":"第1段","global_order":8},{"name":"顽皮宠物(天伦城店)","address":"天伦城步行街外街美食街105号","phone":"15107300834","category":"医疗保健服务;动物医疗场所;宠物诊所","area":"建湘路","lng":113.12774,"lat":29.364106,"amap_id":"B0FFI724UI","order":9,"prev_distance_km":0.794,"cumulative_distance_km":9.469,"amap_marker_url":"https://uri.amap.com/marker?position=113.127740,29.364106&name=%E9%A1%BD%E7%9A%AE%E5%AE%A0%E7%89%A9%28%E5%A4%A9%E4%BC%A6%E5%9F%8E%E5%BA%97%29&src=vetmap&coordinate=gaode&callnative=1","route_id":"r1","route_name":"第1段","global_order":9},{"name":"动物咬伤门诊","address":"青年中路与平安巷交叉口东120米","phone":"","category":"医疗保健服务;动物医疗场所;兽医站","area":"","lng":113.122101,"lat":29.36532,"amap_id":"B0LB67DALK","order":10,"prev_distance_km":0.563,"cumulative_distance_km":10.032,"amap_marker_url":"https://uri.amap.com/marker?position=113.122101,29.365320&name=%E5%8A%A8%E7%89%A9%E5%92%AC%E4%BC%A4%E9%97%A8%E8%AF%8A&src=vetmap&coordinate=gaode&callnative=1","route_id":"r1","route_name":"第1段","global_order":10},{"name":"鹏程宠物医院(岳阳总店)","address":"青年中路193号人防办旁","phone":"0730-8938293;19958007459","category":"医疗保健服务;动物医疗场所;宠物诊所","area":"","lng":113.115833,"lat":29.365367,"amap_id":"B0FFLLX310","order":11,"prev_distance_km":0.607,"cumulative_distance_km":10.64,"amap_marker_url":"https://uri.amap.com/marker?position=113.115833,29.365367&name=%E9%B9%8F%E7%A8%8B%E5%AE%A0%E7%89%A9%E5%8C%BB%E9%99%A2%28%E5%B2%B3%E9%98%B3%E6%80%BB%E5%BA%97%29&src=vetmap&coordinate=gaode&callnative=1","route_id":"r1","route_name":"第1段","global_order":11},{"name":"派多格宠物医院(得胜路店)","address":"得胜路233号","phone":"19973083663","category":"医疗保健服务;动物医疗场所;宠物诊所","area":"得胜南路","lng":113.106284,"lat":29.358915,"amap_id":"B0JDDZY5Y9","order":12,"prev_distance_km":1.171,"cumulative_distance_km":11.811,"amap_marker_url":"https://uri.amap.com/marker?position=113.106284,29.358915&name=%E6%B4%BE%E5%A4%9A%E6%A0%BC%E5%AE%A0%E7%89%A9%E5%8C%BB%E9%99%A2%28%E5%BE%97%E8%83%9C%E8%B7%AF%E5%BA%97%29&src=vetmap&coordinate=gaode&callnative=1","route_id":"r1","route_name":"第1段","global_order":12},{"name":"宠爱有家宠物医院","address":"得胜南路262号","phone":"13786010025","category":"医疗保健服务;动物医疗场所;宠物诊所","area":"得胜南路","lng":113.106872,"lat":29.3638,"amap_id":"B0HRRST72W","order":13,"prev_distance_km":0.546,"cumulative_distance_km":12.357,"amap_marker_url":"https://uri.amap.com/marker?position=113.106872,29.363800&name=%E5%AE%A0%E7%88%B1%E6%9C%89%E5%AE%B6%E5%AE%A0%E7%89%A9%E5%8C%BB%E9%99%A2&src=vetmap&coordinate=gaode&callnative=1","route_id":"r1","route_name":"第1段","global_order":13},{"name":"岳阳市潇湘宠物诊所","address":"青年西路81号(青年路小学斜对面)","phone":"0730-8666120;0730-8973833;18073079684","category":"医疗保健服务;动物医疗场所;宠物诊所","area":"","lng":113.100427,"lat":29.366823,"amap_id":"B0FFF4H4MM","order":14,"prev_distance_km":0.709,"cumulative_distance_km":13.066,"amap_marker_url":"https://uri.amap.com/marker?position=113.100427,29.366823&name=%E5%B2%B3%E9%98%B3%E5%B8%82%E6%BD%87%E6%B9%98%E5%AE%A0%E7%89%A9%E8%AF%8A%E6%89%80&src=vetmap&coordinate=gaode&callnative=1","route_id":"r1","route_name":"第1段","global_order":14},{"name":"安欣宠物医院","address":"岳阳楼区步行街南辅道5号","phone":"18973011118","category":"医疗保健服务;动物医疗场所;宠物诊所","area":"东茅岭","lng":113.105295,"lat":29.371716,"amap_id":"B0ID4ANHP0","order":15,"prev_distance_km":0.72,"cumulative_distance_km":13.786,"amap_marker_url":"https://uri.amap.com/marker?position=113.105295,29.371716&name=%E5%AE%89%E6%AC%A3%E5%AE%A0%E7%89%A9%E5%8C%BB%E9%99%A2&src=vetmap&coordinate=gaode&callnative=1","route_id":"r1","route_name":"第1段","global_order":15},{"name":"友宠宠物医院","address":"巴陵西路10号","phone":"13307400103","category":"医疗保健服务;动物医疗场所;宠物诊所","area":"","lng":113.096027,"lat":29.374266,"amap_id":"B0I30HKWAQ","order":16,"prev_distance_km":0.942,"cumulative_distance_km":14.728,"amap_marker_url":"https://uri.amap.com/marker?position=113.096027,29.374266&name=%E5%8F%8B%E5%AE%A0%E5%AE%A0%E7%89%A9%E5%8C%BB%E9%99%A2&src=vetmap&coordinate=gaode&callnative=1","route_id":"r1","route_name":"第1段","global_order":16}]}