{"summary":{"id":"d01406","province":"湖北省","city":"宜昌市","district":"夷陵区","count":20,"total_distance_km":108.065,"coordinate_system":"GCJ-02 / Amap","generated_at":"2026-05-07 19:58:05"},"rows":[{"name":"乡村兽医诊疗点","address":"宏源路与正昌路交叉口东北40米","phone":"","category":"医疗保健服务;动物医疗场所;兽医站","area":"","lng":111.210743,"lat":31.298189,"amap_id":"B0KAOZX0QC","order":1,"prev_distance_km":0.0,"cumulative_distance_km":0.0,"amap_marker_url":"https://uri.amap.com/marker?position=111.210743,31.298189&name=%E4%B9%A1%E6%9D%91%E5%85%BD%E5%8C%BB%E8%AF%8A%E7%96%97%E7%82%B9&src=vetmap&coordinate=gaode&callnative=1"},{"name":"乡村兽医诊疗点(宜兴大道店)","address":"宜兴大道与滨河路交叉口西北80米","phone":"","category":"医疗保健服务;动物医疗场所;兽医站","area":"","lng":111.212842,"lat":31.105197,"amap_id":"B0FFK8L0AS","order":2,"prev_distance_km":21.461,"cumulative_distance_km":21.461,"amap_marker_url":"https://uri.amap.com/marker?position=111.212842,31.105197&name=%E4%B9%A1%E6%9D%91%E5%85%BD%E5%8C%BB%E8%AF%8A%E7%96%97%E7%82%B9%28%E5%AE%9C%E5%85%B4%E5%A4%A7%E9%81%93%E5%BA%97%29&src=vetmap&coordinate=gaode&callnative=1"},{"name":"牧安康乡村兽医诊疗点","address":"黄花场路与宜保路交叉口西北40米","phone":"","category":"医疗保健服务;动物医疗场所;兽医站","area":"","lng":111.385875,"lat":30.854325,"amap_id":"B0L3HXCHMR","order":3,"prev_distance_km":32.408,"cumulative_distance_km":53.869,"amap_marker_url":"https://uri.amap.com/marker?position=111.385875,30.854325&name=%E7%89%A7%E5%AE%89%E5%BA%B7%E4%B9%A1%E6%9D%91%E5%85%BD%E5%8C%BB%E8%AF%8A%E7%96%97%E7%82%B9&src=vetmap&coordinate=gaode&callnative=1"},{"name":"夷陵区畜牧兽医综合服务基地(夷陵区动物检疫申报点)","address":"夷兴大道299号","phone":"","category":"医疗保健服务;动物医疗场所;动物医疗场所","area":"","lng":111.376956,"lat":30.827148,"amap_id":"B0M6M5UOW9","order":4,"prev_distance_km":3.14,"cumulative_distance_km":57.008,"amap_marker_url":"https://uri.amap.com/marker?position=111.376956,30.827148&name=%E5%A4%B7%E9%99%B5%E5%8C%BA%E7%95%9C%E7%89%A7%E5%85%BD%E5%8C%BB%E7%BB%BC%E5%90%88%E6%9C%8D%E5%8A%A1%E5%9F%BA%E5%9C%B0%28%E5%A4%B7%E9%99%B5%E5%8C%BA%E5%8A%A8%E7%89%A9%E6%A3%80%E7%96%AB%E7%94%B3%E6%8A%A5%E7%82%B9%29&src=vetmap&coordinate=gaode&callnative=1"},{"name":"冉星宠物医院(夷陵区分院)","address":"平云二路14号(宏信·公园里南门旁地面停车场)","phone":"15327475156","category":"医疗保健服务;动物医疗场所;宠物诊所","area":"夷兴大道","lng":111.337674,"lat":30.781706,"amap_id":"B0KDMRB6FW","order":5,"prev_distance_km":6.293,"cumulative_distance_km":63.302,"amap_marker_url":"https://uri.amap.com/marker?position=111.337674,30.781706&name=%E5%86%89%E6%98%9F%E5%AE%A0%E7%89%A9%E5%8C%BB%E9%99%A2%28%E5%A4%B7%E9%99%B5%E5%8C%BA%E5%88%86%E9%99%A2%29&src=vetmap&coordinate=gaode&callnative=1"},{"name":"维康宠物诊所","address":"平云二路6-18号","phone":"13886667128;15171860768","category":"医疗保健服务;动物医疗场所;宠物诊所","area":"夷兴大道","lng":111.332638,"lat":30.783038,"amap_id":"B0FFIZJ5ER","order":6,"prev_distance_km":0.503,"cumulative_distance_km":63.805,"amap_marker_url":"https://uri.amap.com/marker?position=111.332638,30.783038&name=%E7%BB%B4%E5%BA%B7%E5%AE%A0%E7%89%A9%E8%AF%8A%E6%89%80&src=vetmap&coordinate=gaode&callnative=1"},{"name":"阿猫阿狗宠物诊所","address":"平云一路36号","phone":"13177071308","category":"医疗保健服务;动物医疗场所;宠物诊所","area":"夷兴大道","lng":111.331592,"lat":30.778761,"amap_id":"B0K0HLQD7P","order":7,"prev_distance_km":0.486,"cumulative_distance_km":64.291,"amap_marker_url":"https://uri.amap.com/marker?position=111.331592,30.778761&name=%E9%98%BF%E7%8C%AB%E9%98%BF%E7%8B%97%E5%AE%A0%E7%89%A9%E8%AF%8A%E6%89%80&src=vetmap&coordinate=gaode&callnative=1"},{"name":"华伟牧业","address":"小溪塔夷兴大道211-4","phone":"0717-7824992","category":"医疗保健服务;动物医疗场所;动物医疗场所","area":"夷兴大道","lng":111.332767,"lat":30.777869,"amap_id":"B0FFFWTNDT","order":8,"prev_distance_km":0.15,"cumulative_distance_km":64.441,"amap_marker_url":"https://uri.amap.com/marker?position=111.332767,30.777869&name=%E5%8D%8E%E4%BC%9F%E7%89%A7%E4%B8%9A&src=vetmap&coordinate=gaode&callnative=1"},{"name":"乔康宠物诊所","address":"锦江大道48-7","phone":"13487229090","category":"医疗保健服务;动物医疗场所;宠物诊所","area":"夷兴大道","lng":111.326568,"lat":30.772731,"amap_id":"B0HUDALZ7O","order":9,"prev_distance_km":0.823,"cumulative_distance_km":65.264,"amap_marker_url":"https://uri.amap.com/marker?position=111.326568,30.772731&name=%E4%B9%94%E5%BA%B7%E5%AE%A0%E7%89%A9%E8%AF%8A%E6%89%80&src=vetmap&coordinate=gaode&callnative=1"},{"name":"旺轩宠物医院","address":"夷兴大道16-23号附近","phone":"15872541070","category":"医疗保健服务;动物医疗场所;宠物诊所","area":"夷兴大道","lng":111.309992,"lat":30.763551,"amap_id":"B0FFFV9I0O","order":10,"prev_distance_km":1.884,"cumulative_distance_km":67.148,"amap_marker_url":"https://uri.amap.com/marker?position=111.309992,30.763551&name=%E6%97%BA%E8%BD%A9%E5%AE%A0%E7%89%A9%E5%8C%BB%E9%99%A2&src=vetmap&coordinate=gaode&callnative=1"},{"name":"暖宠动物医院(夷陵总店)","address":"发展大道恒大绿洲59栋215/216门面","phone":"0717-7225952","category":"医疗保健服务;动物医疗场所;宠物诊所","area":"","lng":111.346042,"lat":30.76988,"amap_id":"B0GDHHYGWY","order":11,"prev_distance_km":3.516,"cumulative_distance_km":70.664,"amap_marker_url":"https://uri.amap.com/marker?position=111.346042,30.769880&name=%E6%9A%96%E5%AE%A0%E5%8A%A8%E7%89%A9%E5%8C%BB%E9%99%A2%28%E5%A4%B7%E9%99%B5%E6%80%BB%E5%BA%97%29&src=vetmap&coordinate=gaode&callnative=1"},{"name":"喵乐殿宠物医院(夷陵万达店)","address":"鸿坤花语墅北门旁","phone":"18064242399","category":"医疗保健服务;动物医疗场所;宠物诊所","area":"","lng":111.352143,"lat":30.758761,"amap_id":"B0H1DHN65B","order":12,"prev_distance_km":1.367,"cumulative_distance_km":72.03,"amap_marker_url":"https://uri.amap.com/marker?position=111.352143,30.758761&name=%E5%96%B5%E4%B9%90%E6%AE%BF%E5%AE%A0%E7%89%A9%E5%8C%BB%E9%99%A2%28%E5%A4%B7%E9%99%B5%E4%B8%87%E8%BE%BE%E5%BA%97%29&src=vetmap&coordinate=gaode&callnative=1"},{"name":"慕嘉宠物医院","address":"梅岭一号","phone":"0717-6612123;18871703434","category":"医疗保健服务;动物医疗场所;宠物诊所","area":"","lng":111.347475,"lat":30.754225,"amap_id":"B0JB2ZXK7J","order":13,"prev_distance_km":0.673,"cumulative_distance_km":72.704,"amap_marker_url":"https://uri.amap.com/marker?position=111.347475,30.754225&name=%E6%85%95%E5%98%89%E5%AE%A0%E7%89%A9%E5%8C%BB%E9%99%A2&src=vetmap&coordinate=gaode&callnative=1"},{"name":"伴宁宠物医院","address":"东城试验区润城社区(至上未来城15号商铺)","phone":"0717-6610616;18371758345","category":"医疗保健服务;动物医疗场所;宠物诊所","area":"","lng":111.342575,"lat":30.750116,"amap_id":"B0KUTX2C53","order":14,"prev_distance_km":0.654,"cumulative_distance_km":73.358,"amap_marker_url":"https://uri.amap.com/marker?position=111.342575,30.750116&name=%E4%BC%B4%E5%AE%81%E5%AE%A0%E7%89%A9%E5%8C%BB%E9%99%A2&src=vetmap&coordinate=gaode&callnative=1"},{"name":"琦玉动物医院(夷陵店)","address":"银河·东湖雅居A区西南1门西南180米","phone":"18727261160","category":"医疗保健服务;动物医疗场所;宠物诊所","area":"","lng":111.341825,"lat":30.749725,"amap_id":"B0LKGL2V2G","order":15,"prev_distance_km":0.084,"cumulative_distance_km":73.442,"amap_marker_url":"https://uri.amap.com/marker?position=111.341825,30.749725&name=%E7%90%A6%E7%8E%89%E5%8A%A8%E7%89%A9%E5%8C%BB%E9%99%A2%28%E5%A4%B7%E9%99%B5%E5%BA%97%29&src=vetmap&coordinate=gaode&callnative=1"},{"name":"熊刚饲料兽医养殖咨询","address":"汉宜大道与土谭公路交叉口西南80米","phone":"","category":"医疗保健服务;动物医疗场所;兽医站","area":"","lng":111.437309,"lat":30.668423,"amap_id":"B0J0UOBD50","order":16,"prev_distance_km":12.847,"cumulative_distance_km":86.289,"amap_marker_url":"https://uri.amap.com/marker?position=111.437309,30.668423&name=%E7%86%8A%E5%88%9A%E9%A5%B2%E6%96%99%E5%85%BD%E5%8C%BB%E5%85%BB%E6%AE%96%E5%92%A8%E8%AF%A2&src=vetmap&coordinate=gaode&callnative=1"},{"name":"绿康乡村兽医诊疗点","address":"葛武南路与龙泉大道交叉口东南40米","phone":"","category":"医疗保健服务;动物医疗场所;兽医站","area":"","lng":111.491463,"lat":30.722872,"amap_id":"B0KBAAAZOT","order":17,"prev_distance_km":7.967,"cumulative_distance_km":94.256,"amap_marker_url":"https://uri.amap.com/marker?position=111.491463,30.722872&name=%E7%BB%BF%E5%BA%B7%E4%B9%A1%E6%9D%91%E5%85%BD%E5%8C%BB%E8%AF%8A%E7%96%97%E7%82%B9&src=vetmap&coordinate=gaode&callnative=1"},{"name":"乡村兽医诊疗点","address":"汉宜路与红云路交叉口东北180米","phone":"","category":"医疗保健服务;动物医疗场所;兽医站","area":"","lng":111.593645,"lat":30.646676,"amap_id":"B0L3JPD84J","order":18,"prev_distance_km":12.933,"cumulative_distance_km":107.189,"amap_marker_url":"https://uri.amap.com/marker?position=111.593645,30.646676&name=%E4%B9%A1%E6%9D%91%E5%85%BD%E5%8C%BB%E8%AF%8A%E7%96%97%E7%82%B9&src=vetmap&coordinate=gaode&callnative=1"},{"name":"乡村兽医诊疗点","address":"红云路与汉宜路交叉口北20米","phone":"","category":"医疗保健服务;动物医疗场所;兽医站","area":"","lng":111.592085,"lat":30.645845,"amap_id":"B0G2SCKBGV","order":19,"prev_distance_km":0.176,"cumulative_distance_km":107.365,"amap_marker_url":"https://uri.amap.com/marker?position=111.592085,30.645845&name=%E4%B9%A1%E6%9D%91%E5%85%BD%E5%8C%BB%E8%AF%8A%E7%96%97%E7%82%B9&src=vetmap&coordinate=gaode&callnative=1"},{"name":"乡村兽医诊疗点(汉宜路店)","address":"汉宜路与四一路交叉口东北60米","phone":"13545762288","category":"医疗保健服务;动物医疗场所;兽医站","area":"","lng":111.588192,"lat":30.640506,"amap_id":"B0FFI5F1IR","order":20,"prev_distance_km":0.701,"cumulative_distance_km":108.065,"amap_marker_url":"https://uri.amap.com/marker?position=111.588192,30.640506&name=%E4%B9%A1%E6%9D%91%E5%85%BD%E5%8C%BB%E8%AF%8A%E7%96%97%E7%82%B9%28%E6%B1%89%E5%AE%9C%E8%B7%AF%E5%BA%97%29&src=vetmap&coordinate=gaode&callnative=1"}]}