{"summary":{"id":"d01465","province":"湖北省","city":"随州市","district":"随县","count":19,"route_count":1,"max_route_clinics":19,"total_distance_km":217.683,"coordinate_system":"GCJ-02 / Amap","generated_at":"2026-05-07 21:30:19"},"routes":[{"id":"r1","name":"第1段","count":19,"total_distance_km":217.683,"rows":[{"name":"兽防站门诊部","address":"万福店镇襄汉大道","phone":"","category":"医疗保健服务;动物医疗场所;兽医站","area":"","lng":113.052069,"lat":32.002539,"amap_id":"B0FFH195KV","order":1,"prev_distance_km":0.0,"cumulative_distance_km":0.0,"amap_marker_url":"https://uri.amap.com/marker?position=113.052069,32.002539&name=%E5%85%BD%E9%98%B2%E7%AB%99%E9%97%A8%E8%AF%8A%E9%83%A8&src=vetmap&coordinate=gaode&callnative=1","route_id":"r1","route_name":"第1段"},{"name":"随县唐县镇畜牧兽医服务中心","address":"003县道与南园路交叉口北220米","phone":"","category":"医疗保健服务;动物医疗场所;动物医疗场所","area":"","lng":113.121341,"lat":31.976037,"amap_id":"B02D201K4I","order":2,"prev_distance_km":7.167,"cumulative_distance_km":7.167,"amap_marker_url":"https://uri.amap.com/marker?position=113.121341,31.976037&name=%E9%9A%8F%E5%8E%BF%E5%94%90%E5%8E%BF%E9%95%87%E7%95%9C%E7%89%A7%E5%85%BD%E5%8C%BB%E6%9C%8D%E5%8A%A1%E4%B8%AD%E5%BF%83&src=vetmap&coordinate=gaode&callnative=1","route_id":"r1","route_name":"第1段"},{"name":"小侯兽医诊疗点","address":"唐县镇中心学校西门旁","phone":"","category":"医疗保健服务;动物医疗场所;兽医站","area":"","lng":113.121477,"lat":31.974765,"amap_id":"B0J067PNT8","order":3,"prev_distance_km":0.142,"cumulative_distance_km":7.309,"amap_marker_url":"https://uri.amap.com/marker?position=113.121477,31.974765&name=%E5%B0%8F%E4%BE%AF%E5%85%BD%E5%8C%BB%E8%AF%8A%E7%96%97%E7%82%B9&src=vetmap&coordinate=gaode&callnative=1","route_id":"r1","route_name":"第1段"},{"name":"澴潭镇乡村兽医诊疗点","address":"车站路与306省道交叉口西北320米","phone":"","category":"医疗保健服务;动物医疗场所;兽医站","area":"","lng":113.069664,"lat":31.808497,"amap_id":"B0FFLALQRX","order":4,"prev_distance_km":19.124,"cumulative_distance_km":26.433,"amap_marker_url":"https://uri.amap.com/marker?position=113.069664,31.808497&name=%E6%BE%B4%E6%BD%AD%E9%95%87%E4%B9%A1%E6%9D%91%E5%85%BD%E5%8C%BB%E8%AF%8A%E7%96%97%E7%82%B9&src=vetmap&coordinate=gaode&callnative=1","route_id":"r1","route_name":"第1段"},{"name":"建华兽药店","address":"澴潭镇金潭街200号","phone":"13049895920;15272857507","category":"医疗保健服务;动物医疗场所;动物医疗场所","area":"","lng":113.075719,"lat":31.80507,"amap_id":"B0G3MSWLWL","order":5,"prev_distance_km":0.687,"cumulative_distance_km":27.121,"amap_marker_url":"https://uri.amap.com/marker?position=113.075719,31.805070&name=%E5%BB%BA%E5%8D%8E%E5%85%BD%E8%8D%AF%E5%BA%97&src=vetmap&coordinate=gaode&callnative=1","route_id":"r1","route_name":"第1段"},{"name":"洪山畜牧兽医服务中心","address":"东山路与怀河路交叉口东北40米","phone":"","category":"医疗保健服务;动物医疗场所;兽医站","area":"","lng":112.921718,"lat":31.664661,"amap_id":"B0FFLA1EN1","order":6,"prev_distance_km":21.351,"cumulative_distance_km":48.472,"amap_marker_url":"https://uri.amap.com/marker?position=112.921718,31.664661&name=%E6%B4%AA%E5%B1%B1%E7%95%9C%E7%89%A7%E5%85%BD%E5%8C%BB%E6%9C%8D%E5%8A%A1%E4%B8%AD%E5%BF%83&src=vetmap&coordinate=gaode&callnative=1","route_id":"r1","route_name":"第1段"},{"name":"方长红乡村兽医诊疗点","address":"怀河路与东山路交叉口西北20米","phone":"","category":"医疗保健服务;动物医疗场所;兽医站","area":"","lng":112.921399,"lat":31.664498,"amap_id":"B0FFLA15RR","order":7,"prev_distance_km":0.035,"cumulative_distance_km":48.507,"amap_marker_url":"https://uri.amap.com/marker?position=112.921399,31.664498&name=%E6%96%B9%E9%95%BF%E7%BA%A2%E4%B9%A1%E6%9D%91%E5%85%BD%E5%8C%BB%E8%AF%8A%E7%96%97%E7%82%B9&src=vetmap&coordinate=gaode&callnative=1","route_id":"r1","route_name":"第1段"},{"name":"长岗镇动物防疫检疫申报处","address":"大洪山路329-3号附近","phone":"","category":"医疗保健服务;动物医疗场所;动物医疗场所","area":"","lng":112.978717,"lat":31.545576,"amap_id":"B02D201L26","order":8,"prev_distance_km":14.294,"cumulative_distance_km":62.801,"amap_marker_url":"https://uri.amap.com/marker?position=112.978717,31.545576&name=%E9%95%BF%E5%B2%97%E9%95%87%E5%8A%A8%E7%89%A9%E9%98%B2%E7%96%AB%E6%A3%80%E7%96%AB%E7%94%B3%E6%8A%A5%E5%A4%84&src=vetmap&coordinate=gaode&callnative=1","route_id":"r1","route_name":"第1段"},{"name":"张治华乡村兽医诊疗点","address":"三里岗镇刘店村监督委员会西北侧120米","phone":"","category":"医疗保健服务;动物医疗场所;兽医站","area":"","lng":113.178925,"lat":31.440561,"amap_id":"B0HARM0JAY","order":9,"prev_distance_km":22.287,"cumulative_distance_km":85.088,"amap_marker_url":"https://uri.amap.com/marker?position=113.178925,31.440561&name=%E5%BC%A0%E6%B2%BB%E5%8D%8E%E4%B9%A1%E6%9D%91%E5%85%BD%E5%8C%BB%E8%AF%8A%E7%96%97%E7%82%B9&src=vetmap&coordinate=gaode&callnative=1","route_id":"r1","route_name":"第1段"},{"name":"蒋丛阳乡村兽医诊疗点","address":"水晶街与061乡道交叉口东北240米","phone":"","category":"医疗保健服务;动物医疗场所;兽医站","area":"","lng":113.222621,"lat":31.647146,"amap_id":"B0JB1P8U8L","order":10,"prev_distance_km":23.341,"cumulative_distance_km":108.43,"amap_marker_url":"https://uri.amap.com/marker?position=113.222621,31.647146&name=%E8%92%8B%E4%B8%9B%E9%98%B3%E4%B9%A1%E6%9D%91%E5%85%BD%E5%8C%BB%E8%AF%8A%E7%96%97%E7%82%B9&src=vetmap&coordinate=gaode&callnative=1","route_id":"r1","route_name":"第1段"},{"name":"乡村兽医诊","address":"","phone":"0722-3339281;13997862439","category":"医疗保健服务;动物医疗场所;兽医站","area":"","lng":113.216349,"lat":31.744422,"amap_id":"B0HA1NAWRU","order":11,"prev_distance_km":10.833,"cumulative_distance_km":119.263,"amap_marker_url":"https://uri.amap.com/marker?position=113.216349,31.744422&name=%E4%B9%A1%E6%9D%91%E5%85%BD%E5%8C%BB%E8%AF%8A&src=vetmap&coordinate=gaode&callnative=1","route_id":"r1","route_name":"第1段"},{"name":"随县安居镇畜牧兽医服务中心","address":"中国邮政南(中心大道南)","phone":"","category":"医疗保健服务;动物医疗场所;兽医站","area":"","lng":113.21065,"lat":31.744457,"amap_id":"B0FFF4MJNL","order":12,"prev_distance_km":0.539,"cumulative_distance_km":119.802,"amap_marker_url":"https://uri.amap.com/marker?position=113.210650,31.744457&name=%E9%9A%8F%E5%8E%BF%E5%AE%89%E5%B1%85%E9%95%87%E7%95%9C%E7%89%A7%E5%85%BD%E5%8C%BB%E6%9C%8D%E5%8A%A1%E4%B8%AD%E5%BF%83&src=vetmap&coordinate=gaode&callnative=1","route_id":"r1","route_name":"第1段"},{"name":"姚义秀乡村兽医诊疗点","address":"河源路与新蒯路交叉口东南200米","phone":"","category":"医疗保健服务;动物医疗场所;兽医站","area":"","lng":113.215487,"lat":31.815272,"amap_id":"B0HUG9SE0G","order":13,"prev_distance_km":7.888,"cumulative_distance_km":127.689,"amap_marker_url":"https://uri.amap.com/marker?position=113.215487,31.815272&name=%E5%A7%9A%E4%B9%89%E7%A7%80%E4%B9%A1%E6%9D%91%E5%85%BD%E5%8C%BB%E8%AF%8A%E7%96%97%E7%82%B9&src=vetmap&coordinate=gaode&callnative=1","route_id":"r1","route_name":"第1段"},{"name":"随县新街镇畜牧兽医服务中心","address":"新街镇新河路北(卫生大楼西北)","phone":"13085251768","category":"医疗保健服务;动物医疗场所;兽医站","area":"","lng":113.216877,"lat":31.814979,"amap_id":"B0FFF4LYKP","order":14,"prev_distance_km":0.135,"cumulative_distance_km":127.824,"amap_marker_url":"https://uri.amap.com/marker?position=113.216877,31.814979&name=%E9%9A%8F%E5%8E%BF%E6%96%B0%E8%A1%97%E9%95%87%E7%95%9C%E7%89%A7%E5%85%BD%E5%8C%BB%E6%9C%8D%E5%8A%A1%E4%B8%AD%E5%BF%83&src=vetmap&coordinate=gaode&callnative=1","route_id":"r1","route_name":"第1段"},{"name":"名犬俱乐部","address":"新厉山3区1055","phone":"15997887239","category":"医疗保健服务;动物医疗场所;宠物诊所","area":"","lng":113.302243,"lat":31.859154,"amap_id":"B0H33CX96Z","order":15,"prev_distance_km":9.442,"cumulative_distance_km":137.267,"amap_marker_url":"https://uri.amap.com/marker?position=113.302243,31.859154&name=%E5%90%8D%E7%8A%AC%E4%BF%B1%E4%B9%90%E9%83%A8&src=vetmap&coordinate=gaode&callnative=1","route_id":"r1","route_name":"第1段"},{"name":"随县尚市镇畜牧兽医服务中心","address":"吉祥花园西侧110米","phone":"","category":"医疗保健服务;动物医疗场所;兽医站","area":"","lng":113.240733,"lat":31.943941,"amap_id":"B0HD2CE0IZ","order":16,"prev_distance_km":11.073,"cumulative_distance_km":148.339,"amap_marker_url":"https://uri.amap.com/marker?position=113.240733,31.943941&name=%E9%9A%8F%E5%8E%BF%E5%B0%9A%E5%B8%82%E9%95%87%E7%95%9C%E7%89%A7%E5%85%BD%E5%8C%BB%E6%9C%8D%E5%8A%A1%E4%B8%AD%E5%BF%83&src=vetmap&coordinate=gaode&callnative=1","route_id":"r1","route_name":"第1段"},{"name":"殷店镇畜牧兽医发展中心","address":"殷店镇天河路9号","phone":"13872886177","category":"医疗保健服务;动物医疗场所;兽医站","area":"","lng":113.507783,"lat":32.073097,"amap_id":"B0FFMBM6LR","order":17,"prev_distance_km":28.988,"cumulative_distance_km":177.327,"amap_marker_url":"https://uri.amap.com/marker?position=113.507783,32.073097&name=%E6%AE%B7%E5%BA%97%E9%95%87%E7%95%9C%E7%89%A7%E5%85%BD%E5%8C%BB%E5%8F%91%E5%B1%95%E4%B8%AD%E5%BF%83&src=vetmap&coordinate=gaode&callnative=1","route_id":"r1","route_name":"第1段"},{"name":"陈七兽药饲料门诊部","address":"天河口乡林业站东南侧240米","phone":"","category":"医疗保健服务;动物医疗场所;兽医站","area":"","lng":113.456275,"lat":32.124125,"amap_id":"B0MB4CZ9P0","order":18,"prev_distance_km":7.466,"cumulative_distance_km":184.793,"amap_marker_url":"https://uri.amap.com/marker?position=113.456275,32.124125&name=%E9%99%88%E4%B8%83%E5%85%BD%E8%8D%AF%E9%A5%B2%E6%96%99%E9%97%A8%E8%AF%8A%E9%83%A8&src=vetmap&coordinate=gaode&callnative=1","route_id":"r1","route_name":"第1段"},{"name":"中心兽药","address":"小林派出所西侧70米","phone":"","category":"购物服务;购物相关场所;购物相关场所|医疗保健服务;动物医疗场所;动物医疗场所","area":"","lng":113.725075,"lat":32.313275,"amap_id":"B0M6ALZK17","order":19,"prev_distance_km":32.891,"cumulative_distance_km":217.683,"amap_marker_url":"https://uri.amap.com/marker?position=113.725075,32.313275&name=%E4%B8%AD%E5%BF%83%E5%85%BD%E8%8D%AF&src=vetmap&coordinate=gaode&callnative=1","route_id":"r1","route_name":"第1段"}]}],"rows":[{"name":"兽防站门诊部","address":"万福店镇襄汉大道","phone":"","category":"医疗保健服务;动物医疗场所;兽医站","area":"","lng":113.052069,"lat":32.002539,"amap_id":"B0FFH195KV","order":1,"prev_distance_km":0.0,"cumulative_distance_km":0.0,"amap_marker_url":"https://uri.amap.com/marker?position=113.052069,32.002539&name=%E5%85%BD%E9%98%B2%E7%AB%99%E9%97%A8%E8%AF%8A%E9%83%A8&src=vetmap&coordinate=gaode&callnative=1","route_id":"r1","route_name":"第1段","global_order":1},{"name":"随县唐县镇畜牧兽医服务中心","address":"003县道与南园路交叉口北220米","phone":"","category":"医疗保健服务;动物医疗场所;动物医疗场所","area":"","lng":113.121341,"lat":31.976037,"amap_id":"B02D201K4I","order":2,"prev_distance_km":7.167,"cumulative_distance_km":7.167,"amap_marker_url":"https://uri.amap.com/marker?position=113.121341,31.976037&name=%E9%9A%8F%E5%8E%BF%E5%94%90%E5%8E%BF%E9%95%87%E7%95%9C%E7%89%A7%E5%85%BD%E5%8C%BB%E6%9C%8D%E5%8A%A1%E4%B8%AD%E5%BF%83&src=vetmap&coordinate=gaode&callnative=1","route_id":"r1","route_name":"第1段","global_order":2},{"name":"小侯兽医诊疗点","address":"唐县镇中心学校西门旁","phone":"","category":"医疗保健服务;动物医疗场所;兽医站","area":"","lng":113.121477,"lat":31.974765,"amap_id":"B0J067PNT8","order":3,"prev_distance_km":0.142,"cumulative_distance_km":7.309,"amap_marker_url":"https://uri.amap.com/marker?position=113.121477,31.974765&name=%E5%B0%8F%E4%BE%AF%E5%85%BD%E5%8C%BB%E8%AF%8A%E7%96%97%E7%82%B9&src=vetmap&coordinate=gaode&callnative=1","route_id":"r1","route_name":"第1段","global_order":3},{"name":"澴潭镇乡村兽医诊疗点","address":"车站路与306省道交叉口西北320米","phone":"","category":"医疗保健服务;动物医疗场所;兽医站","area":"","lng":113.069664,"lat":31.808497,"amap_id":"B0FFLALQRX","order":4,"prev_distance_km":19.124,"cumulative_distance_km":26.433,"amap_marker_url":"https://uri.amap.com/marker?position=113.069664,31.808497&name=%E6%BE%B4%E6%BD%AD%E9%95%87%E4%B9%A1%E6%9D%91%E5%85%BD%E5%8C%BB%E8%AF%8A%E7%96%97%E7%82%B9&src=vetmap&coordinate=gaode&callnative=1","route_id":"r1","route_name":"第1段","global_order":4},{"name":"建华兽药店","address":"澴潭镇金潭街200号","phone":"13049895920;15272857507","category":"医疗保健服务;动物医疗场所;动物医疗场所","area":"","lng":113.075719,"lat":31.80507,"amap_id":"B0G3MSWLWL","order":5,"prev_distance_km":0.687,"cumulative_distance_km":27.121,"amap_marker_url":"https://uri.amap.com/marker?position=113.075719,31.805070&name=%E5%BB%BA%E5%8D%8E%E5%85%BD%E8%8D%AF%E5%BA%97&src=vetmap&coordinate=gaode&callnative=1","route_id":"r1","route_name":"第1段","global_order":5},{"name":"洪山畜牧兽医服务中心","address":"东山路与怀河路交叉口东北40米","phone":"","category":"医疗保健服务;动物医疗场所;兽医站","area":"","lng":112.921718,"lat":31.664661,"amap_id":"B0FFLA1EN1","order":6,"prev_distance_km":21.351,"cumulative_distance_km":48.472,"amap_marker_url":"https://uri.amap.com/marker?position=112.921718,31.664661&name=%E6%B4%AA%E5%B1%B1%E7%95%9C%E7%89%A7%E5%85%BD%E5%8C%BB%E6%9C%8D%E5%8A%A1%E4%B8%AD%E5%BF%83&src=vetmap&coordinate=gaode&callnative=1","route_id":"r1","route_name":"第1段","global_order":6},{"name":"方长红乡村兽医诊疗点","address":"怀河路与东山路交叉口西北20米","phone":"","category":"医疗保健服务;动物医疗场所;兽医站","area":"","lng":112.921399,"lat":31.664498,"amap_id":"B0FFLA15RR","order":7,"prev_distance_km":0.035,"cumulative_distance_km":48.507,"amap_marker_url":"https://uri.amap.com/marker?position=112.921399,31.664498&name=%E6%96%B9%E9%95%BF%E7%BA%A2%E4%B9%A1%E6%9D%91%E5%85%BD%E5%8C%BB%E8%AF%8A%E7%96%97%E7%82%B9&src=vetmap&coordinate=gaode&callnative=1","route_id":"r1","route_name":"第1段","global_order":7},{"name":"长岗镇动物防疫检疫申报处","address":"大洪山路329-3号附近","phone":"","category":"医疗保健服务;动物医疗场所;动物医疗场所","area":"","lng":112.978717,"lat":31.545576,"amap_id":"B02D201L26","order":8,"prev_distance_km":14.294,"cumulative_distance_km":62.801,"amap_marker_url":"https://uri.amap.com/marker?position=112.978717,31.545576&name=%E9%95%BF%E5%B2%97%E9%95%87%E5%8A%A8%E7%89%A9%E9%98%B2%E7%96%AB%E6%A3%80%E7%96%AB%E7%94%B3%E6%8A%A5%E5%A4%84&src=vetmap&coordinate=gaode&callnative=1","route_id":"r1","route_name":"第1段","global_order":8},{"name":"张治华乡村兽医诊疗点","address":"三里岗镇刘店村监督委员会西北侧120米","phone":"","category":"医疗保健服务;动物医疗场所;兽医站","area":"","lng":113.178925,"lat":31.440561,"amap_id":"B0HARM0JAY","order":9,"prev_distance_km":22.287,"cumulative_distance_km":85.088,"amap_marker_url":"https://uri.amap.com/marker?position=113.178925,31.440561&name=%E5%BC%A0%E6%B2%BB%E5%8D%8E%E4%B9%A1%E6%9D%91%E5%85%BD%E5%8C%BB%E8%AF%8A%E7%96%97%E7%82%B9&src=vetmap&coordinate=gaode&callnative=1","route_id":"r1","route_name":"第1段","global_order":9},{"name":"蒋丛阳乡村兽医诊疗点","address":"水晶街与061乡道交叉口东北240米","phone":"","category":"医疗保健服务;动物医疗场所;兽医站","area":"","lng":113.222621,"lat":31.647146,"amap_id":"B0JB1P8U8L","order":10,"prev_distance_km":23.341,"cumulative_distance_km":108.43,"amap_marker_url":"https://uri.amap.com/marker?position=113.222621,31.647146&name=%E8%92%8B%E4%B8%9B%E9%98%B3%E4%B9%A1%E6%9D%91%E5%85%BD%E5%8C%BB%E8%AF%8A%E7%96%97%E7%82%B9&src=vetmap&coordinate=gaode&callnative=1","route_id":"r1","route_name":"第1段","global_order":10},{"name":"乡村兽医诊","address":"","phone":"0722-3339281;13997862439","category":"医疗保健服务;动物医疗场所;兽医站","area":"","lng":113.216349,"lat":31.744422,"amap_id":"B0HA1NAWRU","order":11,"prev_distance_km":10.833,"cumulative_distance_km":119.263,"amap_marker_url":"https://uri.amap.com/marker?position=113.216349,31.744422&name=%E4%B9%A1%E6%9D%91%E5%85%BD%E5%8C%BB%E8%AF%8A&src=vetmap&coordinate=gaode&callnative=1","route_id":"r1","route_name":"第1段","global_order":11},{"name":"随县安居镇畜牧兽医服务中心","address":"中国邮政南(中心大道南)","phone":"","category":"医疗保健服务;动物医疗场所;兽医站","area":"","lng":113.21065,"lat":31.744457,"amap_id":"B0FFF4MJNL","order":12,"prev_distance_km":0.539,"cumulative_distance_km":119.802,"amap_marker_url":"https://uri.amap.com/marker?position=113.210650,31.744457&name=%E9%9A%8F%E5%8E%BF%E5%AE%89%E5%B1%85%E9%95%87%E7%95%9C%E7%89%A7%E5%85%BD%E5%8C%BB%E6%9C%8D%E5%8A%A1%E4%B8%AD%E5%BF%83&src=vetmap&coordinate=gaode&callnative=1","route_id":"r1","route_name":"第1段","global_order":12},{"name":"姚义秀乡村兽医诊疗点","address":"河源路与新蒯路交叉口东南200米","phone":"","category":"医疗保健服务;动物医疗场所;兽医站","area":"","lng":113.215487,"lat":31.815272,"amap_id":"B0HUG9SE0G","order":13,"prev_distance_km":7.888,"cumulative_distance_km":127.689,"amap_marker_url":"https://uri.amap.com/marker?position=113.215487,31.815272&name=%E5%A7%9A%E4%B9%89%E7%A7%80%E4%B9%A1%E6%9D%91%E5%85%BD%E5%8C%BB%E8%AF%8A%E7%96%97%E7%82%B9&src=vetmap&coordinate=gaode&callnative=1","route_id":"r1","route_name":"第1段","global_order":13},{"name":"随县新街镇畜牧兽医服务中心","address":"新街镇新河路北(卫生大楼西北)","phone":"13085251768","category":"医疗保健服务;动物医疗场所;兽医站","area":"","lng":113.216877,"lat":31.814979,"amap_id":"B0FFF4LYKP","order":14,"prev_distance_km":0.135,"cumulative_distance_km":127.824,"amap_marker_url":"https://uri.amap.com/marker?position=113.216877,31.814979&name=%E9%9A%8F%E5%8E%BF%E6%96%B0%E8%A1%97%E9%95%87%E7%95%9C%E7%89%A7%E5%85%BD%E5%8C%BB%E6%9C%8D%E5%8A%A1%E4%B8%AD%E5%BF%83&src=vetmap&coordinate=gaode&callnative=1","route_id":"r1","route_name":"第1段","global_order":14},{"name":"名犬俱乐部","address":"新厉山3区1055","phone":"15997887239","category":"医疗保健服务;动物医疗场所;宠物诊所","area":"","lng":113.302243,"lat":31.859154,"amap_id":"B0H33CX96Z","order":15,"prev_distance_km":9.442,"cumulative_distance_km":137.267,"amap_marker_url":"https://uri.amap.com/marker?position=113.302243,31.859154&name=%E5%90%8D%E7%8A%AC%E4%BF%B1%E4%B9%90%E9%83%A8&src=vetmap&coordinate=gaode&callnative=1","route_id":"r1","route_name":"第1段","global_order":15},{"name":"随县尚市镇畜牧兽医服务中心","address":"吉祥花园西侧110米","phone":"","category":"医疗保健服务;动物医疗场所;兽医站","area":"","lng":113.240733,"lat":31.943941,"amap_id":"B0HD2CE0IZ","order":16,"prev_distance_km":11.073,"cumulative_distance_km":148.339,"amap_marker_url":"https://uri.amap.com/marker?position=113.240733,31.943941&name=%E9%9A%8F%E5%8E%BF%E5%B0%9A%E5%B8%82%E9%95%87%E7%95%9C%E7%89%A7%E5%85%BD%E5%8C%BB%E6%9C%8D%E5%8A%A1%E4%B8%AD%E5%BF%83&src=vetmap&coordinate=gaode&callnative=1","route_id":"r1","route_name":"第1段","global_order":16},{"name":"殷店镇畜牧兽医发展中心","address":"殷店镇天河路9号","phone":"13872886177","category":"医疗保健服务;动物医疗场所;兽医站","area":"","lng":113.507783,"lat":32.073097,"amap_id":"B0FFMBM6LR","order":17,"prev_distance_km":28.988,"cumulative_distance_km":177.327,"amap_marker_url":"https://uri.amap.com/marker?position=113.507783,32.073097&name=%E6%AE%B7%E5%BA%97%E9%95%87%E7%95%9C%E7%89%A7%E5%85%BD%E5%8C%BB%E5%8F%91%E5%B1%95%E4%B8%AD%E5%BF%83&src=vetmap&coordinate=gaode&callnative=1","route_id":"r1","route_name":"第1段","global_order":17},{"name":"陈七兽药饲料门诊部","address":"天河口乡林业站东南侧240米","phone":"","category":"医疗保健服务;动物医疗场所;兽医站","area":"","lng":113.456275,"lat":32.124125,"amap_id":"B0MB4CZ9P0","order":18,"prev_distance_km":7.466,"cumulative_distance_km":184.793,"amap_marker_url":"https://uri.amap.com/marker?position=113.456275,32.124125&name=%E9%99%88%E4%B8%83%E5%85%BD%E8%8D%AF%E9%A5%B2%E6%96%99%E9%97%A8%E8%AF%8A%E9%83%A8&src=vetmap&coordinate=gaode&callnative=1","route_id":"r1","route_name":"第1段","global_order":18},{"name":"中心兽药","address":"小林派出所西侧70米","phone":"","category":"购物服务;购物相关场所;购物相关场所|医疗保健服务;动物医疗场所;动物医疗场所","area":"","lng":113.725075,"lat":32.313275,"amap_id":"B0M6ALZK17","order":19,"prev_distance_km":32.891,"cumulative_distance_km":217.683,"amap_marker_url":"https://uri.amap.com/marker?position=113.725075,32.313275&name=%E4%B8%AD%E5%BF%83%E5%85%BD%E8%8D%AF&src=vetmap&coordinate=gaode&callnative=1","route_id":"r1","route_name":"第1段","global_order":19}]}