{"summary":{"id":"d01457","province":"湖北省","city":"襄阳市","district":"襄城区","count":18,"total_distance_km":49.99,"coordinate_system":"GCJ-02 / Amap","generated_at":"2026-05-07 20:23:56"},"rows":[{"name":"街西兽医站","address":"中街与水果巷交叉口西南40米","phone":"","category":"医疗保健服务;动物医疗场所;兽医站","area":"","lng":112.018375,"lat":32.021375,"amap_id":"B0LKSUIPEN","order":1,"prev_distance_km":0.0,"cumulative_distance_km":0.0,"amap_marker_url":"https://uri.amap.com/marker?position=112.018375,32.021375&name=%E8%A1%97%E8%A5%BF%E5%85%BD%E5%8C%BB%E7%AB%99&src=vetmap&coordinate=gaode&callnative=1"},{"name":"襄城区卧龙畜牧兽医服务中心","address":"卧龙镇","phone":"","category":"医疗保健服务;动物医疗场所;宠物诊所","area":"","lng":112.018813,"lat":32.021456,"amap_id":"B0FFGO088D","order":2,"prev_distance_km":0.042,"cumulative_distance_km":0.042,"amap_marker_url":"https://uri.amap.com/marker?position=112.018813,32.021456&name=%E8%A5%84%E5%9F%8E%E5%8C%BA%E5%8D%A7%E9%BE%99%E7%95%9C%E7%89%A7%E5%85%BD%E5%8C%BB%E6%9C%8D%E5%8A%A1%E4%B8%AD%E5%BF%83&src=vetmap&coordinate=gaode&callnative=1"},{"name":"乐家宠物医院·内窥镜微创中心(山水家园分院)","address":"山水檀溪山水家园西1门旁","phone":"18186768785;19871220933","category":"医疗保健服务;动物医疗场所;宠物诊所","area":"檀溪路","lng":112.116619,"lat":32.005246,"amap_id":"B0JAF9X805","order":3,"prev_distance_km":9.396,"cumulative_distance_km":9.438,"amap_marker_url":"https://uri.amap.com/marker?position=112.116619,32.005246&name=%E4%B9%90%E5%AE%B6%E5%AE%A0%E7%89%A9%E5%8C%BB%E9%99%A2%C2%B7%E5%86%85%E7%AA%A5%E9%95%9C%E5%BE%AE%E5%88%9B%E4%B8%AD%E5%BF%83%28%E5%B1%B1%E6%B0%B4%E5%AE%B6%E5%9B%AD%E5%88%86%E9%99%A2%29&src=vetmap&coordinate=gaode&callnative=1"},{"name":"襄城仲信宠物医院(檀溪分院)","address":"山水檀溪·佳园北门西50米","phone":"0710-3153153","category":"医疗保健服务;动物医疗场所;宠物诊所","area":"檀溪路","lng":112.124824,"lat":32.008763,"amap_id":"B0I3UZOQMG","order":4,"prev_distance_km":0.867,"cumulative_distance_km":10.305,"amap_marker_url":"https://uri.amap.com/marker?position=112.124824,32.008763&name=%E8%A5%84%E5%9F%8E%E4%BB%B2%E4%BF%A1%E5%AE%A0%E7%89%A9%E5%8C%BB%E9%99%A2%28%E6%AA%80%E6%BA%AA%E5%88%86%E9%99%A2%29&src=vetmap&coordinate=gaode&callnative=1"},{"name":"襄阳新牧源畜禽技术服务部","address":"虎头山路与芙蓉路交叉口南40米","phone":"13871754778","category":"医疗保健服务;动物医疗场所;兽医站","area":"檀溪路","lng":112.129494,"lat":32.007599,"amap_id":"B0G1H1O0HA","order":5,"prev_distance_km":0.459,"cumulative_distance_km":10.764,"amap_marker_url":"https://uri.amap.com/marker?position=112.129494,32.007599&name=%E8%A5%84%E9%98%B3%E6%96%B0%E7%89%A7%E6%BA%90%E7%95%9C%E7%A6%BD%E6%8A%80%E6%9C%AF%E6%9C%8D%E5%8A%A1%E9%83%A8&src=vetmap&coordinate=gaode&callnative=1"},{"name":"宝乐乐宠物门诊部","address":"檀溪路111-13号","phone":"13297298086","category":"医疗保健服务;动物医疗场所;宠物诊所","area":"檀溪路","lng":112.138834,"lat":32.01319,"amap_id":"B02C60QEW6","order":6,"prev_distance_km":1.078,"cumulative_distance_km":11.842,"amap_marker_url":"https://uri.amap.com/marker?position=112.138834,32.013190&name=%E5%AE%9D%E4%B9%90%E4%B9%90%E5%AE%A0%E7%89%A9%E9%97%A8%E8%AF%8A%E9%83%A8&src=vetmap&coordinate=gaode&callnative=1"},{"name":"乐家宠物医院·24h急重症·转诊中心(教学总院)","address":"郑家巷35号附近,猫疫苗,狗疫苗,猫绝育,狗绝育,宠物急诊,宠物美容,宠物洗澡,狂犬疫苗,宠物驱虫","phone":"18186768978;19871220933","category":"医疗保健服务;动物医疗场所;宠物诊所","area":"檀溪路","lng":112.144776,"lat":32.009601,"amap_id":"B0HG7ZL28B","order":7,"prev_distance_km":0.688,"cumulative_distance_km":12.53,"amap_marker_url":"https://uri.amap.com/marker?position=112.144776,32.009601&name=%E4%B9%90%E5%AE%B6%E5%AE%A0%E7%89%A9%E5%8C%BB%E9%99%A2%C2%B724h%E6%80%A5%E9%87%8D%E7%97%87%C2%B7%E8%BD%AC%E8%AF%8A%E4%B8%AD%E5%BF%83%28%E6%95%99%E5%AD%A6%E6%80%BB%E9%99%A2%29&src=vetmap&coordinate=gaode&callnative=1"},{"name":"爱博动物医院","address":"闸口二路91号","phone":"0710-3525939","category":"医疗保健服务;动物医疗场所;宠物诊所","area":"闸口","lng":112.164134,"lat":32.025089,"amap_id":"B0FFFO4XEY","order":8,"prev_distance_km":2.509,"cumulative_distance_km":15.039,"amap_marker_url":"https://uri.amap.com/marker?position=112.164134,32.025089&name=%E7%88%B1%E5%8D%9A%E5%8A%A8%E7%89%A9%E5%8C%BB%E9%99%A2&src=vetmap&coordinate=gaode&callnative=1"},{"name":"康展动物医院","address":"建锦路63号","phone":"13098465759","category":"医疗保健服务;动物医疗场所;宠物诊所","area":"闸口","lng":112.164321,"lat":32.028188,"amap_id":"B0J2A53OZI","order":9,"prev_distance_km":0.345,"cumulative_distance_km":15.385,"amap_marker_url":"https://uri.amap.com/marker?position=112.164321,32.028188&name=%E5%BA%B7%E5%B1%95%E5%8A%A8%E7%89%A9%E5%8C%BB%E9%99%A2&src=vetmap&coordinate=gaode&callnative=1"},{"name":"诸葛宠物诊所襄城总院","address":"闸口路辅巷82号","phone":"0710-2359616;13697101982","category":"医疗保健服务;动物医疗场所;宠物诊所","area":"闸口","lng":112.16167,"lat":32.02918,"amap_id":"B0J2DCVVYT","order":10,"prev_distance_km":0.273,"cumulative_distance_km":15.658,"amap_marker_url":"https://uri.amap.com/marker?position=112.161670,32.029180&name=%E8%AF%B8%E8%91%9B%E5%AE%A0%E7%89%A9%E8%AF%8A%E6%89%80%E8%A5%84%E5%9F%8E%E6%80%BB%E9%99%A2&src=vetmap&coordinate=gaode&callnative=1"},{"name":"宠物健康护理","address":"襄江岸·美林丽舍西北门旁","phone":"","category":"医疗保健服务;动物医疗场所;宠物诊所","area":"闸口","lng":112.161677,"lat":32.029185,"amap_id":"B0KBKUFOVY","order":11,"prev_distance_km":0.001,"cumulative_distance_km":15.659,"amap_marker_url":"https://uri.amap.com/marker?position=112.161677,32.029185&name=%E5%AE%A0%E7%89%A9%E5%81%A5%E5%BA%B7%E6%8A%A4%E7%90%86&src=vetmap&coordinate=gaode&callnative=1"},{"name":"他乡宠物善终中心","address":"东方雅园附近","phone":"18164121551","category":"医疗保健服务;动物医疗场所;动物医疗场所","area":"","lng":112.185486,"lat":32.046213,"amap_id":"B0KUR71TMA","order":12,"prev_distance_km":2.936,"cumulative_distance_km":18.595,"amap_marker_url":"https://uri.amap.com/marker?position=112.185486,32.046213&name=%E4%BB%96%E4%B9%A1%E5%AE%A0%E7%89%A9%E5%96%84%E7%BB%88%E4%B8%AD%E5%BF%83&src=vetmap&coordinate=gaode&callnative=1"},{"name":"杜若宠物诊所","address":"鱼梁洲太白路东方雅苑1号楼9号门面","phone":"","category":"医疗保健服务;动物医疗场所;宠物诊所","area":"","lng":112.186637,"lat":32.046194,"amap_id":"B0KKPOUC3N","order":13,"prev_distance_km":0.109,"cumulative_distance_km":18.703,"amap_marker_url":"https://uri.amap.com/marker?position=112.186637,32.046194&name=%E6%9D%9C%E8%8B%A5%E5%AE%A0%E7%89%A9%E8%AF%8A%E6%89%80&src=vetmap&coordinate=gaode&callnative=1"},{"name":"佑宠康宠物医院","address":"汉唐大道3号河畔林语小区东北门南20米","phone":"15571111053","category":"医疗保健服务;动物医疗场所;宠物诊所","area":"","lng":112.167115,"lat":32.019265,"amap_id":"B0KKDH5L81","order":14,"prev_distance_km":3.515,"cumulative_distance_km":22.218,"amap_marker_url":"https://uri.amap.com/marker?position=112.167115,32.019265&name=%E4%BD%91%E5%AE%A0%E5%BA%B7%E5%AE%A0%E7%89%A9%E5%8C%BB%E9%99%A2&src=vetmap&coordinate=gaode&callnative=1"},{"name":"和谐宠物门诊(内环路店)","address":"奇胜公寓小区东南门旁","phone":"","category":"医疗保健服务;动物医疗场所;宠物诊所","area":"南街","lng":112.160361,"lat":32.01223,"amap_id":"B0FFHLV1CL","order":15,"prev_distance_km":1.009,"cumulative_distance_km":23.227,"amap_marker_url":"https://uri.amap.com/marker?position=112.160361,32.012230&name=%E5%92%8C%E8%B0%90%E5%AE%A0%E7%89%A9%E9%97%A8%E8%AF%8A%28%E5%86%85%E7%8E%AF%E8%B7%AF%E5%BA%97%29&src=vetmap&coordinate=gaode&callnative=1"},{"name":"襄阳市襄城区欧庙畜牧兽医服务中心","address":"襄阳市自然资源和规划局襄城分局第七所西北侧","phone":"","category":"医疗保健服务;动物医疗场所;兽医站","area":"欧庙","lng":112.161414,"lat":31.859306,"amap_id":"B0FFHG72TX","order":16,"prev_distance_km":17.005,"cumulative_distance_km":40.231,"amap_marker_url":"https://uri.amap.com/marker?position=112.161414,31.859306&name=%E8%A5%84%E9%98%B3%E5%B8%82%E8%A5%84%E5%9F%8E%E5%8C%BA%E6%AC%A7%E5%BA%99%E7%95%9C%E7%89%A7%E5%85%BD%E5%8C%BB%E6%9C%8D%E5%8A%A1%E4%B8%AD%E5%BF%83&src=vetmap&coordinate=gaode&callnative=1"},{"name":"兽医门诊","address":"潼口村小学西南侧90米","phone":"","category":"医疗保健服务;动物医疗场所;兽医站","area":"","lng":112.139484,"lat":31.832447,"amap_id":"B0H6GL2U47","order":17,"prev_distance_km":3.635,"cumulative_distance_km":43.866,"amap_marker_url":"https://uri.amap.com/marker?position=112.139484,31.832447&name=%E5%85%BD%E5%8C%BB%E9%97%A8%E8%AF%8A&src=vetmap&coordinate=gaode&callnative=1"},{"name":"襄阳市襄城区法龙兽医门诊","address":"欧庙政府路10号","phone":"","category":"医疗保健服务;动物医疗场所;兽医站","area":"","lng":112.074664,"lat":31.83314,"amap_id":"B0K0DDATQO","order":18,"prev_distance_km":6.124,"cumulative_distance_km":49.99,"amap_marker_url":"https://uri.amap.com/marker?position=112.074664,31.833140&name=%E8%A5%84%E9%98%B3%E5%B8%82%E8%A5%84%E5%9F%8E%E5%8C%BA%E6%B3%95%E9%BE%99%E5%85%BD%E5%8C%BB%E9%97%A8%E8%AF%8A&src=vetmap&coordinate=gaode&callnative=1"}]}