{"summary":{"id":"d01403","province":"湖北省","city":"宜昌市","district":"五峰土家族自治县","count":12,"total_distance_km":98.098,"coordinate_system":"GCJ-02 / Amap","generated_at":"2026-05-07 20:23:51"},"rows":[{"name":"仁和畜牧","address":"351国道北侧","phone":"","category":"医疗保健服务;动物医疗场所;动物医疗场所","area":"","lng":111.247465,"lat":30.10149,"amap_id":"B0G2OAF8P8","order":1,"prev_distance_km":0.0,"cumulative_distance_km":0.0,"amap_marker_url":"https://uri.amap.com/marker?position=111.247465,30.101490&name=%E4%BB%81%E5%92%8C%E7%95%9C%E7%89%A7&src=vetmap&coordinate=gaode&callnative=1"},{"name":"猪易生动保服务中心","address":"仁和坪镇仁和坪正街137-1","phone":"15997681979","category":"医疗保健服务;动物医疗场所;宠物诊所","area":"","lng":111.243056,"lat":30.099854,"amap_id":"B0H0ZSVVQN","order":2,"prev_distance_km":0.462,"cumulative_distance_km":0.462,"amap_marker_url":"https://uri.amap.com/marker?position=111.243056,30.099854&name=%E7%8C%AA%E6%98%93%E7%94%9F%E5%8A%A8%E4%BF%9D%E6%9C%8D%E5%8A%A1%E4%B8%AD%E5%BF%83&src=vetmap&coordinate=gaode&callnative=1"},{"name":"志强乡村兽医诊疗点","address":"仁和坪镇小学北侧60米","phone":"","category":"医疗保健服务;动物医疗场所;兽医站","area":"","lng":111.242894,"lat":30.099844,"amap_id":"B0J1FX704Z","order":3,"prev_distance_km":0.016,"cumulative_distance_km":0.477,"amap_marker_url":"https://uri.amap.com/marker?position=111.242894,30.099844&name=%E5%BF%97%E5%BC%BA%E4%B9%A1%E6%9D%91%E5%85%BD%E5%8C%BB%E8%AF%8A%E7%96%97%E7%82%B9&src=vetmap&coordinate=gaode&callnative=1"},{"name":"新牧兽药","address":"仁和坪财政所西北侧220米","phone":"","category":"购物服务;购物相关场所;购物相关场所|医疗保健服务;动物医疗场所;动物医疗场所","area":"","lng":111.237925,"lat":30.101375,"amap_id":"B0LAN9VUGV","order":4,"prev_distance_km":0.507,"cumulative_distance_km":0.985,"amap_marker_url":"https://uri.amap.com/marker?position=111.237925,30.101375&name=%E6%96%B0%E7%89%A7%E5%85%BD%E8%8D%AF&src=vetmap&coordinate=gaode&callnative=1"},{"name":"喜狗喜猫宠物诊所","address":"351国道与长乐大道交叉口东南40米","phone":"16537458889","category":"医疗保健服务;动物医疗场所;宠物诊所","area":"","lng":111.075225,"lat":30.166575,"amap_id":"B0K179TMBN","order":5,"prev_distance_km":17.244,"cumulative_distance_km":18.229,"amap_marker_url":"https://uri.amap.com/marker?position=111.075225,30.166575&name=%E5%96%9C%E7%8B%97%E5%96%9C%E7%8C%AB%E5%AE%A0%E7%89%A9%E8%AF%8A%E6%89%80&src=vetmap&coordinate=gaode&callnative=1"},{"name":"茉茉宠物诊所(渔关分店)","address":"南北二路1-5号附近","phone":"15672483110","category":"医疗保健服务;动物医疗场所;宠物诊所","area":"","lng":111.074024,"lat":30.167647,"amap_id":"B0FFHXQ5XU","order":6,"prev_distance_km":0.166,"cumulative_distance_km":18.395,"amap_marker_url":"https://uri.amap.com/marker?position=111.074024,30.167647&name=%E8%8C%89%E8%8C%89%E5%AE%A0%E7%89%A9%E8%AF%8A%E6%89%80%28%E6%B8%94%E5%85%B3%E5%88%86%E5%BA%97%29&src=vetmap&coordinate=gaode&callnative=1"},{"name":"派多格动物诊疗中心","address":"古坟岭路与南北路交叉口西60米","phone":"","category":"医疗保健服务;动物医疗场所;宠物诊所","area":"","lng":111.076875,"lat":30.172775,"amap_id":"B0L3ASSMKB","order":7,"prev_distance_km":0.633,"cumulative_distance_km":19.028,"amap_marker_url":"https://uri.amap.com/marker?position=111.076875,30.172775&name=%E6%B4%BE%E5%A4%9A%E6%A0%BC%E5%8A%A8%E7%89%A9%E8%AF%8A%E7%96%97%E4%B8%AD%E5%BF%83&src=vetmap&coordinate=gaode&callnative=1"},{"name":"白鹿庄畜牧兽医站","address":"014乡道白鹿庄村二组(老财政所)","phone":"","category":"医疗保健服务;动物医疗场所;兽医站","area":"","lng":110.734909,"lat":30.190568,"amap_id":"B0L3NHD05X","order":8,"prev_distance_km":32.93,"cumulative_distance_km":51.957,"amap_marker_url":"https://uri.amap.com/marker?position=110.734909,30.190568&name=%E7%99%BD%E9%B9%BF%E5%BA%84%E7%95%9C%E7%89%A7%E5%85%BD%E5%8C%BB%E7%AB%99&src=vetmap&coordinate=gaode&callnative=1"},{"name":"五峰镇畜牧兽医站","address":"国家税务总局五峰土家族自治县税务局五峰税务分局东北侧270米","phone":"","category":"医疗保健服务;动物医疗场所;兽医站","area":"","lng":110.67454,"lat":30.193731,"amap_id":"B0L6U96UX7","order":9,"prev_distance_km":5.813,"cumulative_distance_km":57.77,"amap_marker_url":"https://uri.amap.com/marker?position=110.674540,30.193731&name=%E4%BA%94%E5%B3%B0%E9%95%87%E7%95%9C%E7%89%A7%E5%85%BD%E5%8C%BB%E7%AB%99&src=vetmap&coordinate=gaode&callnative=1"},{"name":"长茂司乡村兽医诊疗点","address":"采花康乐大药房西侧","phone":"","category":"医疗保健服务;动物医疗场所;兽医站","area":"","lng":110.453767,"lat":30.209516,"amap_id":"B0G2OSEPTW","order":10,"prev_distance_km":21.289,"cumulative_distance_km":79.059,"amap_marker_url":"https://uri.amap.com/marker?position=110.453767,30.209516&name=%E9%95%BF%E8%8C%82%E5%8F%B8%E4%B9%A1%E6%9D%91%E5%85%BD%E5%8C%BB%E8%AF%8A%E7%96%97%E7%82%B9&src=vetmap&coordinate=gaode&callnative=1"},{"name":"采花乡畜牧兽医站","address":"五巴公路西北侧","phone":"","category":"医疗保健服务;动物医疗场所;兽医站","area":"","lng":110.453765,"lat":30.209356,"amap_id":"B0G2OSFD7H","order":11,"prev_distance_km":0.018,"cumulative_distance_km":79.077,"amap_marker_url":"https://uri.amap.com/marker?position=110.453765,30.209356&name=%E9%87%87%E8%8A%B1%E4%B9%A1%E7%95%9C%E7%89%A7%E5%85%BD%E5%8C%BB%E7%AB%99&src=vetmap&coordinate=gaode&callnative=1"},{"name":"湾潭镇兽医站诊疗点","address":"351国道西南侧","phone":"","category":"医疗保健服务;动物医疗场所;兽医站","area":"","lng":110.432486,"lat":30.03929,"amap_id":"B0H1VHRWXW","order":12,"prev_distance_km":19.021,"cumulative_distance_km":98.098,"amap_marker_url":"https://uri.amap.com/marker?position=110.432486,30.039290&name=%E6%B9%BE%E6%BD%AD%E9%95%87%E5%85%BD%E5%8C%BB%E7%AB%99%E8%AF%8A%E7%96%97%E7%82%B9&src=vetmap&coordinate=gaode&callnative=1"}]}