{"summary":{"id":"d01453","province":"湖北省","city":"襄阳市","district":"宜城市","count":22,"total_distance_km":47.014,"coordinate_system":"GCJ-02 / Amap","generated_at":"2026-05-07 19:58:09"},"rows":[{"name":"乡村兽医诊疗点","address":"218省道东南侧","phone":"","category":"医疗保健服务;动物医疗场所;兽医站","area":"","lng":112.452112,"lat":31.825066,"amap_id":"B0G22HU96S","order":1,"prev_distance_km":0.0,"cumulative_distance_km":0.0,"amap_marker_url":"https://uri.amap.com/marker?position=112.452112,31.825066&name=%E4%B9%A1%E6%9D%91%E5%85%BD%E5%8C%BB%E8%AF%8A%E7%96%97%E7%82%B9&src=vetmap&coordinate=gaode&callnative=1"},{"name":"兽医门诊服务中心","address":"宜璞孔路与振兴街交叉口北60米","phone":"","category":"医疗保健服务;动物医疗场所;兽医站","area":"","lng":112.305368,"lat":31.652869,"amap_id":"B0KU9CX4X9","order":2,"prev_distance_km":23.647,"cumulative_distance_km":23.647,"amap_marker_url":"https://uri.amap.com/marker?position=112.305368,31.652869&name=%E5%85%BD%E5%8C%BB%E9%97%A8%E8%AF%8A%E6%9C%8D%E5%8A%A1%E4%B8%AD%E5%BF%83&src=vetmap&coordinate=gaode&callnative=1"},{"name":"鄢城周海英兽医诊疗点","address":"文昌路与襄沙大道交叉口东北60米","phone":"13886258616","category":"医疗保健服务;动物医疗场所;兽医站","area":"","lng":112.264702,"lat":31.700581,"amap_id":"B0G1D5HEAF","order":3,"prev_distance_km":6.554,"cumulative_distance_km":30.201,"amap_marker_url":"https://uri.amap.com/marker?position=112.264702,31.700581&name=%E9%84%A2%E5%9F%8E%E5%91%A8%E6%B5%B7%E8%8B%B1%E5%85%BD%E5%8C%BB%E8%AF%8A%E7%96%97%E7%82%B9&src=vetmap&coordinate=gaode&callnative=1"},{"name":"鄢城李秀翠兽医诊疗点","address":"文昌路与襄沙大道交叉口东北80米","phone":"","category":"医疗保健服务;动物医疗场所;兽医站","area":"","lng":112.26449,"lat":31.700966,"amap_id":"B0KD4PQ9O1","order":4,"prev_distance_km":0.047,"cumulative_distance_km":30.249,"amap_marker_url":"https://uri.amap.com/marker?position=112.264490,31.700966&name=%E9%84%A2%E5%9F%8E%E6%9D%8E%E7%A7%80%E7%BF%A0%E5%85%BD%E5%8C%BB%E8%AF%8A%E7%96%97%E7%82%B9&src=vetmap&coordinate=gaode&callnative=1"},{"name":"鄢城徐红兽医诊疗点","address":"文昌路与襄沙大道交叉口东北100米","phone":"13508663997","category":"医疗保健服务;动物医疗场所;兽医站","area":"","lng":112.264568,"lat":31.701132,"amap_id":"B0FFM8SKT3","order":5,"prev_distance_km":0.02,"cumulative_distance_km":30.269,"amap_marker_url":"https://uri.amap.com/marker?position=112.264568,31.701132&name=%E9%84%A2%E5%9F%8E%E5%BE%90%E7%BA%A2%E5%85%BD%E5%8C%BB%E8%AF%8A%E7%96%97%E7%82%B9&src=vetmap&coordinate=gaode&callnative=1"},{"name":"鄢城齐海宏兽医诊疗点","address":"文昌路111-11号","phone":"","category":"医疗保健服务;动物医疗场所;兽医站","area":"","lng":112.265165,"lat":31.700938,"amap_id":"B0FFKGV1OP","order":6,"prev_distance_km":0.06,"cumulative_distance_km":30.329,"amap_marker_url":"https://uri.amap.com/marker?position=112.265165,31.700938&name=%E9%84%A2%E5%9F%8E%E9%BD%90%E6%B5%B7%E5%AE%8F%E5%85%BD%E5%8C%BB%E8%AF%8A%E7%96%97%E7%82%B9&src=vetmap&coordinate=gaode&callnative=1"},{"name":"鄢城杨传军兽医诊疗点","address":"文昌路与襄沙大道交叉口东北140米","phone":"15871003616","category":"医疗保健服务;动物医疗场所;兽医站","area":"","lng":112.265127,"lat":31.701256,"amap_id":"B0FFM8SGI5","order":7,"prev_distance_km":0.036,"cumulative_distance_km":30.365,"amap_marker_url":"https://uri.amap.com/marker?position=112.265127,31.701256&name=%E9%84%A2%E5%9F%8E%E6%9D%A8%E4%BC%A0%E5%86%9B%E5%85%BD%E5%8C%BB%E8%AF%8A%E7%96%97%E7%82%B9&src=vetmap&coordinate=gaode&callnative=1"},{"name":"畜安牧业","address":"文昌路88-2号","phone":"","category":"医疗保健服务;动物医疗场所;兽医站","area":"","lng":112.264963,"lat":31.701691,"amap_id":"B02C602Z36","order":8,"prev_distance_km":0.051,"cumulative_distance_km":30.415,"amap_marker_url":"https://uri.amap.com/marker?position=112.264963,31.701691&name=%E7%95%9C%E5%AE%89%E7%89%A7%E4%B8%9A&src=vetmap&coordinate=gaode&callnative=1"},{"name":"鄢城张寒飞兽医诊疗点","address":"文昌路84-1号","phone":"","category":"医疗保健服务;动物医疗场所;兽医站","area":"","lng":112.265141,"lat":31.701863,"amap_id":"B0HK0RLPC5","order":9,"prev_distance_km":0.025,"cumulative_distance_km":30.441,"amap_marker_url":"https://uri.amap.com/marker?position=112.265141,31.701863&name=%E9%84%A2%E5%9F%8E%E5%BC%A0%E5%AF%92%E9%A3%9E%E5%85%BD%E5%8C%BB%E8%AF%8A%E7%96%97%E7%82%B9&src=vetmap&coordinate=gaode&callnative=1"},{"name":"宜城市兽医站门市部(齐鲁兽药专营店)","address":"文昌路与南街交叉口西南120米","phone":"13487184586;13871711698","category":"医疗保健服务;动物医疗场所;兽医站","area":"","lng":112.265944,"lat":31.702253,"amap_id":"B0FFK7F7SU","order":10,"prev_distance_km":0.087,"cumulative_distance_km":30.528,"amap_marker_url":"https://uri.amap.com/marker?position=112.265944,31.702253&name=%E5%AE%9C%E5%9F%8E%E5%B8%82%E5%85%BD%E5%8C%BB%E7%AB%99%E9%97%A8%E5%B8%82%E9%83%A8%28%E9%BD%90%E9%B2%81%E5%85%BD%E8%8D%AF%E4%B8%93%E8%90%A5%E5%BA%97%29&src=vetmap&coordinate=gaode&callnative=1"},{"name":"鄢城张修云兽医诊疗点","address":"文昌路与南街交叉口西南100米","phone":"","category":"医疗保健服务;动物医疗场所;兽医站","area":"","lng":112.26589,"lat":31.702491,"amap_id":"B0FFKGUZK5","order":11,"prev_distance_km":0.027,"cumulative_distance_km":30.555,"amap_marker_url":"https://uri.amap.com/marker?position=112.265890,31.702491&name=%E9%84%A2%E5%9F%8E%E5%BC%A0%E4%BF%AE%E4%BA%91%E5%85%BD%E5%8C%BB%E8%AF%8A%E7%96%97%E7%82%B9&src=vetmap&coordinate=gaode&callnative=1"},{"name":"汪旺宠物诊所(文昌路)","address":"文昌路60号","phone":"0710-4219120;18727014777","category":"医疗保健服务;动物医疗场所;宠物诊所","area":"","lng":112.266241,"lat":31.702773,"amap_id":"B0HDG9ORVF","order":12,"prev_distance_km":0.046,"cumulative_distance_km":30.601,"amap_marker_url":"https://uri.amap.com/marker?position=112.266241,31.702773&name=%E6%B1%AA%E6%97%BA%E5%AE%A0%E7%89%A9%E8%AF%8A%E6%89%80%28%E6%96%87%E6%98%8C%E8%B7%AF%29&src=vetmap&coordinate=gaode&callnative=1"},{"name":"爱萌宠物诊所","address":"东街金色阳光幼儿园侧门对面","phone":"","category":"医疗保健服务;动物医疗场所;宠物诊所","area":"鄢城","lng":112.267831,"lat":31.71013,"amap_id":"B0J2TH8D1F","order":13,"prev_distance_km":0.832,"cumulative_distance_km":31.433,"amap_marker_url":"https://uri.amap.com/marker?position=112.267831,31.710130&name=%E7%88%B1%E8%90%8C%E5%AE%A0%E7%89%A9%E8%AF%8A%E6%89%80&src=vetmap&coordinate=gaode&callnative=1"},{"name":"宜城萌星宠物诊所","address":"望江路115号(农工街国土局正对面)","phone":"15872226427","category":"医疗保健服务;动物医疗场所;宠物诊所","area":"鄢城","lng":112.264906,"lat":31.711728,"amap_id":"B0FFK8OH5U","order":14,"prev_distance_km":0.329,"cumulative_distance_km":31.762,"amap_marker_url":"https://uri.amap.com/marker?position=112.264906,31.711728&name=%E5%AE%9C%E5%9F%8E%E8%90%8C%E6%98%9F%E5%AE%A0%E7%89%A9%E8%AF%8A%E6%89%80&src=vetmap&coordinate=gaode&callnative=1"},{"name":"亿嘉宠物诊所","address":"沿堤街79号","phone":"18727077708;18727077709","category":"医疗保健服务;动物医疗场所;宠物诊所","area":"鄢城","lng":112.263166,"lat":31.709011,"amap_id":"B0FFIY9DAQ","order":15,"prev_distance_km":0.344,"cumulative_distance_km":32.106,"amap_marker_url":"https://uri.amap.com/marker?position=112.263166,31.709011&name=%E4%BA%BF%E5%98%89%E5%AE%A0%E7%89%A9%E8%AF%8A%E6%89%80&src=vetmap&coordinate=gaode&callnative=1"},{"name":"路嘉动物诊所","address":"自忠路188-19-20","phone":"18371027595","category":"医疗保健服务;动物医疗场所;宠物诊所","area":"","lng":112.254252,"lat":31.7063,"amap_id":"B0FFJMEKBO","order":16,"prev_distance_km":0.896,"cumulative_distance_km":33.001,"amap_marker_url":"https://uri.amap.com/marker?position=112.254252,31.706300&name=%E8%B7%AF%E5%98%89%E5%8A%A8%E7%89%A9%E8%AF%8A%E6%89%80&src=vetmap&coordinate=gaode&callnative=1"},{"name":"宜城天旺宠物诊所","address":"北水坝路湖畔人家门面48栋107-108","phone":"13597465587;13627195258","category":"医疗保健服务;动物医疗场所;宠物诊所","area":"","lng":112.249829,"lat":31.706494,"amap_id":"B0I2FSEBSG","order":17,"prev_distance_km":0.419,"cumulative_distance_km":33.42,"amap_marker_url":"https://uri.amap.com/marker?position=112.249829,31.706494&name=%E5%AE%9C%E5%9F%8E%E5%A4%A9%E6%97%BA%E5%AE%A0%E7%89%A9%E8%AF%8A%E6%89%80&src=vetmap&coordinate=gaode&callnative=1"},{"name":"宠里宠物美容","address":"翠湖阳光城","phone":"19945107132","category":"医疗保健服务;动物医疗场所;宠物诊所","area":"","lng":112.248205,"lat":31.706026,"amap_id":"B0H35X677V","order":18,"prev_distance_km":0.162,"cumulative_distance_km":33.582,"amap_marker_url":"https://uri.amap.com/marker?position=112.248205,31.706026&name=%E5%AE%A0%E9%87%8C%E5%AE%A0%E7%89%A9%E7%BE%8E%E5%AE%B9&src=vetmap&coordinate=gaode&callnative=1"},{"name":"宜城市汪旺宠物医院有限公司","address":"宜城大道襄大铭苑1-02商铺","phone":"0710-4286120;18727014777","category":"医疗保健服务;动物医疗场所;宠物诊所","area":"","lng":112.242146,"lat":31.705078,"amap_id":"B0FFI6RIZ1","order":19,"prev_distance_km":0.583,"cumulative_distance_km":34.165,"amap_marker_url":"https://uri.amap.com/marker?position=112.242146,31.705078&name=%E5%AE%9C%E5%9F%8E%E5%B8%82%E6%B1%AA%E6%97%BA%E5%AE%A0%E7%89%A9%E5%8C%BB%E9%99%A2%E6%9C%89%E9%99%90%E5%85%AC%E5%8F%B8&src=vetmap&coordinate=gaode&callnative=1"},{"name":"宜城市兽兽动物诊所","address":"龙头北环路嘉豪悦府3号楼商铺单元102-103室","phone":"15342306775","category":"医疗保健服务;动物医疗场所;宠物诊所","area":"","lng":112.247051,"lat":31.718163,"amap_id":"B0LACAFVF0","order":20,"prev_distance_km":1.527,"cumulative_distance_km":35.692,"amap_marker_url":"https://uri.amap.com/marker?position=112.247051,31.718163&name=%E5%AE%9C%E5%9F%8E%E5%B8%82%E5%85%BD%E5%85%BD%E5%8A%A8%E7%89%A9%E8%AF%8A%E6%89%80&src=vetmap&coordinate=gaode&callnative=1"},{"name":"城北乡村兽医诊疗点","address":"襄沙大道与随南大道交叉口东南120米","phone":"","category":"医疗保健服务;动物医疗场所;兽医站","area":"","lng":112.234834,"lat":31.721072,"amap_id":"B0J35HOUB3","order":21,"prev_distance_km":1.2,"cumulative_distance_km":36.892,"amap_marker_url":"https://uri.amap.com/marker?position=112.234834,31.721072&name=%E5%9F%8E%E5%8C%97%E4%B9%A1%E6%9D%91%E5%85%BD%E5%8C%BB%E8%AF%8A%E7%96%97%E7%82%B9&src=vetmap&coordinate=gaode&callnative=1"},{"name":"乡村兽医诊疗点","address":"346国道与小朱路交叉口东40米","phone":"13617202440","category":"医疗保健服务;动物医疗场所;兽医站","area":"","lng":112.12807,"lat":31.714861,"amap_id":"B0FFLDHJ0T","order":22,"prev_distance_km":10.122,"cumulative_distance_km":47.014,"amap_marker_url":"https://uri.amap.com/marker?position=112.128070,31.714861&name=%E4%B9%A1%E6%9D%91%E5%85%BD%E5%8C%BB%E8%AF%8A%E7%96%97%E7%82%B9&src=vetmap&coordinate=gaode&callnative=1"}]}