{"summary":{"id":"d01469","province":"湖北省","city":"黄冈市","district":"红安县","count":8,"total_distance_km":69.216,"coordinate_system":"GCJ-02 / Amap","generated_at":"2026-05-07 20:23:57"},"rows":[{"name":"七里坪镇兽医站","address":"303县道与沿河大道交叉口南40米","phone":"","category":"医疗保健服务;动物医疗场所;兽医站","area":"","lng":114.655514,"lat":31.464188,"amap_id":"B0L0LXB1VM","order":1,"prev_distance_km":0.0,"cumulative_distance_km":0.0,"amap_marker_url":"https://uri.amap.com/marker?position=114.655514,31.464188&name=%E4%B8%83%E9%87%8C%E5%9D%AA%E9%95%87%E5%85%BD%E5%8C%BB%E7%AB%99&src=vetmap&coordinate=gaode&callnative=1"},{"name":"县宠物防治部","address":"解放北街与解放南街交叉口东南120米","phone":"","category":"医疗保健服务;动物医疗场所;动物医疗场所","area":"","lng":114.622887,"lat":31.285836,"amap_id":"B0L69MKL22","order":2,"prev_distance_km":20.072,"cumulative_distance_km":20.072,"amap_marker_url":"https://uri.amap.com/marker?position=114.622887,31.285836&name=%E5%8E%BF%E5%AE%A0%E7%89%A9%E9%98%B2%E6%B2%BB%E9%83%A8&src=vetmap&coordinate=gaode&callnative=1"},{"name":"康恩动物医院","address":"城关镇沿河路碧水苑101","phone":"13807252668","category":"医疗保健服务;动物医疗场所;宠物诊所","area":"","lng":114.608019,"lat":31.28945,"amap_id":"B0FFISF9ZG","order":3,"prev_distance_km":1.469,"cumulative_distance_km":21.541,"amap_marker_url":"https://uri.amap.com/marker?position=114.608019,31.289450&name=%E5%BA%B7%E6%81%A9%E5%8A%A8%E7%89%A9%E5%8C%BB%E9%99%A2&src=vetmap&coordinate=gaode&callnative=1"},{"name":"喜猫喜狗宠物医院","address":"城关镇沿河北路51号","phone":"15672657638","category":"医疗保健服务;动物医疗场所;宠物诊所","area":"","lng":114.608695,"lat":31.282188,"amap_id":"B0JUM9FP7A","order":4,"prev_distance_km":0.81,"cumulative_distance_km":22.351,"amap_marker_url":"https://uri.amap.com/marker?position=114.608695,31.282188&name=%E5%96%9C%E7%8C%AB%E5%96%9C%E7%8B%97%E5%AE%A0%E7%89%A9%E5%8C%BB%E9%99%A2&src=vetmap&coordinate=gaode&callnative=1"},{"name":"爱宠康动物诊所","address":"城关镇沿河路御景华庭6-105号商铺","phone":"0713-5180288;13972710101","category":"医疗保健服务;动物医疗场所;宠物诊所","area":"","lng":114.612133,"lat":31.273203,"amap_id":"B0FFKMU3C8","order":5,"prev_distance_km":1.051,"cumulative_distance_km":23.402,"amap_marker_url":"https://uri.amap.com/marker?position=114.612133,31.273203&name=%E7%88%B1%E5%AE%A0%E5%BA%B7%E5%8A%A8%E7%89%A9%E8%AF%8A%E6%89%80&src=vetmap&coordinate=gaode&callnative=1"},{"name":"乡村兽医诊疗服务点","address":"永发路与永安街交叉口西南40米","phone":"","category":"医疗保健服务;动物医疗场所;兽医站","area":"","lng":114.712687,"lat":31.147336,"amap_id":"B0FFKVGYVR","order":6,"prev_distance_km":16.951,"cumulative_distance_km":40.353,"amap_marker_url":"https://uri.amap.com/marker?position=114.712687,31.147336&name=%E4%B9%A1%E6%9D%91%E5%85%BD%E5%8C%BB%E8%AF%8A%E7%96%97%E6%9C%8D%E5%8A%A1%E7%82%B9&src=vetmap&coordinate=gaode&callnative=1"},{"name":"觅儿寺镇畜牧兽医技术服务中心","address":"觅儿寺镇便民服务大厅东侧","phone":"17798389229","category":"医疗保健服务;动物医疗场所;兽医站","area":"","lng":114.576394,"lat":31.061104,"amap_id":"B0HKUZSA2O","order":7,"prev_distance_km":16.135,"cumulative_distance_km":56.488,"amap_marker_url":"https://uri.amap.com/marker?position=114.576394,31.061104&name=%E8%A7%85%E5%84%BF%E5%AF%BA%E9%95%87%E7%95%9C%E7%89%A7%E5%85%BD%E5%8C%BB%E6%8A%80%E6%9C%AF%E6%9C%8D%E5%8A%A1%E4%B8%AD%E5%BF%83&src=vetmap&coordinate=gaode&callnative=1"},{"name":"畜牧兽医技术服务中心","address":"安南大道与幸福街交叉口北340米","phone":"","category":"医疗保健服务;动物医疗场所;兽医站","area":"","lng":114.646042,"lat":30.963436,"amap_id":"B0K6ODOESH","order":8,"prev_distance_km":12.728,"cumulative_distance_km":69.216,"amap_marker_url":"https://uri.amap.com/marker?position=114.646042,30.963436&name=%E7%95%9C%E7%89%A7%E5%85%BD%E5%8C%BB%E6%8A%80%E6%9C%AF%E6%9C%8D%E5%8A%A1%E4%B8%AD%E5%BF%83&src=vetmap&coordinate=gaode&callnative=1"}]}