{"summary":{"id":"d01596","province":"湖南省","city":"长沙市","district":"雨花区","count":75,"total_distance_km":65.417,"coordinate_system":"GCJ-02 / Amap","generated_at":"2026-05-07 20:24:02"},"rows":[{"name":"贝斯特动物医院(陆都分院)","address":"芙蓉中路三段569号陆都小区5栋110号","phone":"0731-85501911","category":"医疗保健服务;动物医疗场所;宠物诊所","area":"韶山中路","lng":112.987727,"lat":28.152071,"amap_id":"B0FFM95WYI","order":1,"prev_distance_km":0.0,"cumulative_distance_km":0.0,"amap_marker_url":"https://uri.amap.com/marker?position=112.987727,28.152071&name=%E8%B4%9D%E6%96%AF%E7%89%B9%E5%8A%A8%E7%89%A9%E5%8C%BB%E9%99%A2%28%E9%99%86%E9%83%BD%E5%88%86%E9%99%A2%29&src=vetmap&coordinate=gaode&callnative=1"},{"name":"伴侣24h动物医院·疑难骨科·CT核磁·心内科","address":"华银园小区21栋1楼门面","phone":"0731-85047720;15308439563","category":"医疗保健服务;动物医疗场所;动物医疗场所","area":"韶山中路","lng":112.988396,"lat":28.145872,"amap_id":"B0LUS52LZG","order":2,"prev_distance_km":0.692,"cumulative_distance_km":0.692,"amap_marker_url":"https://uri.amap.com/marker?position=112.988396,28.145872&name=%E4%BC%B4%E4%BE%A324h%E5%8A%A8%E7%89%A9%E5%8C%BB%E9%99%A2%C2%B7%E7%96%91%E9%9A%BE%E9%AA%A8%E7%A7%91%C2%B7CT%E6%A0%B8%E7%A3%81%C2%B7%E5%BF%83%E5%86%85%E7%A7%91&src=vetmap&coordinate=gaode&callnative=1"},{"name":"铭爱宠物美容生活馆(湖南省测绘地理信息局大院店)","address":"中国测绘科学研究院湖南分院西门南80米","phone":"","category":"医疗保健服务;动物医疗场所;动物医疗场所","area":"雨花亭","lng":112.994214,"lat":28.149334,"amap_id":"B0K3ZMG47L","order":3,"prev_distance_km":0.688,"cumulative_distance_km":1.381,"amap_marker_url":"https://uri.amap.com/marker?position=112.994214,28.149334&name=%E9%93%AD%E7%88%B1%E5%AE%A0%E7%89%A9%E7%BE%8E%E5%AE%B9%E7%94%9F%E6%B4%BB%E9%A6%86%28%E6%B9%96%E5%8D%97%E7%9C%81%E6%B5%8B%E7%BB%98%E5%9C%B0%E7%90%86%E4%BF%A1%E6%81%AF%E5%B1%80%E5%A4%A7%E9%99%A2%E5%BA%97%29&src=vetmap&coordinate=gaode&callnative=1"},{"name":"炫宠宠物美容","address":"新建东路与韶山中路交叉口东南240米","phone":"","category":"医疗保健服务;动物医疗场所;动物医疗场所","area":"雨花亭","lng":112.996426,"lat":28.154186,"amap_id":"B0LR77JD0V","order":4,"prev_distance_km":0.581,"cumulative_distance_km":1.962,"amap_marker_url":"https://uri.amap.com/marker?position=112.996426,28.154186&name=%E7%82%AB%E5%AE%A0%E5%AE%A0%E7%89%A9%E7%BE%8E%E5%AE%B9&src=vetmap&coordinate=gaode&callnative=1"},{"name":"瑞歌宠物医院(雨花亭店)","address":"新建东路35号阳光锦城3栋架16","phone":"15116277289","category":"医疗保健服务;动物医疗场所;宠物诊所","area":"韶山中路","lng":112.996447,"lat":28.154336,"amap_id":"B0KB3SXLR1","order":5,"prev_distance_km":0.017,"cumulative_distance_km":1.979,"amap_marker_url":"https://uri.amap.com/marker?position=112.996447,28.154336&name=%E7%91%9E%E6%AD%8C%E5%AE%A0%E7%89%A9%E5%8C%BB%E9%99%A2%28%E9%9B%A8%E8%8A%B1%E4%BA%AD%E5%BA%97%29&src=vetmap&coordinate=gaode&callnative=1"},{"name":"美迦爱动物医院(雨花亭分院)","address":"新建东路白沙啤酒公寓5号(沃尔玛东300米)","phone":"0731-85465155","category":"医疗保健服务;动物医疗场所;宠物诊所","area":"韶山中路","lng":112.998039,"lat":28.155076,"amap_id":"B0FFJP1AUK","order":6,"prev_distance_km":0.176,"cumulative_distance_km":2.155,"amap_marker_url":"https://uri.amap.com/marker?position=112.998039,28.155076&name=%E7%BE%8E%E8%BF%A6%E7%88%B1%E5%8A%A8%E7%89%A9%E5%8C%BB%E9%99%A2%28%E9%9B%A8%E8%8A%B1%E4%BA%AD%E5%88%86%E9%99%A2%29&src=vetmap&coordinate=gaode&callnative=1"},{"name":"铭爱宠物医院(曙光路店)","address":"曙光南路79号","phone":"15874264756;19976661575","category":"医疗保健服务;动物医疗场所;宠物诊所","area":"劳动中路","lng":113.002146,"lat":28.160453,"amap_id":"B0I6S5OP51","order":7,"prev_distance_km":0.721,"cumulative_distance_km":2.876,"amap_marker_url":"https://uri.amap.com/marker?position=113.002146,28.160453&name=%E9%93%AD%E7%88%B1%E5%AE%A0%E7%89%A9%E5%8C%BB%E9%99%A2%28%E6%9B%99%E5%85%89%E8%B7%AF%E5%BA%97%29&src=vetmap&coordinate=gaode&callnative=1"},{"name":"心爱宠物诊所","address":"砂子塘社区14栋(砂子塘地铁站6号口步行180米)","phone":"13974824093","category":"医疗保健服务;动物医疗场所;宠物诊所","area":"砂子塘","lng":112.994678,"lat":28.161953,"amap_id":"B0FFKEGVUI","order":8,"prev_distance_km":0.751,"cumulative_distance_km":3.627,"amap_marker_url":"https://uri.amap.com/marker?position=112.994678,28.161953&name=%E5%BF%83%E7%88%B1%E5%AE%A0%E7%89%A9%E8%AF%8A%E6%89%80&src=vetmap&coordinate=gaode&callnative=1"},{"name":"瑞派宠物医院(悦爱店)","address":"劳动中路61号亚华香舍花都小区南门","phone":"","category":"医疗保健服务;动物医疗场所;宠物诊所","area":"劳动中路","lng":112.998657,"lat":28.16775,"amap_id":"B0K60H0BX7","order":9,"prev_distance_km":0.753,"cumulative_distance_km":4.38,"amap_marker_url":"https://uri.amap.com/marker?position=112.998657,28.167750&name=%E7%91%9E%E6%B4%BE%E5%AE%A0%E7%89%A9%E5%8C%BB%E9%99%A2%28%E6%82%A6%E7%88%B1%E5%BA%97%29&src=vetmap&coordinate=gaode&callnative=1"},{"name":"皮皮宠物医院(曙光中路店)","address":"曙光中路373号(桂花公园地铁站1号口步行200米)","phone":"13874832735;18942507377","category":"医疗保健服务;动物医疗场所;宠物诊所","area":"劳动中路","lng":113.001672,"lat":28.169563,"amap_id":"B0HKPZ79LP","order":10,"prev_distance_km":0.358,"cumulative_distance_km":4.738,"amap_marker_url":"https://uri.amap.com/marker?position=113.001672,28.169563&name=%E7%9A%AE%E7%9A%AE%E5%AE%A0%E7%89%A9%E5%8C%BB%E9%99%A2%28%E6%9B%99%E5%85%89%E4%B8%AD%E8%B7%AF%E5%BA%97%29&src=vetmap&coordinate=gaode&callnative=1"},{"name":"爱它宠物诊所","address":"官塘冲巷与桂花路交叉口东南40米","phone":"19911313361","category":"医疗保健服务;动物医疗场所;宠物诊所","area":"红花坡","lng":113.007505,"lat":28.169764,"amap_id":"B0K3DMROT2","order":11,"prev_distance_km":0.572,"cumulative_distance_km":5.31,"amap_marker_url":"https://uri.amap.com/marker?position=113.007505,28.169764&name=%E7%88%B1%E5%AE%83%E5%AE%A0%E7%89%A9%E8%AF%8A%E6%89%80&src=vetmap&coordinate=gaode&callnative=1"},{"name":"慈心动物医院(左家塘店)","address":"城南东路与曙光中路交叉口西北120米","phone":"0731-19785697","category":"医疗保健服务;动物医疗场所;宠物诊所","area":"人民中路","lng":113.00018,"lat":28.178467,"amap_id":"B02DB1064Q","order":12,"prev_distance_km":1.205,"cumulative_distance_km":6.515,"amap_marker_url":"https://uri.amap.com/marker?position=113.000180,28.178467&name=%E6%85%88%E5%BF%83%E5%8A%A8%E7%89%A9%E5%8C%BB%E9%99%A2%28%E5%B7%A6%E5%AE%B6%E5%A1%98%E5%BA%97%29&src=vetmap&coordinate=gaode&callnative=1"},{"name":"唯爱宠物医院(韶山北路院)","address":"韶山北路247号宏景名厦B座F1层","phone":"0731-82244358","category":"医疗保健服务;动物医疗场所;宠物诊所","area":"窑岭","lng":112.997886,"lat":28.183952,"amap_id":"B0HK9Z2CWT","order":13,"prev_distance_km":0.65,"cumulative_distance_km":7.165,"amap_marker_url":"https://uri.amap.com/marker?position=112.997886,28.183952&name=%E5%94%AF%E7%88%B1%E5%AE%A0%E7%89%A9%E5%8C%BB%E9%99%A2%28%E9%9F%B6%E5%B1%B1%E5%8C%97%E8%B7%AF%E9%99%A2%29&src=vetmap&coordinate=gaode&callnative=1"},{"name":"麦多宠物医院24小时急诊","address":"梓园路292号","phone":"13723886214;13808424545","category":"医疗保健服务;动物医疗场所;宠物诊所","area":"广济桥","lng":112.99155,"lat":28.177364,"amap_id":"B0HAOLIDIQ","order":14,"prev_distance_km":0.96,"cumulative_distance_km":8.126,"amap_marker_url":"https://uri.amap.com/marker?position=112.991550,28.177364&name=%E9%BA%A6%E5%A4%9A%E5%AE%A0%E7%89%A9%E5%8C%BB%E9%99%A224%E5%B0%8F%E6%97%B6%E6%80%A5%E8%AF%8A&src=vetmap&coordinate=gaode&callnative=1"},{"name":"贝斯特动物医院(城中分院)","address":"城南中路290号101房","phone":"0731-84136918","category":"医疗保健服务;动物医疗场所;宠物诊所","area":"侯家塘","lng":112.988141,"lat":28.181624,"amap_id":"B0J3D7K06I","order":15,"prev_distance_km":0.58,"cumulative_distance_km":8.705,"amap_marker_url":"https://uri.amap.com/marker?position=112.988141,28.181624&name=%E8%B4%9D%E6%96%AF%E7%89%B9%E5%8A%A8%E7%89%A9%E5%8C%BB%E9%99%A2%28%E5%9F%8E%E4%B8%AD%E5%88%86%E9%99%A2%29&src=vetmap&coordinate=gaode&callnative=1"},{"name":"长沙诚品动物医院核磁共振","address":"车站南路33号","phone":"0731-85237466","category":"医疗保健服务;动物医疗场所;宠物诊所","area":"茶园坡","lng":113.011752,"lat":28.158512,"amap_id":"B0FFH5YYK2","order":16,"prev_distance_km":3.459,"cumulative_distance_km":12.164,"amap_marker_url":"https://uri.amap.com/marker?position=113.011752,28.158512&name=%E9%95%BF%E6%B2%99%E8%AF%9A%E5%93%81%E5%8A%A8%E7%89%A9%E5%8C%BB%E9%99%A2%E6%A0%B8%E7%A3%81%E5%85%B1%E6%8C%AF&src=vetmap&coordinate=gaode&callnative=1"},{"name":"铭心宠物医院·骨外科中心·中兽医针灸","address":"雨花亭街道南二环一段123号叠彩兰亭A1-A2栋203","phone":"0731-82259159;13548579933","category":"医疗保健服务;动物医疗场所;宠物诊所","area":"树木岭","lng":113.012687,"lat":28.152306,"amap_id":"B0J3XS7ALO","order":17,"prev_distance_km":0.696,"cumulative_distance_km":12.86,"amap_marker_url":"https://uri.amap.com/marker?position=113.012687,28.152306&name=%E9%93%AD%E5%BF%83%E5%AE%A0%E7%89%A9%E5%8C%BB%E9%99%A2%C2%B7%E9%AA%A8%E5%A4%96%E7%A7%91%E4%B8%AD%E5%BF%83%C2%B7%E4%B8%AD%E5%85%BD%E5%8C%BB%E9%92%88%E7%81%B8&src=vetmap&coordinate=gaode&callnative=1"},{"name":"佩宝儿宠物洗美店","address":"保利大都汇2期D7栋114","phone":"19918866477","category":"医疗保健服务;动物医疗场所;动物医疗场所","area":"","lng":113.018798,"lat":28.159875,"amap_id":"B0LDNR4PYI","order":18,"prev_distance_km":1.033,"cumulative_distance_km":13.893,"amap_marker_url":"https://uri.amap.com/marker?position=113.018798,28.159875&name=%E4%BD%A9%E5%AE%9D%E5%84%BF%E5%AE%A0%E7%89%A9%E6%B4%97%E7%BE%8E%E5%BA%97&src=vetmap&coordinate=gaode&callnative=1"},{"name":"贝斯特动物医院24h夜间急诊(树木岭分院)","address":"劳动东路与马王堆南路交叉口西140米","phone":"","category":"医疗保健服务;动物医疗场所;宠物诊所","area":"","lng":113.024298,"lat":28.157673,"amap_id":"B0L6LUESGH","order":19,"prev_distance_km":0.592,"cumulative_distance_km":14.485,"amap_marker_url":"https://uri.amap.com/marker?position=113.024298,28.157673&name=%E8%B4%9D%E6%96%AF%E7%89%B9%E5%8A%A8%E7%89%A9%E5%8C%BB%E9%99%A224h%E5%A4%9C%E9%97%B4%E6%80%A5%E8%AF%8A%28%E6%A0%91%E6%9C%A8%E5%B2%AD%E5%88%86%E9%99%A2%29&src=vetmap&coordinate=gaode&callnative=1"},{"name":"贝斯特动物医院(树木岭分院)","address":"圭塘街道劳动东路139号新城新世界小区A6栋104号","phone":"0731-88101923","category":"医疗保健服务;动物医疗场所;宠物诊所","area":"","lng":113.024176,"lat":28.157323,"amap_id":"B0J3DCIPTY","order":20,"prev_distance_km":0.041,"cumulative_distance_km":14.526,"amap_marker_url":"https://uri.amap.com/marker?position=113.024176,28.157323&name=%E8%B4%9D%E6%96%AF%E7%89%B9%E5%8A%A8%E7%89%A9%E5%8C%BB%E9%99%A2%28%E6%A0%91%E6%9C%A8%E5%B2%AD%E5%88%86%E9%99%A2%29&src=vetmap&coordinate=gaode&callnative=1"},{"name":"宠幸宠物医院","address":"圭塘街道万家丽中路225号中城丽景香山西门门面","phone":"0731-85833457;18673184800","category":"医疗保健服务;动物医疗场所;宠物诊所","area":"圭塘","lng":113.03041,"lat":28.153589,"amap_id":"B0FFKS7D8F","order":21,"prev_distance_km":0.739,"cumulative_distance_km":15.265,"amap_marker_url":"https://uri.amap.com/marker?position=113.030410,28.153589&name=%E5%AE%A0%E5%B9%B8%E5%AE%A0%E7%89%A9%E5%8C%BB%E9%99%A2&src=vetmap&coordinate=gaode&callnative=1"},{"name":"祥瑞宠物医院","address":"黎托街道劳动东路349号景江雅苑1栋111号","phone":"0731-85452938","category":"医疗保健服务;动物医疗场所;宠物诊所","area":"","lng":113.036846,"lat":28.158123,"amap_id":"B02DB0TNBT","order":22,"prev_distance_km":0.808,"cumulative_distance_km":16.073,"amap_marker_url":"https://uri.amap.com/marker?position=113.036846,28.158123&name=%E7%A5%A5%E7%91%9E%E5%AE%A0%E7%89%A9%E5%8C%BB%E9%99%A2&src=vetmap&coordinate=gaode&callnative=1"},{"name":"佳贝宠物医院","address":"石坝路三江花中城27栋103门面","phone":"13397616665","category":"医疗保健服务;动物医疗场所;宠物诊所","area":"体育新城","lng":113.033272,"lat":28.162932,"amap_id":"B0HAVCAQAN","order":23,"prev_distance_km":0.639,"cumulative_distance_km":16.712,"amap_marker_url":"https://uri.amap.com/marker?position=113.033272,28.162932&name=%E4%BD%B3%E8%B4%9D%E5%AE%A0%E7%89%A9%E5%8C%BB%E9%99%A2&src=vetmap&coordinate=gaode&callnative=1"},{"name":"瑞鹏宠物医院(古曲南路分院)","address":"长沙大道508号桂花城初阳苑C1C2C3栋112","phone":"0731-85315716;18153883558","category":"医疗保健服务;动物医疗场所;宠物诊所","area":"","lng":113.038184,"lat":28.168646,"amap_id":"B0FFJ7VCH0","order":24,"prev_distance_km":0.797,"cumulative_distance_km":17.509,"amap_marker_url":"https://uri.amap.com/marker?position=113.038184,28.168646&name=%E7%91%9E%E9%B9%8F%E5%AE%A0%E7%89%A9%E5%8C%BB%E9%99%A2%28%E5%8F%A4%E6%9B%B2%E5%8D%97%E8%B7%AF%E5%88%86%E9%99%A2%29&src=vetmap&coordinate=gaode&callnative=1"},{"name":"福宝宠物","address":"石坝路110号","phone":"13574144261","category":"医疗保健服务;动物医疗场所;动物医疗场所","area":"体育新城","lng":113.041398,"lat":28.163563,"amap_id":"B0L3DZ57CU","order":25,"prev_distance_km":0.647,"cumulative_distance_km":18.156,"amap_marker_url":"https://uri.amap.com/marker?position=113.041398,28.163563&name=%E7%A6%8F%E5%AE%9D%E5%AE%A0%E7%89%A9&src=vetmap&coordinate=gaode&callnative=1"},{"name":"贝贝康24小时宠物医院·宠保定点(运达院区)","address":"长沙大道嘉宇·盛世华章A1栋","phone":"15580093056","category":"医疗保健服务;动物医疗场所;宠物诊所","area":"","lng":113.044991,"lat":28.169784,"amap_id":"B0FFIXJ54V","order":26,"prev_distance_km":0.776,"cumulative_distance_km":18.932,"amap_marker_url":"https://uri.amap.com/marker?position=113.044991,28.169784&name=%E8%B4%9D%E8%B4%9D%E5%BA%B724%E5%B0%8F%E6%97%B6%E5%AE%A0%E7%89%A9%E5%8C%BB%E9%99%A2%C2%B7%E5%AE%A0%E4%BF%9D%E5%AE%9A%E7%82%B9%28%E8%BF%90%E8%BE%BE%E9%99%A2%E5%8C%BA%29&src=vetmap&coordinate=gaode&callnative=1"},{"name":"湖南省动物疫病预防控制中心(长沙大道)","address":"长沙大道708号(长沙大道地铁站4号口步行430米)","phone":"0731-89716972","category":"医疗保健服务;动物医疗场所;动物医疗场所","area":"","lng":113.049131,"lat":28.168018,"amap_id":"B02DB0YPU9","order":27,"prev_distance_km":0.451,"cumulative_distance_km":19.383,"amap_marker_url":"https://uri.amap.com/marker?position=113.049131,28.168018&name=%E6%B9%96%E5%8D%97%E7%9C%81%E5%8A%A8%E7%89%A9%E7%96%AB%E7%97%85%E9%A2%84%E9%98%B2%E6%8E%A7%E5%88%B6%E4%B8%AD%E5%BF%83%28%E9%95%BF%E6%B2%99%E5%A4%A7%E9%81%93%29&src=vetmap&coordinate=gaode&callnative=1"},{"name":"乐福动物医院(明晟壹城店)","address":"明昇壹城广场潭白路,幼儿园旁边","phone":"15084731380","category":"医疗保健服务;动物医疗场所;宠物诊所","area":"","lng":113.051644,"lat":28.161256,"amap_id":"B0KUKZ8L5J","order":28,"prev_distance_km":0.791,"cumulative_distance_km":20.175,"amap_marker_url":"https://uri.amap.com/marker?position=113.051644,28.161256&name=%E4%B9%90%E7%A6%8F%E5%8A%A8%E7%89%A9%E5%8C%BB%E9%99%A2%28%E6%98%8E%E6%99%9F%E5%A3%B9%E5%9F%8E%E5%BA%97%29&src=vetmap&coordinate=gaode&callnative=1"},{"name":"有家宠物医院·肿瘤专科·心脏专科·泌尿专科(雨花分院)","address":"潭白路明昇时代广场三期7栋102","phone":"19374955088","category":"医疗保健服务;动物医疗场所;宠物诊所","area":"","lng":113.052516,"lat":28.161066,"amap_id":"B0LU6LOOGX","order":29,"prev_distance_km":0.088,"cumulative_distance_km":20.263,"amap_marker_url":"https://uri.amap.com/marker?position=113.052516,28.161066&name=%E6%9C%89%E5%AE%B6%E5%AE%A0%E7%89%A9%E5%8C%BB%E9%99%A2%C2%B7%E8%82%BF%E7%98%A4%E4%B8%93%E7%A7%91%C2%B7%E5%BF%83%E8%84%8F%E4%B8%93%E7%A7%91%C2%B7%E6%B3%8C%E5%B0%BF%E4%B8%93%E7%A7%91%28%E9%9B%A8%E8%8A%B1%E5%88%86%E9%99%A2%29&src=vetmap&coordinate=gaode&callnative=1"},{"name":"佳遇宠物诊所","address":"明晟壹城一期-109门面","phone":"19911599914","category":"医疗保健服务;动物医疗场所;宠物诊所","area":"","lng":113.055498,"lat":28.163495,"amap_id":"B0JAUHPCBQ","order":30,"prev_distance_km":0.398,"cumulative_distance_km":20.661,"amap_marker_url":"https://uri.amap.com/marker?position=113.055498,28.163495&name=%E4%BD%B3%E9%81%87%E5%AE%A0%E7%89%A9%E8%AF%8A%E6%89%80&src=vetmap&coordinate=gaode&callnative=1"},{"name":"泽康宠物医院(明昇壹城店)","address":"明昇壹城2期","phone":"19198211357","category":"医疗保健服务;动物医疗场所;宠物诊所","area":"","lng":113.056425,"lat":28.164625,"amap_id":"B0L0J7GXUX","order":31,"prev_distance_km":0.155,"cumulative_distance_km":20.816,"amap_marker_url":"https://uri.amap.com/marker?position=113.056425,28.164625&name=%E6%B3%BD%E5%BA%B7%E5%AE%A0%E7%89%A9%E5%8C%BB%E9%99%A2%28%E6%98%8E%E6%98%87%E5%A3%B9%E5%9F%8E%E5%BA%97%29&src=vetmap&coordinate=gaode&callnative=1"},{"name":"乐达宠物医院(花侯路店)","address":"阳光城尚东湾青云苑S6-102-103","phone":"0731-85535618;13319505330","category":"医疗保健服务;动物医疗场所;宠物诊所","area":"","lng":113.061789,"lat":28.173717,"amap_id":"B0JDFCWH7L","order":32,"prev_distance_km":1.14,"cumulative_distance_km":21.955,"amap_marker_url":"https://uri.amap.com/marker?position=113.061789,28.173717&name=%E4%B9%90%E8%BE%BE%E5%AE%A0%E7%89%A9%E5%8C%BB%E9%99%A2%28%E8%8A%B1%E4%BE%AF%E8%B7%AF%E5%BA%97%29&src=vetmap&coordinate=gaode&callnative=1"},{"name":"瑞康24h宠物医院.犬猫全科.异宠","address":"黎托街道劳动东路1299号城际新苑42期79栋109-110","phone":"13107481646;18374588325","category":"医疗保健服务;动物医疗场所;宠物诊所","area":"","lng":113.07156,"lat":28.164947,"amap_id":"B0L6RZMCDH","order":33,"prev_distance_km":1.367,"cumulative_distance_km":23.322,"amap_marker_url":"https://uri.amap.com/marker?position=113.071560,28.164947&name=%E7%91%9E%E5%BA%B724h%E5%AE%A0%E7%89%A9%E5%8C%BB%E9%99%A2.%E7%8A%AC%E7%8C%AB%E5%85%A8%E7%A7%91.%E5%BC%82%E5%AE%A0&src=vetmap&coordinate=gaode&callnative=1"},{"name":"瑞鹏宠物医院(万科魅力之城分院)","address":"劳动东路万科1299号万科魅力之城万科里3号栋1楼108、112、113铺位","phone":"0731-85959120;19911328636","category":"医疗保健服务;动物医疗场所;宠物诊所","area":"","lng":113.070401,"lat":28.160757,"amap_id":"B0HAJC5IF6","order":34,"prev_distance_km":0.48,"cumulative_distance_km":23.802,"amap_marker_url":"https://uri.amap.com/marker?position=113.070401,28.160757&name=%E7%91%9E%E9%B9%8F%E5%AE%A0%E7%89%A9%E5%8C%BB%E9%99%A2%28%E4%B8%87%E7%A7%91%E9%AD%85%E5%8A%9B%E4%B9%8B%E5%9F%8E%E5%88%86%E9%99%A2%29&src=vetmap&coordinate=gaode&callnative=1"},{"name":"贝它宠宠物诊所","address":"朝晖路锦湘国际锦雅苑16栋107-108门面","phone":"19918853800","category":"医疗保健服务;动物医疗场所;宠物诊所","area":"高桥","lng":113.033731,"lat":28.176144,"amap_id":"B0HUK57ZGC","order":35,"prev_distance_km":3.981,"cumulative_distance_km":27.783,"amap_marker_url":"https://uri.amap.com/marker?position=113.033731,28.176144&name=%E8%B4%9D%E5%AE%83%E5%AE%A0%E5%AE%A0%E7%89%A9%E8%AF%8A%E6%89%80&src=vetmap&coordinate=gaode&callnative=1"},{"name":"美佳宠物医院","address":"泊爱蓝湾蓝钻轩东门北110米","phone":"15073198092","category":"医疗保健服务;动物医疗场所;宠物诊所","area":"人民东路","lng":113.034072,"lat":28.181445,"amap_id":"B0JG4CCDN2","order":36,"prev_distance_km":0.59,"cumulative_distance_km":28.373,"amap_marker_url":"https://uri.amap.com/marker?position=113.034072,28.181445&name=%E7%BE%8E%E4%BD%B3%E5%AE%A0%E7%89%A9%E5%8C%BB%E9%99%A2&src=vetmap&coordinate=gaode&callnative=1"},{"name":"瑞派宠物医院(西子花苑店)","address":"高桥街道马王堆南路79号西子花苑16栋118房","phone":"0731-85167455;18942040526","category":"医疗保健服务;动物医疗场所;宠物诊所","area":"高桥","lng":113.028374,"lat":28.181772,"amap_id":"B0I02ZEXHU","order":37,"prev_distance_km":0.56,"cumulative_distance_km":28.933,"amap_marker_url":"https://uri.amap.com/marker?position=113.028374,28.181772&name=%E7%91%9E%E6%B4%BE%E5%AE%A0%E7%89%A9%E5%8C%BB%E9%99%A2%28%E8%A5%BF%E5%AD%90%E8%8A%B1%E8%8B%91%E5%BA%97%29&src=vetmap&coordinate=gaode&callnative=1"},{"name":"宠幸动物诊所","address":"东岸街道人民东路五一村B6-1楼门面","phone":"0731-82200358","category":"医疗保健服务;动物医疗场所;宠物诊所","area":"人民东路","lng":113.024484,"lat":28.183739,"amap_id":"B02DB0X4V0","order":38,"prev_distance_km":0.44,"cumulative_distance_km":29.372,"amap_marker_url":"https://uri.amap.com/marker?position=113.024484,28.183739&name=%E5%AE%A0%E5%B9%B8%E5%8A%A8%E7%89%A9%E8%AF%8A%E6%89%80&src=vetmap&coordinate=gaode&callnative=1"},{"name":"美迦爱动物医院(树木岭分院)","address":"曲塘路英郡年华1期1栋113号","phone":"0731-83911888","category":"医疗保健服务;动物医疗场所;宠物诊所","area":"圭塘","lng":113.021479,"lat":28.143851,"amap_id":"B0FFI8BW80","order":39,"prev_distance_km":4.445,"cumulative_distance_km":33.817,"amap_marker_url":"https://uri.amap.com/marker?position=113.021479,28.143851&name=%E7%BE%8E%E8%BF%A6%E7%88%B1%E5%8A%A8%E7%89%A9%E5%8C%BB%E9%99%A2%28%E6%A0%91%E6%9C%A8%E5%B2%AD%E5%88%86%E9%99%A2%29&src=vetmap&coordinate=gaode&callnative=1"},{"name":"兰亭宠物医院24小时接诊","address":"雨花亭街道香南郡社区圭塘路228号朗峰苑2号地下室101号门面","phone":"0731-82203477;18974809183","category":"医疗保健服务;动物医疗场所;宠物诊所","area":"圭塘","lng":113.025892,"lat":28.137814,"amap_id":"B0JUMSDK4V","order":40,"prev_distance_km":0.799,"cumulative_distance_km":34.616,"amap_marker_url":"https://uri.amap.com/marker?position=113.025892,28.137814&name=%E5%85%B0%E4%BA%AD%E5%AE%A0%E7%89%A9%E5%8C%BB%E9%99%A224%E5%B0%8F%E6%97%B6%E6%8E%A5%E8%AF%8A&src=vetmap&coordinate=gaode&callnative=1"},{"name":"瑞鹏宠物医院(香樟路分院)","address":"圭塘路228号朗峰苑6栋-110","phone":"0731-85315816","category":"医疗保健服务;动物医疗场所;宠物诊所","area":"圭塘","lng":113.027553,"lat":28.137818,"amap_id":"B0FFJA6C1Q","order":41,"prev_distance_km":0.163,"cumulative_distance_km":34.779,"amap_marker_url":"https://uri.amap.com/marker?position=113.027553,28.137818&name=%E7%91%9E%E9%B9%8F%E5%AE%A0%E7%89%A9%E5%8C%BB%E9%99%A2%28%E9%A6%99%E6%A8%9F%E8%B7%AF%E5%88%86%E9%99%A2%29&src=vetmap&coordinate=gaode&callnative=1"},{"name":"优乐宠物医院","address":"香樟路万树丹堤2栋107","phone":"13657493360","category":"医疗保健服务;动物医疗场所;宠物诊所","area":"圭塘","lng":113.031676,"lat":28.137152,"amap_id":"B0LU95CZ4P","order":42,"prev_distance_km":0.411,"cumulative_distance_km":35.19,"amap_marker_url":"https://uri.amap.com/marker?position=113.031676,28.137152&name=%E4%BC%98%E4%B9%90%E5%AE%A0%E7%89%A9%E5%8C%BB%E9%99%A2&src=vetmap&coordinate=gaode&callnative=1"},{"name":"壹辰宠物医院","address":"悠游小镇商业中心雨河路42号","phone":"18173152283","category":"医疗保健服务;动物医疗场所;宠物诊所","area":"圭塘","lng":113.034867,"lat":28.12945,"amap_id":"B0I0R5Y5IS","order":43,"prev_distance_km":0.912,"cumulative_distance_km":36.102,"amap_marker_url":"https://uri.amap.com/marker?position=113.034867,28.129450&name=%E5%A3%B9%E8%BE%B0%E5%AE%A0%E7%89%A9%E5%8C%BB%E9%99%A2&src=vetmap&coordinate=gaode&callnative=1"},{"name":"嘉咪宠物医院24小时急诊(香月路店)","address":"木莲东路81号木莲花苑4栋2","phone":"0731-85155315;15116150197","category":"医疗保健服务;动物医疗场所;宠物诊所","area":"圭塘","lng":113.040846,"lat":28.128969,"amap_id":"B0K3SL8YJ5","order":44,"prev_distance_km":0.589,"cumulative_distance_km":36.69,"amap_marker_url":"https://uri.amap.com/marker?position=113.040846,28.128969&name=%E5%98%89%E5%92%AA%E5%AE%A0%E7%89%A9%E5%8C%BB%E9%99%A224%E5%B0%8F%E6%97%B6%E6%80%A5%E8%AF%8A%28%E9%A6%99%E6%9C%88%E8%B7%AF%E5%BA%97%29&src=vetmap&coordinate=gaode&callnative=1"},{"name":"恒康宠物医院(雨花家园和雅苑店)","address":"香莲路205号","phone":"0731-89717512;15273117482","category":"医疗保健服务;动物医疗场所;宠物诊所","area":"圭塘","lng":113.040603,"lat":28.131803,"amap_id":"B02DB0XR2R","order":45,"prev_distance_km":0.316,"cumulative_distance_km":37.006,"amap_marker_url":"https://uri.amap.com/marker?position=113.040603,28.131803&name=%E6%81%92%E5%BA%B7%E5%AE%A0%E7%89%A9%E5%8C%BB%E9%99%A2%28%E9%9B%A8%E8%8A%B1%E5%AE%B6%E5%9B%AD%E5%92%8C%E9%9B%85%E8%8B%91%E5%BA%97%29&src=vetmap&coordinate=gaode&callnative=1"},{"name":"瑞鹏宠物医院(万境水岸分院)","address":"圭塘路969号万境水岸和苑10栋108号","phone":"0731-85315060;15116345206","category":"医疗保健服务;动物医疗场所;宠物诊所","area":"圭塘","lng":113.030194,"lat":28.121219,"amap_id":"B0FFJCAVPA","order":46,"prev_distance_km":1.558,"cumulative_distance_km":38.564,"amap_marker_url":"https://uri.amap.com/marker?position=113.030194,28.121219&name=%E7%91%9E%E9%B9%8F%E5%AE%A0%E7%89%A9%E5%8C%BB%E9%99%A2%28%E4%B8%87%E5%A2%83%E6%B0%B4%E5%B2%B8%E5%88%86%E9%99%A2%29&src=vetmap&coordinate=gaode&callnative=1"},{"name":"好莱宠物医院·犬猫外科·骨科·专科·免疫点","address":"洞井中路200号(山水庭院西门15栋二层)","phone":"15388901636","category":"医疗保健服务;动物医疗场所;宠物诊所","area":"","lng":113.021275,"lat":28.119872,"amap_id":"B0J2L5V757","order":47,"prev_distance_km":0.887,"cumulative_distance_km":39.452,"amap_marker_url":"https://uri.amap.com/marker?position=113.021275,28.119872&name=%E5%A5%BD%E8%8E%B1%E5%AE%A0%E7%89%A9%E5%8C%BB%E9%99%A2%C2%B7%E7%8A%AC%E7%8C%AB%E5%A4%96%E7%A7%91%C2%B7%E9%AA%A8%E7%A7%91%C2%B7%E4%B8%93%E7%A7%91%C2%B7%E5%85%8D%E7%96%AB%E7%82%B9&src=vetmap&coordinate=gaode&callnative=1"},{"name":"小萌宠物医院","address":"井湾子街道建设路莲景苑5栋","phone":"18711043782","category":"医疗保健服务;动物医疗场所;宠物诊所","area":"","lng":113.018002,"lat":28.115145,"amap_id":"B0KG7H0T7D","order":48,"prev_distance_km":0.616,"cumulative_distance_km":40.068,"amap_marker_url":"https://uri.amap.com/marker?position=113.018002,28.115145&name=%E5%B0%8F%E8%90%8C%E5%AE%A0%E7%89%A9%E5%8C%BB%E9%99%A2&src=vetmap&coordinate=gaode&callnative=1"},{"name":"美辰宠物医院","address":"华悦城东区东北门旁","phone":"15388958408","category":"医疗保健服务;动物医疗场所;宠物诊所","area":"圭塘","lng":113.023989,"lat":28.112954,"amap_id":"B0FFKBOMGC","order":49,"prev_distance_km":0.636,"cumulative_distance_km":40.703,"amap_marker_url":"https://uri.amap.com/marker?position=113.023989,28.112954&name=%E7%BE%8E%E8%BE%B0%E5%AE%A0%E7%89%A9%E5%8C%BB%E9%99%A2&src=vetmap&coordinate=gaode&callnative=1"},{"name":"湘贝宠物医院","address":"中意一路255号","phone":"13272054408","category":"医疗保健服务;动物医疗场所;宠物诊所","area":"","lng":113.01152,"lat":28.116373,"amap_id":"B0HG2Z1LIS","order":50,"prev_distance_km":1.281,"cumulative_distance_km":41.984,"amap_marker_url":"https://uri.amap.com/marker?position=113.011520,28.116373&name=%E6%B9%98%E8%B4%9D%E5%AE%A0%E7%89%A9%E5%8C%BB%E9%99%A2&src=vetmap&coordinate=gaode&callnative=1"},{"name":"唯爱宠物诊疗中心(德思勤分院)","address":"德思勤创业大街A8栋1楼(小吃街蜜雪冰城楼上)","phone":"19373187588","category":"医疗保健服务;动物医疗场所;宠物诊所","area":"","lng":113.009222,"lat":28.112481,"amap_id":"B0KUPLKKRM","order":51,"prev_distance_km":0.488,"cumulative_distance_km":42.472,"amap_marker_url":"https://uri.amap.com/marker?position=113.009222,28.112481&name=%E5%94%AF%E7%88%B1%E5%AE%A0%E7%89%A9%E8%AF%8A%E7%96%97%E4%B8%AD%E5%BF%83%28%E5%BE%B7%E6%80%9D%E5%8B%A4%E5%88%86%E9%99%A2%29&src=vetmap&coordinate=gaode&callnative=1"},{"name":"吾爱吾宠宠物美容","address":"万芙北路奥林匹克花园f座","phone":"18273785308","category":"医疗保健服务;动物医疗场所;宠物诊所","area":"","lng":113.00123,"lat":28.10793,"amap_id":"B0LKHSQ44G","order":52,"prev_distance_km":0.933,"cumulative_distance_km":43.405,"amap_marker_url":"https://uri.amap.com/marker?position=113.001230,28.107930&name=%E5%90%BE%E7%88%B1%E5%90%BE%E5%AE%A0%E5%AE%A0%E7%89%A9%E7%BE%8E%E5%AE%B9&src=vetmap&coordinate=gaode&callnative=1"},{"name":"怡宠康宠物医院","address":"杉木冲路12号奥林匹克花园H栋235门面","phone":"0731-85560889;17375891028","category":"医疗保健服务;动物医疗场所;宠物诊所","area":"","lng":113.000928,"lat":28.107165,"amap_id":"B0HK9Z132Q","order":53,"prev_distance_km":0.09,"cumulative_distance_km":43.495,"amap_marker_url":"https://uri.amap.com/marker?position=113.000928,28.107165&name=%E6%80%A1%E5%AE%A0%E5%BA%B7%E5%AE%A0%E7%89%A9%E5%8C%BB%E9%99%A2&src=vetmap&coordinate=gaode&callnative=1"},{"name":"恒心宠物医院","address":"奥林匹克花园西侧108号商铺五凌路617号","phone":"18670772018","category":"医疗保健服务;动物医疗场所;宠物诊所","area":"","lng":112.996869,"lat":28.108808,"amap_id":"B0FFJUXL7C","order":54,"prev_distance_km":0.438,"cumulative_distance_km":43.933,"amap_marker_url":"https://uri.amap.com/marker?position=112.996869,28.108808&name=%E6%81%92%E5%BF%83%E5%AE%A0%E7%89%A9%E5%8C%BB%E9%99%A2&src=vetmap&coordinate=gaode&callnative=1"},{"name":"瑞鹏宠物医院(万芙中路分院)","address":"时代阳光大道西369号融程领秀佳园第一幢104号","phone":"0731-85315768","category":"医疗保健服务;动物医疗场所;宠物诊所","area":"","lng":113.001199,"lat":28.099657,"amap_id":"B0FFJ5BQEH","order":55,"prev_distance_km":1.103,"cumulative_distance_km":45.036,"amap_marker_url":"https://uri.amap.com/marker?position=113.001199,28.099657&name=%E7%91%9E%E9%B9%8F%E5%AE%A0%E7%89%A9%E5%8C%BB%E9%99%A2%28%E4%B8%87%E8%8A%99%E4%B8%AD%E8%B7%AF%E5%88%86%E9%99%A2%29&src=vetmap&coordinate=gaode&callnative=1"},{"name":"宠胖胖宠物医院(才子嘉都店)","address":"时代阳光大道377号才子嘉都3期","phone":"","category":"医疗保健服务;动物医疗场所;宠物诊所","area":"","lng":113.003476,"lat":28.098885,"amap_id":"B0KAXB4SE2","order":56,"prev_distance_km":0.239,"cumulative_distance_km":45.275,"amap_marker_url":"https://uri.amap.com/marker?position=113.003476,28.098885&name=%E5%AE%A0%E8%83%96%E8%83%96%E5%AE%A0%E7%89%A9%E5%8C%BB%E9%99%A2%28%E6%89%8D%E5%AD%90%E5%98%89%E9%83%BD%E5%BA%97%29&src=vetmap&coordinate=gaode&callnative=1"},{"name":"宠奇妙宠物医院","address":"洞井街道高升路465号才子嘉都15栋101","phone":"18173106968","category":"医疗保健服务;动物医疗场所;宠物诊所","area":"","lng":113.003525,"lat":28.098875,"amap_id":"B0KALLHZTC","order":57,"prev_distance_km":0.005,"cumulative_distance_km":45.28,"amap_marker_url":"https://uri.amap.com/marker?position=113.003525,28.098875&name=%E5%AE%A0%E5%A5%87%E5%A6%99%E5%AE%A0%E7%89%A9%E5%8C%BB%E9%99%A2&src=vetmap&coordinate=gaode&callnative=1"},{"name":"老杨波波宠物医院(鄱阳店)","address":"汇金路199号鄱阳丰园城丰畅苑5栋","phone":"18974809889;18975770507","category":"医疗保健服务;动物医疗场所;宠物诊所","area":"","lng":113.016223,"lat":28.082963,"amap_id":"B0FFG9X3FA","order":58,"prev_distance_km":2.164,"cumulative_distance_km":47.444,"amap_marker_url":"https://uri.amap.com/marker?position=113.016223,28.082963&name=%E8%80%81%E6%9D%A8%E6%B3%A2%E6%B3%A2%E5%AE%A0%E7%89%A9%E5%8C%BB%E9%99%A2%28%E9%84%B1%E9%98%B3%E5%BA%97%29&src=vetmap&coordinate=gaode&callnative=1"},{"name":"长沙雨花谭聪中医诊所","address":"同升街道汇金路777号汇金城2期5栋-1层-111号","phone":"13875875120","category":"医疗保健服务;动物医疗场所;宠物诊所","area":"","lng":113.019425,"lat":28.077175,"amap_id":"B0I3SAVUAS","order":59,"prev_distance_km":0.716,"cumulative_distance_km":48.16,"amap_marker_url":"https://uri.amap.com/marker?position=113.019425,28.077175&name=%E9%95%BF%E6%B2%99%E9%9B%A8%E8%8A%B1%E8%B0%AD%E8%81%AA%E4%B8%AD%E5%8C%BB%E8%AF%8A%E6%89%80&src=vetmap&coordinate=gaode&callnative=1"},{"name":"昌泽宠物医院(汇金城店)","address":"同升街道汇金路777号嘉华城二期6栋-116","phone":"19976964266","category":"医疗保健服务;动物医疗场所;宠物诊所","area":"","lng":113.019993,"lat":28.077161,"amap_id":"B0HRKDA8PZ","order":60,"prev_distance_km":0.056,"cumulative_distance_km":48.216,"amap_marker_url":"https://uri.amap.com/marker?position=113.019993,28.077161&name=%E6%98%8C%E6%B3%BD%E5%AE%A0%E7%89%A9%E5%8C%BB%E9%99%A2%28%E6%B1%87%E9%87%91%E5%9F%8E%E5%BA%97%29&src=vetmap&coordinate=gaode&callnative=1"},{"name":"周周宠物医院","address":"桃花塅路608号卓越蔚蓝城邦苑3幢102室","phone":"0731-85260852;19976979565","category":"医疗保健服务;动物医疗场所;宠物诊所","area":"","lng":113.027776,"lat":28.090924,"amap_id":"B0FFIS66OS","order":61,"prev_distance_km":1.71,"cumulative_distance_km":49.926,"amap_marker_url":"https://uri.amap.com/marker?position=113.027776,28.090924&name=%E5%91%A8%E5%91%A8%E5%AE%A0%E7%89%A9%E5%8C%BB%E9%99%A2&src=vetmap&coordinate=gaode&callnative=1"},{"name":"九月宠物诊所","address":"同升街道芙佳花园黄谷路441号","phone":"18975860101","category":"医疗保健服务;动物医疗场所;宠物诊所","area":"","lng":113.037806,"lat":28.082009,"amap_id":"B0H1DDNKYP","order":62,"prev_distance_km":1.397,"cumulative_distance_km":51.323,"amap_marker_url":"https://uri.amap.com/marker?position=113.037806,28.082009&name=%E4%B9%9D%E6%9C%88%E5%AE%A0%E7%89%A9%E8%AF%8A%E6%89%80&src=vetmap&coordinate=gaode&callnative=1"},{"name":"美辰宠物医院时代(阳光分院)","address":"时代阳光大道恒大城19栋102商铺","phone":"19918833422","category":"医疗保健服务;动物医疗场所;宠物诊所","area":"","lng":113.044283,"lat":28.095353,"amap_id":"B0G0OZV335","order":63,"prev_distance_km":1.614,"cumulative_distance_km":52.937,"amap_marker_url":"https://uri.amap.com/marker?position=113.044283,28.095353&name=%E7%BE%8E%E8%BE%B0%E5%AE%A0%E7%89%A9%E5%8C%BB%E9%99%A2%E6%97%B6%E4%BB%A3%28%E9%98%B3%E5%85%89%E5%88%86%E9%99%A2%29&src=vetmap&coordinate=gaode&callnative=1"},{"name":"瑞鹏宠物医院(阳光大道分院)","address":"时代阳光大道459号宏聚地中海御园2栋108房","phone":"0731-85950638","category":"医疗保健服务;动物医疗场所;宠物诊所","area":"","lng":113.044426,"lat":28.096441,"amap_id":"B0HDUMGHSS","order":64,"prev_distance_km":0.122,"cumulative_distance_km":53.058,"amap_marker_url":"https://uri.amap.com/marker?position=113.044426,28.096441&name=%E7%91%9E%E9%B9%8F%E5%AE%A0%E7%89%A9%E5%8C%BB%E9%99%A2%28%E9%98%B3%E5%85%89%E5%A4%A7%E9%81%93%E5%88%86%E9%99%A2%29&src=vetmap&coordinate=gaode&callnative=1"},{"name":"拜迪宠物连锁","address":"同升街道时代阳光大道中建嘉和城南城首府西80米","phone":"","category":"医疗保健服务;动物医疗场所;宠物诊所","area":"","lng":113.052002,"lat":28.093043,"amap_id":"B0LGOD6VH0","order":65,"prev_distance_km":0.834,"cumulative_distance_km":53.892,"amap_marker_url":"https://uri.amap.com/marker?position=113.052002,28.093043&name=%E6%8B%9C%E8%BF%AA%E5%AE%A0%E7%89%A9%E8%BF%9E%E9%94%81&src=vetmap&coordinate=gaode&callnative=1"},{"name":"拜迪宠物医院24H(南城首府店)","address":"同升街道时代阳光大道513号东宸林海66栋N单元-1层-102","phone":"18807421563","category":"医疗保健服务;动物医疗场所;宠物诊所","area":"","lng":113.054344,"lat":28.09396,"amap_id":"B0GDHMYN0K","order":66,"prev_distance_km":0.251,"cumulative_distance_km":54.144,"amap_marker_url":"https://uri.amap.com/marker?position=113.054344,28.093960&name=%E6%8B%9C%E8%BF%AA%E5%AE%A0%E7%89%A9%E5%8C%BB%E9%99%A224H%28%E5%8D%97%E5%9F%8E%E9%A6%96%E5%BA%9C%E5%BA%97%29&src=vetmap&coordinate=gaode&callnative=1"},{"name":"拜迪宠物(萌宠直售店)","address":"同升街道时代阳光大道513号-1号碧挂园小区66栋-104","phone":"18807421563","category":"医疗保健服务;动物医疗场所;宠物诊所","area":"","lng":113.054529,"lat":28.093922,"amap_id":"B0J6MGE6KF","order":67,"prev_distance_km":0.019,"cumulative_distance_km":54.162,"amap_marker_url":"https://uri.amap.com/marker?position=113.054529,28.093922&name=%E6%8B%9C%E8%BF%AA%E5%AE%A0%E7%89%A9%28%E8%90%8C%E5%AE%A0%E7%9B%B4%E5%94%AE%E5%BA%97%29&src=vetmap&coordinate=gaode&callnative=1"},{"name":"湖南省野生动物救护繁殖中心","address":"万家丽中路湖南省植物园内(东侧)","phone":"","category":"医疗保健服务;动物医疗场所;宠物诊所","area":"","lng":113.037876,"lat":28.102189,"amap_id":"B0HKL7VTGT","order":68,"prev_distance_km":1.874,"cumulative_distance_km":56.037,"amap_marker_url":"https://uri.amap.com/marker?position=113.037876,28.102189&name=%E6%B9%96%E5%8D%97%E7%9C%81%E9%87%8E%E7%94%9F%E5%8A%A8%E7%89%A9%E6%95%91%E6%8A%A4%E7%B9%81%E6%AE%96%E4%B8%AD%E5%BF%83&src=vetmap&coordinate=gaode&callnative=1"},{"name":"瑞辰宠物诊所","address":"洞井街道万家丽中路三段华银天际小区二区B2栋101号","phone":"13874949481","category":"医疗保健服务;动物医疗场所;宠物诊所","area":"","lng":113.041745,"lat":28.110114,"amap_id":"B0JUFHSL1V","order":69,"prev_distance_km":0.959,"cumulative_distance_km":56.996,"amap_marker_url":"https://uri.amap.com/marker?position=113.041745,28.110114&name=%E7%91%9E%E8%BE%B0%E5%AE%A0%E7%89%A9%E8%AF%8A%E6%89%80&src=vetmap&coordinate=gaode&callnative=1"},{"name":"蒲公英动物医院牙科异宠专科(井湾子中建桂苑店)","address":"井湾路485号","phone":"0731-89742881","category":"医疗保健服务;动物医疗场所;宠物诊所","area":"","lng":113.015493,"lat":28.126081,"amap_id":"B02DB0Z2FF","order":70,"prev_distance_km":3.127,"cumulative_distance_km":60.123,"amap_marker_url":"https://uri.amap.com/marker?position=113.015493,28.126081&name=%E8%92%B2%E5%85%AC%E8%8B%B1%E5%8A%A8%E7%89%A9%E5%8C%BB%E9%99%A2%E7%89%99%E7%A7%91%E5%BC%82%E5%AE%A0%E4%B8%93%E7%A7%91%28%E4%BA%95%E6%B9%BE%E5%AD%90%E4%B8%AD%E5%BB%BA%E6%A1%82%E8%8B%91%E5%BA%97%29&src=vetmap&coordinate=gaode&callnative=1"},{"name":"莱维士宠物酒店(长沙店)","address":"井湾子街道全家园后别墅区19栋","phone":"19898884634;19898889474","category":"医疗保健服务;动物医疗场所;动物医疗场所","area":"","lng":113.010084,"lat":28.121566,"amap_id":"B0L2B5JQS0","order":71,"prev_distance_km":0.73,"cumulative_distance_km":60.854,"amap_marker_url":"https://uri.amap.com/marker?position=113.010084,28.121566&name=%E8%8E%B1%E7%BB%B4%E5%A3%AB%E5%AE%A0%E7%89%A9%E9%85%92%E5%BA%97%28%E9%95%BF%E6%B2%99%E5%BA%97%29&src=vetmap&coordinate=gaode&callnative=1"},{"name":"暖生宠医","address":"韶山路与友谊路交叉口东北100米","phone":"","category":"医疗保健服务;动物医疗场所;宠物诊所","area":"","lng":113.005975,"lat":28.125875,"amap_id":"B0M6XCT5TJ","order":72,"prev_distance_km":0.626,"cumulative_distance_km":61.48,"amap_marker_url":"https://uri.amap.com/marker?position=113.005975,28.125875&name=%E6%9A%96%E7%94%9F%E5%AE%A0%E5%8C%BB&src=vetmap&coordinate=gaode&callnative=1"},{"name":"波波宠物医院犬猫专科(香樟路店)","address":"香樟路56号三湘小区1栋1号","phone":"0731-85134765;13027486432","category":"医疗保健服务;动物医疗场所;宠物诊所","area":"雨花亭","lng":113.003915,"lat":28.135966,"amap_id":"B0HAOSJ3GN","order":73,"prev_distance_km":1.14,"cumulative_distance_km":62.62,"amap_marker_url":"https://uri.amap.com/marker?position=113.003915,28.135966&name=%E6%B3%A2%E6%B3%A2%E5%AE%A0%E7%89%A9%E5%8C%BB%E9%99%A2%E7%8A%AC%E7%8C%AB%E4%B8%93%E7%A7%91%28%E9%A6%99%E6%A8%9F%E8%B7%AF%E5%BA%97%29&src=vetmap&coordinate=gaode&callnative=1"},{"name":"长沙市中心医院-24小时动物咬伤门诊","address":"韶山南路161号A区303","phone":"0731-85667936","category":"医疗保健服务;动物医疗场所;宠物诊所","area":"雨花亭","lng":112.997565,"lat":28.141806,"amap_id":"B0L1SSPXO2","order":74,"prev_distance_km":0.9,"cumulative_distance_km":63.52,"amap_marker_url":"https://uri.amap.com/marker?position=112.997565,28.141806&name=%E9%95%BF%E6%B2%99%E5%B8%82%E4%B8%AD%E5%BF%83%E5%8C%BB%E9%99%A2-24%E5%B0%8F%E6%97%B6%E5%8A%A8%E7%89%A9%E5%92%AC%E4%BC%A4%E9%97%A8%E8%AF%8A&src=vetmap&coordinate=gaode&callnative=1"},{"name":"维派宠物医院","address":"香樟路473号","phone":"15674822250;19067115835","category":"医疗保健服务;动物医疗场所;宠物诊所","area":"雨花亭","lng":113.015941,"lat":28.136471,"amap_id":"B0LU4DUOVU","order":75,"prev_distance_km":1.897,"cumulative_distance_km":65.417,"amap_marker_url":"https://uri.amap.com/marker?position=113.015941,28.136471&name=%E7%BB%B4%E6%B4%BE%E5%AE%A0%E7%89%A9%E5%8C%BB%E9%99%A2&src=vetmap&coordinate=gaode&callnative=1"}]}