{"summary":{"id":"d01594","province":"湖南省","city":"长沙市","district":"芙蓉区","count":28,"total_distance_km":19.999,"coordinate_system":"GCJ-02 / Amap","generated_at":"2026-05-07 20:24:01"},"rows":[{"name":"长沙宠颐生中心宠物医院·24h·CT核磁·急重症","address":"芙蓉中路一段540号(湖南国贸金融中心维也纳酒店旁)","phone":"0731-85632120","category":"医疗保健服务;动物医疗场所;宠物诊所","area":"五一广场","lng":112.9845,"lat":28.19693,"amap_id":"B0FFIYXUKT","order":1,"prev_distance_km":0.0,"cumulative_distance_km":0.0,"amap_marker_url":"https://uri.amap.com/marker?position=112.984500,28.196930&name=%E9%95%BF%E6%B2%99%E5%AE%A0%E9%A2%90%E7%94%9F%E4%B8%AD%E5%BF%83%E5%AE%A0%E7%89%A9%E5%8C%BB%E9%99%A2%C2%B724h%C2%B7CT%E6%A0%B8%E7%A3%81%C2%B7%E6%80%A5%E9%87%8D%E7%97%87&src=vetmap&coordinate=gaode&callnative=1"},{"name":"挚爱宠物诊所","address":"人民西路369号","phone":"15973122247","category":"医疗保健服务;动物医疗场所;宠物诊所","area":"","lng":112.981006,"lat":28.188138,"amap_id":"B02DB07R0I","order":2,"prev_distance_km":1.036,"cumulative_distance_km":1.036,"amap_marker_url":"https://uri.amap.com/marker?position=112.981006,28.188138&name=%E6%8C%9A%E7%88%B1%E5%AE%A0%E7%89%A9%E8%AF%8A%E6%89%80&src=vetmap&coordinate=gaode&callnative=1"},{"name":"长沙市动物咬伤治疗中心","address":"长沙市传染病医院西北门旁","phone":"","category":"医疗保健服务;动物医疗场所;宠物诊所","area":"识字岭","lng":112.988917,"lat":28.18835,"amap_id":"B0J2XRTDUG","order":3,"prev_distance_km":0.776,"cumulative_distance_km":1.812,"amap_marker_url":"https://uri.amap.com/marker?position=112.988917,28.188350&name=%E9%95%BF%E6%B2%99%E5%B8%82%E5%8A%A8%E7%89%A9%E5%92%AC%E4%BC%A4%E6%B2%BB%E7%96%97%E4%B8%AD%E5%BF%83&src=vetmap&coordinate=gaode&callnative=1"},{"name":"长沙市第一医院(南院)-动物致伤防治中心","address":"陈家巷与水絮塘巷交叉口南120米","phone":"","category":"医疗保健服务;动物医疗场所;动物医疗场所","area":"识字岭","lng":112.989472,"lat":28.187558,"amap_id":"B0KDULFO2L","order":4,"prev_distance_km":0.104,"cumulative_distance_km":1.915,"amap_marker_url":"https://uri.amap.com/marker?position=112.989472,28.187558&name=%E9%95%BF%E6%B2%99%E5%B8%82%E7%AC%AC%E4%B8%80%E5%8C%BB%E9%99%A2%28%E5%8D%97%E9%99%A2%29-%E5%8A%A8%E7%89%A9%E8%87%B4%E4%BC%A4%E9%98%B2%E6%B2%BB%E4%B8%AD%E5%BF%83&src=vetmap&coordinate=gaode&callnative=1"},{"name":"瑞鹏宠物医院(爱乐康分院)","address":"人民中路489号通发大厦","phone":"0731-84866081","category":"医疗保健服务;动物医疗场所;宠物诊所","area":"曙光路","lng":113.005983,"lat":28.185404,"amap_id":"B0I0FCL60C","order":5,"prev_distance_km":1.636,"cumulative_distance_km":3.551,"amap_marker_url":"https://uri.amap.com/marker?position=113.005983,28.185404&name=%E7%91%9E%E9%B9%8F%E5%AE%A0%E7%89%A9%E5%8C%BB%E9%99%A2%28%E7%88%B1%E4%B9%90%E5%BA%B7%E5%88%86%E9%99%A2%29&src=vetmap&coordinate=gaode&callnative=1"},{"name":"贝贝康24小时宠物医院·宠保定点(人民路院区)","address":"人民中路通发大厦1层","phone":"15616889953","category":"医疗保健服务;动物医疗场所;宠物诊所","area":"人民中路","lng":113.006028,"lat":28.185364,"amap_id":"B0FFF54SAV","order":6,"prev_distance_km":0.006,"cumulative_distance_km":3.557,"amap_marker_url":"https://uri.amap.com/marker?position=113.006028,28.185364&name=%E8%B4%9D%E8%B4%9D%E5%BA%B724%E5%B0%8F%E6%97%B6%E5%AE%A0%E7%89%A9%E5%8C%BB%E9%99%A2%C2%B7%E5%AE%A0%E4%BF%9D%E5%AE%9A%E7%82%B9%28%E4%BA%BA%E6%B0%91%E8%B7%AF%E9%99%A2%E5%8C%BA%29&src=vetmap&coordinate=gaode&callnative=1"},{"name":"泰康宠物医院","address":"东二环一段1006号建设银行南边","phone":"0731-85861318;13786130897","category":"医疗保健服务;动物医疗场所;宠物诊所","area":"荷花园","lng":113.018929,"lat":28.190433,"amap_id":"B0FFGE55NK","order":7,"prev_distance_km":1.384,"cumulative_distance_km":4.942,"amap_marker_url":"https://uri.amap.com/marker?position=113.018929,28.190433&name=%E6%B3%B0%E5%BA%B7%E5%AE%A0%E7%89%A9%E5%8C%BB%E9%99%A2&src=vetmap&coordinate=gaode&callnative=1"},{"name":"瑞派伍一宠物医院·眼科转诊中心·免疫点(马王堆院)","address":"荷花园街道马王堆中路108号燊旺商厦栋101房","phone":"0731-89602255;18008458867","category":"医疗保健服务;动物医疗场所;宠物诊所","area":"荷花园","lng":113.025188,"lat":28.191292,"amap_id":"B0FFHK23FG","order":8,"prev_distance_km":0.621,"cumulative_distance_km":5.562,"amap_marker_url":"https://uri.amap.com/marker?position=113.025188,28.191292&name=%E7%91%9E%E6%B4%BE%E4%BC%8D%E4%B8%80%E5%AE%A0%E7%89%A9%E5%8C%BB%E9%99%A2%C2%B7%E7%9C%BC%E7%A7%91%E8%BD%AC%E8%AF%8A%E4%B8%AD%E5%BF%83%C2%B7%E5%85%8D%E7%96%AB%E7%82%B9%28%E9%A9%AC%E7%8E%8B%E5%A0%86%E9%99%A2%29&src=vetmap&coordinate=gaode&callnative=1"},{"name":"刘医生动物诊所(大有商住楼店)","address":"火星街道紫薇路1号栋103","phone":"13975806314","category":"医疗保健服务;动物医疗场所;宠物诊所","area":"火星","lng":113.022972,"lat":28.199981,"amap_id":"B0FFJHVTLK","order":9,"prev_distance_km":0.99,"cumulative_distance_km":6.553,"amap_marker_url":"https://uri.amap.com/marker?position=113.022972,28.199981&name=%E5%88%98%E5%8C%BB%E7%94%9F%E5%8A%A8%E7%89%A9%E8%AF%8A%E6%89%80%28%E5%A4%A7%E6%9C%89%E5%95%86%E4%BD%8F%E6%A5%BC%E5%BA%97%29&src=vetmap&coordinate=gaode&callnative=1"},{"name":"慈爱宠物医院","address":"晚报大道93号(烈士公园东地铁站1号口步行170米)","phone":"13974362708","category":"医疗保健服务;动物医疗场所;宠物诊所","area":"湘湖","lng":113.010761,"lat":28.207857,"amap_id":"B0I6955PD2","order":10,"prev_distance_km":1.483,"cumulative_distance_km":8.035,"amap_marker_url":"https://uri.amap.com/marker?position=113.010761,28.207857&name=%E6%85%88%E7%88%B1%E5%AE%A0%E7%89%A9%E5%8C%BB%E9%99%A2&src=vetmap&coordinate=gaode&callnative=1"},{"name":"贝贝康24小时宠物医院·宠保定点(火炬路院区)","address":"火炬西路1号(加油站对面)","phone":"13187035032","category":"医疗保健服务;动物医疗场所;宠物诊所","area":"湘湖","lng":113.011981,"lat":28.212069,"amap_id":"B02DB0XFL1","order":11,"prev_distance_km":0.483,"cumulative_distance_km":8.519,"amap_marker_url":"https://uri.amap.com/marker?position=113.011981,28.212069&name=%E8%B4%9D%E8%B4%9D%E5%BA%B724%E5%B0%8F%E6%97%B6%E5%AE%A0%E7%89%A9%E5%8C%BB%E9%99%A2%C2%B7%E5%AE%A0%E4%BF%9D%E5%AE%9A%E7%82%B9%28%E7%81%AB%E7%82%AC%E8%B7%AF%E9%99%A2%E5%8C%BA%29&src=vetmap&coordinate=gaode&callnative=1"},{"name":"仁宠和宠物医院","address":"湘湖街道三湘南湖大市场建材城仓储区花鸟市场栋66-67号门面","phone":"0731-84533110;19119284109","category":"医疗保健服务;动物医疗场所;宠物诊所","area":"湘湖","lng":113.012434,"lat":28.212879,"amap_id":"B0GR9MPT59","order":12,"prev_distance_km":0.1,"cumulative_distance_km":8.619,"amap_marker_url":"https://uri.amap.com/marker?position=113.012434,28.212879&name=%E4%BB%81%E5%AE%A0%E5%92%8C%E5%AE%A0%E7%89%A9%E5%8C%BB%E9%99%A2&src=vetmap&coordinate=gaode&callnative=1"},{"name":"天天乐宠物用品批发部(滨湖巷店)","address":"南湖花鸟宠物大市场78-79号","phone":"13787282812;15673195679","category":"医疗保健服务;动物医疗场所;宠物诊所","area":"湘湖","lng":113.012496,"lat":28.21285,"amap_id":"B0FFG7KAZR","order":13,"prev_distance_km":0.007,"cumulative_distance_km":8.626,"amap_marker_url":"https://uri.amap.com/marker?position=113.012496,28.212850&name=%E5%A4%A9%E5%A4%A9%E4%B9%90%E5%AE%A0%E7%89%A9%E7%94%A8%E5%93%81%E6%89%B9%E5%8F%91%E9%83%A8%28%E6%BB%A8%E6%B9%96%E5%B7%B7%E5%BA%97%29&src=vetmap&coordinate=gaode&callnative=1"},{"name":"帮妮宠物医院·心脏专科·犬猫全科","address":"三湘大市场建材城仓储花鸟区92-94号门面","phone":"0731-82567120","category":"医疗保健服务;动物医疗场所;宠物诊所","area":"湘湖","lng":113.01298,"lat":28.212485,"amap_id":"B0FFFE1YO0","order":14,"prev_distance_km":0.062,"cumulative_distance_km":8.689,"amap_marker_url":"https://uri.amap.com/marker?position=113.012980,28.212485&name=%E5%B8%AE%E5%A6%AE%E5%AE%A0%E7%89%A9%E5%8C%BB%E9%99%A2%C2%B7%E5%BF%83%E8%84%8F%E4%B8%93%E7%A7%91%C2%B7%E7%8A%AC%E7%8C%AB%E5%85%A8%E7%A7%91&src=vetmap&coordinate=gaode&callnative=1"},{"name":"长沙恒佳宠物医院(犬猫专科医院)","address":"火星街道晚报大道276号崇文阁小区101门面","phone":"13755166215","category":"医疗保健服务;动物医疗场所;宠物诊所","area":"火星","lng":113.021987,"lat":28.208295,"amap_id":"B0IKPZYKOY","order":15,"prev_distance_km":0.998,"cumulative_distance_km":9.687,"amap_marker_url":"https://uri.amap.com/marker?position=113.021987,28.208295&name=%E9%95%BF%E6%B2%99%E6%81%92%E4%BD%B3%E5%AE%A0%E7%89%A9%E5%8C%BB%E9%99%A2%28%E7%8A%AC%E7%8C%AB%E4%B8%93%E7%A7%91%E5%8C%BB%E9%99%A2%29&src=vetmap&coordinate=gaode&callnative=1"},{"name":"熙玛至臻动物医院(晚报大道店)","address":"马王堆街道万家丽北路三段439号浏阳河畔家园2栋108.","phone":"13974235656;19375122325","category":"医疗保健服务;动物医疗场所;宠物诊所","area":"","lng":113.032079,"lat":28.208575,"amap_id":"B0JDBZE9OY","order":16,"prev_distance_km":0.989,"cumulative_distance_km":10.676,"amap_marker_url":"https://uri.amap.com/marker?position=113.032079,28.208575&name=%E7%86%99%E7%8E%9B%E8%87%B3%E8%87%BB%E5%8A%A8%E7%89%A9%E5%8C%BB%E9%99%A2%28%E6%99%9A%E6%8A%A5%E5%A4%A7%E9%81%93%E5%BA%97%29&src=vetmap&coordinate=gaode&callnative=1"},{"name":"百瑞动物医院(眼科·骨外科)","address":"万科金域蓝湾15栋06号德乙茶庄旁边","phone":"13787228860","category":"医疗保健服务;动物医疗场所;宠物诊所","area":"","lng":113.035826,"lat":28.211912,"amap_id":"B0JBGAE7DZ","order":17,"prev_distance_km":0.522,"cumulative_distance_km":11.198,"amap_marker_url":"https://uri.amap.com/marker?position=113.035826,28.211912&name=%E7%99%BE%E7%91%9E%E5%8A%A8%E7%89%A9%E5%8C%BB%E9%99%A2%28%E7%9C%BC%E7%A7%91%C2%B7%E9%AA%A8%E5%A4%96%E7%A7%91%29&src=vetmap&coordinate=gaode&callnative=1"},{"name":"有家宠物医院·24h心脏科·牙科·急重症(河东总院)","address":"马王堆街道晚报大道569号万科金域蓝湾小区S4栋S5栋S6栋117-118号","phone":"17752866000","category":"医疗保健服务;动物医疗场所;宠物诊所","area":"","lng":113.035675,"lat":28.209718,"amap_id":"B0HD2ZBW5T","order":18,"prev_distance_km":0.244,"cumulative_distance_km":11.442,"amap_marker_url":"https://uri.amap.com/marker?position=113.035675,28.209718&name=%E6%9C%89%E5%AE%B6%E5%AE%A0%E7%89%A9%E5%8C%BB%E9%99%A2%C2%B724h%E5%BF%83%E8%84%8F%E7%A7%91%C2%B7%E7%89%99%E7%A7%91%C2%B7%E6%80%A5%E9%87%8D%E7%97%87%28%E6%B2%B3%E4%B8%9C%E6%80%BB%E9%99%A2%29&src=vetmap&coordinate=gaode&callnative=1"},{"name":"老夏宠物诊疗中心","address":"古曲路与塘湾子路交叉口东南40米","phone":"18075179994","category":"医疗保健服务;动物医疗场所;宠物诊所","area":"远大路","lng":113.0394,"lat":28.20031,"amap_id":"B0IK0RVZLW","order":19,"prev_distance_km":1.108,"cumulative_distance_km":12.55,"amap_marker_url":"https://uri.amap.com/marker?position=113.039400,28.200310&name=%E8%80%81%E5%A4%8F%E5%AE%A0%E7%89%A9%E8%AF%8A%E7%96%97%E4%B8%AD%E5%BF%83&src=vetmap&coordinate=gaode&callnative=1"},{"name":"怡心宠物医院·夜诊·急重症","address":"古曲路849号","phone":"17700591661","category":"医疗保健服务;动物医疗场所;宠物诊所","area":"东屯渡","lng":113.039202,"lat":28.189848,"amap_id":"B0GD1HNX0Q","order":20,"prev_distance_km":1.163,"cumulative_distance_km":13.714,"amap_marker_url":"https://uri.amap.com/marker?position=113.039202,28.189848&name=%E6%80%A1%E5%BF%83%E5%AE%A0%E7%89%A9%E5%8C%BB%E9%99%A2%C2%B7%E5%A4%9C%E8%AF%8A%C2%B7%E6%80%A5%E9%87%8D%E7%97%87&src=vetmap&coordinate=gaode&callnative=1"},{"name":"瑞鹏宠物医院(扬帆分院)","address":"东屯渡街道古曲中路888号芙蓉上河图新寓1002","phone":"0731-85161181;17749688012","category":"医疗保健服务;动物医疗场所;宠物诊所","area":"东屯渡","lng":113.039167,"lat":28.189605,"amap_id":"B0G3ZGPIF1","order":21,"prev_distance_km":0.027,"cumulative_distance_km":13.741,"amap_marker_url":"https://uri.amap.com/marker?position=113.039167,28.189605&name=%E7%91%9E%E9%B9%8F%E5%AE%A0%E7%89%A9%E5%8C%BB%E9%99%A2%28%E6%89%AC%E5%B8%86%E5%88%86%E9%99%A2%29&src=vetmap&coordinate=gaode&callnative=1"},{"name":"河马动物医院24H(犬猫全科·骨科·眼科)","address":"桐西路295号","phone":"18674889504","category":"医疗保健服务;动物医疗场所;宠物诊所","area":"","lng":113.052849,"lat":28.206517,"amap_id":"B0LUTZ5EOJ","order":22,"prev_distance_km":2.31,"cumulative_distance_km":16.051,"amap_marker_url":"https://uri.amap.com/marker?position=113.052849,28.206517&name=%E6%B2%B3%E9%A9%AC%E5%8A%A8%E7%89%A9%E5%8C%BB%E9%99%A224H%28%E7%8A%AC%E7%8C%AB%E5%85%A8%E7%A7%91%C2%B7%E9%AA%A8%E7%A7%91%C2%B7%E7%9C%BC%E7%A7%91%29&src=vetmap&coordinate=gaode&callnative=1"},{"name":"伴侣宠物会所","address":"芙蓉万国城MOMA小区三期北门西80米","phone":"","category":"购物服务;专卖店;宠物用品店|医疗保健服务;动物医疗场所;动物医疗场所","area":"","lng":113.053325,"lat":28.206525,"amap_id":"B0LD1RL4YQ","order":23,"prev_distance_km":0.047,"cumulative_distance_km":16.097,"amap_marker_url":"https://uri.amap.com/marker?position=113.053325,28.206525&name=%E4%BC%B4%E4%BE%A3%E5%AE%A0%E7%89%A9%E4%BC%9A%E6%89%80&src=vetmap&coordinate=gaode&callnative=1"},{"name":"睿康宠物诊所(东岸锦城店)","address":"双杨路芙蓉万国城1期商业门面103号","phone":"15367967859;15973157260","category":"医疗保健服务;动物医疗场所;宠物诊所","area":"","lng":113.055768,"lat":28.203005,"amap_id":"B0G0P5DZLW","order":24,"prev_distance_km":0.459,"cumulative_distance_km":16.556,"amap_marker_url":"https://uri.amap.com/marker?position=113.055768,28.203005&name=%E7%9D%BF%E5%BA%B7%E5%AE%A0%E7%89%A9%E8%AF%8A%E6%89%80%28%E4%B8%9C%E5%B2%B8%E9%94%A6%E5%9F%8E%E5%BA%97%29&src=vetmap&coordinate=gaode&callnative=1"},{"name":"迅康宠物诊所","address":"东大门市场B1栋02房","phone":"19176675739","category":"医疗保健服务;动物医疗场所;宠物诊所","area":"张公岭","lng":113.060462,"lat":28.199572,"amap_id":"B0MBNCSYTY","order":25,"prev_distance_km":0.598,"cumulative_distance_km":17.154,"amap_marker_url":"https://uri.amap.com/marker?position=113.060462,28.199572&name=%E8%BF%85%E5%BA%B7%E5%AE%A0%E7%89%A9%E8%AF%8A%E6%89%80&src=vetmap&coordinate=gaode&callnative=1"},{"name":"丰旭动保疫苗","address":"远大一路与龟山路交叉口东南140米","phone":"","category":"医疗保健服务;动物医疗场所;动物医疗场所","area":"张公岭","lng":113.061027,"lat":28.199935,"amap_id":"B0K2N77UY6","order":26,"prev_distance_km":0.069,"cumulative_distance_km":17.222,"amap_marker_url":"https://uri.amap.com/marker?position=113.061027,28.199935&name=%E4%B8%B0%E6%97%AD%E5%8A%A8%E4%BF%9D%E7%96%AB%E8%8B%97&src=vetmap&coordinate=gaode&callnative=1"},{"name":"湘农尚宠康桥动物医院(望龙路店)","address":"望龙路中房瑞致1期3-113-114号","phone":"18673180801","category":"医疗保健服务;动物医疗场所;宠物诊所","area":"","lng":113.07316,"lat":28.194446,"amap_id":"B0G12SIU9F","order":27,"prev_distance_km":1.337,"cumulative_distance_km":18.559,"amap_marker_url":"https://uri.amap.com/marker?position=113.073160,28.194446&name=%E6%B9%98%E5%86%9C%E5%B0%9A%E5%AE%A0%E5%BA%B7%E6%A1%A5%E5%8A%A8%E7%89%A9%E5%8C%BB%E9%99%A2%28%E6%9C%9B%E9%BE%99%E8%B7%AF%E5%BA%97%29&src=vetmap&coordinate=gaode&callnative=1"},{"name":"贝斯特动物医院(总院)","address":"农大路1号","phone":"0731-84673710;18508407869","category":"医疗保健服务;动物医疗场所;宠物诊所","area":"","lng":113.08102,"lat":28.183505,"amap_id":"B0FFHT742E","order":28,"prev_distance_km":1.44,"cumulative_distance_km":19.999,"amap_marker_url":"https://uri.amap.com/marker?position=113.081020,28.183505&name=%E8%B4%9D%E6%96%AF%E7%89%B9%E5%8A%A8%E7%89%A9%E5%8C%BB%E9%99%A2%28%E6%80%BB%E9%99%A2%29&src=vetmap&coordinate=gaode&callnative=1"}]}