{"summary":{"id":"d01539","province":"湖南省","city":"湘潭市","district":"湘潭县","count":6,"route_count":1,"max_route_clinics":6,"total_distance_km":28.252,"coordinate_system":"GCJ-02 / Amap","generated_at":"2026-05-07 21:30:20"},"routes":[{"id":"r1","name":"第1段","count":6,"total_distance_km":28.252,"rows":[{"name":"赵辉安兽药店","address":"219省道与南区大道交叉口北20米","phone":"13875274564","category":"医疗保健服务;动物医疗场所;动物医疗场所","area":"","lng":112.719976,"lat":27.755544,"amap_id":"B0FFFZQKNB","order":1,"prev_distance_km":0.0,"cumulative_distance_km":0.0,"amap_marker_url":"https://uri.amap.com/marker?position=112.719976,27.755544&name=%E8%B5%B5%E8%BE%89%E5%AE%89%E5%85%BD%E8%8D%AF%E5%BA%97&src=vetmap&coordinate=gaode&callnative=1","route_id":"r1","route_name":"第1段"},{"name":"创新兽药店","address":"325省道与018县道交叉口西北60米","phone":"13973267982","category":"医疗保健服务;动物医疗场所;动物医疗场所","area":"","lng":112.884487,"lat":27.793112,"amap_id":"B0FFL405U8","order":2,"prev_distance_km":16.716,"cumulative_distance_km":16.716,"amap_marker_url":"https://uri.amap.com/marker?position=112.884487,27.793112&name=%E5%88%9B%E6%96%B0%E5%85%BD%E8%8D%AF%E5%BA%97&src=vetmap&coordinate=gaode&callnative=1","route_id":"r1","route_name":"第1段"},{"name":"禽康兽药","address":"大鹏西路262号","phone":"18975214813","category":"医疗保健服务;动物医疗场所;动物医疗场所","area":"易俗河","lng":112.941023,"lat":27.773756,"amap_id":"B0LRTRAEJT","order":3,"prev_distance_km":5.964,"cumulative_distance_km":22.679,"amap_marker_url":"https://uri.amap.com/marker?position=112.941023,27.773756&name=%E7%A6%BD%E5%BA%B7%E5%85%BD%E8%8D%AF&src=vetmap&coordinate=gaode&callnative=1","route_id":"r1","route_name":"第1段"},{"name":"动物疫病预防控制中心","address":"海棠中路与花果山路交叉口西南120米","phone":"","category":"医疗保健服务;动物医疗场所;动物医疗场所","area":"易俗河","lng":112.957919,"lat":27.77004,"amap_id":"B0KKTMRG87","order":4,"prev_distance_km":1.713,"cumulative_distance_km":24.392,"amap_marker_url":"https://uri.amap.com/marker?position=112.957919,27.770040&name=%E5%8A%A8%E7%89%A9%E7%96%AB%E7%97%85%E9%A2%84%E9%98%B2%E6%8E%A7%E5%88%B6%E4%B8%AD%E5%BF%83&src=vetmap&coordinate=gaode&callnative=1","route_id":"r1","route_name":"第1段"},{"name":"诚品动物医疗中心","address":"金桂北路282号","phone":"17877707257","category":"医疗保健服务;动物医疗场所;宠物诊所","area":"凤凰中路","lng":112.950441,"lat":27.789367,"amap_id":"B0HB2DXJ5S","order":5,"prev_distance_km":2.272,"cumulative_distance_km":26.664,"amap_marker_url":"https://uri.amap.com/marker?position=112.950441,27.789367&name=%E8%AF%9A%E5%93%81%E5%8A%A8%E7%89%A9%E5%8C%BB%E7%96%97%E4%B8%AD%E5%BF%83&src=vetmap&coordinate=gaode&callnative=1","route_id":"r1","route_name":"第1段"},{"name":"安心动物诊所","address":"凤凰东路76号","phone":"0731-57808120;17700220770","category":"医疗保健服务;动物医疗场所;宠物诊所","area":"易俗河","lng":112.966563,"lat":27.790199,"amap_id":"B0FFJHJ3RW","order":6,"prev_distance_km":1.589,"cumulative_distance_km":28.252,"amap_marker_url":"https://uri.amap.com/marker?position=112.966563,27.790199&name=%E5%AE%89%E5%BF%83%E5%8A%A8%E7%89%A9%E8%AF%8A%E6%89%80&src=vetmap&coordinate=gaode&callnative=1","route_id":"r1","route_name":"第1段"}]}],"rows":[{"name":"赵辉安兽药店","address":"219省道与南区大道交叉口北20米","phone":"13875274564","category":"医疗保健服务;动物医疗场所;动物医疗场所","area":"","lng":112.719976,"lat":27.755544,"amap_id":"B0FFFZQKNB","order":1,"prev_distance_km":0.0,"cumulative_distance_km":0.0,"amap_marker_url":"https://uri.amap.com/marker?position=112.719976,27.755544&name=%E8%B5%B5%E8%BE%89%E5%AE%89%E5%85%BD%E8%8D%AF%E5%BA%97&src=vetmap&coordinate=gaode&callnative=1","route_id":"r1","route_name":"第1段","global_order":1},{"name":"创新兽药店","address":"325省道与018县道交叉口西北60米","phone":"13973267982","category":"医疗保健服务;动物医疗场所;动物医疗场所","area":"","lng":112.884487,"lat":27.793112,"amap_id":"B0FFL405U8","order":2,"prev_distance_km":16.716,"cumulative_distance_km":16.716,"amap_marker_url":"https://uri.amap.com/marker?position=112.884487,27.793112&name=%E5%88%9B%E6%96%B0%E5%85%BD%E8%8D%AF%E5%BA%97&src=vetmap&coordinate=gaode&callnative=1","route_id":"r1","route_name":"第1段","global_order":2},{"name":"禽康兽药","address":"大鹏西路262号","phone":"18975214813","category":"医疗保健服务;动物医疗场所;动物医疗场所","area":"易俗河","lng":112.941023,"lat":27.773756,"amap_id":"B0LRTRAEJT","order":3,"prev_distance_km":5.964,"cumulative_distance_km":22.679,"amap_marker_url":"https://uri.amap.com/marker?position=112.941023,27.773756&name=%E7%A6%BD%E5%BA%B7%E5%85%BD%E8%8D%AF&src=vetmap&coordinate=gaode&callnative=1","route_id":"r1","route_name":"第1段","global_order":3},{"name":"动物疫病预防控制中心","address":"海棠中路与花果山路交叉口西南120米","phone":"","category":"医疗保健服务;动物医疗场所;动物医疗场所","area":"易俗河","lng":112.957919,"lat":27.77004,"amap_id":"B0KKTMRG87","order":4,"prev_distance_km":1.713,"cumulative_distance_km":24.392,"amap_marker_url":"https://uri.amap.com/marker?position=112.957919,27.770040&name=%E5%8A%A8%E7%89%A9%E7%96%AB%E7%97%85%E9%A2%84%E9%98%B2%E6%8E%A7%E5%88%B6%E4%B8%AD%E5%BF%83&src=vetmap&coordinate=gaode&callnative=1","route_id":"r1","route_name":"第1段","global_order":4},{"name":"诚品动物医疗中心","address":"金桂北路282号","phone":"17877707257","category":"医疗保健服务;动物医疗场所;宠物诊所","area":"凤凰中路","lng":112.950441,"lat":27.789367,"amap_id":"B0HB2DXJ5S","order":5,"prev_distance_km":2.272,"cumulative_distance_km":26.664,"amap_marker_url":"https://uri.amap.com/marker?position=112.950441,27.789367&name=%E8%AF%9A%E5%93%81%E5%8A%A8%E7%89%A9%E5%8C%BB%E7%96%97%E4%B8%AD%E5%BF%83&src=vetmap&coordinate=gaode&callnative=1","route_id":"r1","route_name":"第1段","global_order":5},{"name":"安心动物诊所","address":"凤凰东路76号","phone":"0731-57808120;17700220770","category":"医疗保健服务;动物医疗场所;宠物诊所","area":"易俗河","lng":112.966563,"lat":27.790199,"amap_id":"B0FFJHJ3RW","order":6,"prev_distance_km":1.589,"cumulative_distance_km":28.252,"amap_marker_url":"https://uri.amap.com/marker?position=112.966563,27.790199&name=%E5%AE%89%E5%BF%83%E5%8A%A8%E7%89%A9%E8%AF%8A%E6%89%80&src=vetmap&coordinate=gaode&callnative=1","route_id":"r1","route_name":"第1段","global_order":6}]}