{"summary":{"id":"d01537","province":"湖南省","city":"湘潭市","district":"岳塘区","count":12,"total_distance_km":25.282,"coordinate_system":"GCJ-02 / Amap","generated_at":"2026-05-07 20:23:58"},"rows":[{"name":"卓月宠物中心","address":"陈家院子西侧230米","phone":"","category":"医疗保健服务;动物医疗场所;宠物诊所","area":"","lng":113.046276,"lat":27.950298,"amap_id":"B0L3MOP8ZN","order":1,"prev_distance_km":0.0,"cumulative_distance_km":0.0,"amap_marker_url":"https://uri.amap.com/marker?position=113.046276,27.950298&name=%E5%8D%93%E6%9C%88%E5%AE%A0%E7%89%A9%E4%B8%AD%E5%BF%83&src=vetmap&coordinate=gaode&callnative=1"},{"name":"万千宠爱(金侨世纪苑店)","address":"金侨世纪苑西北2门东北110米","phone":"0731-58519688;18007329000","category":"医疗保健服务;动物医疗场所;动物医疗场所","area":"","lng":112.951346,"lat":27.836667,"amap_id":"B0K2RHBXJU","order":2,"prev_distance_km":15.706,"cumulative_distance_km":15.706,"amap_marker_url":"https://uri.amap.com/marker?position=112.951346,27.836667&name=%E4%B8%87%E5%8D%83%E5%AE%A0%E7%88%B1%28%E9%87%91%E4%BE%A8%E4%B8%96%E7%BA%AA%E8%8B%91%E5%BA%97%29&src=vetmap&coordinate=gaode&callnative=1"},{"name":"宠爱有家宠物医院","address":"湖湘林语2期西北1门旁","phone":"0731-58613551","category":"医疗保健服务;动物医疗场所;宠物诊所","area":"宝塔","lng":112.933184,"lat":27.832952,"amap_id":"B02DC01QTD","order":3,"prev_distance_km":1.833,"cumulative_distance_km":17.539,"amap_marker_url":"https://uri.amap.com/marker?position=112.933184,27.832952&name=%E5%AE%A0%E7%88%B1%E6%9C%89%E5%AE%B6%E5%AE%A0%E7%89%A9%E5%8C%BB%E9%99%A2&src=vetmap&coordinate=gaode&callnative=1"},{"name":"猫科犬科(湘潭高新万达广场店)","address":"湘潭大道281号万达广场湘潭高新店F1层","phone":"","category":"医疗保健服务;动物医疗场所;宠物诊所","area":"","lng":112.938541,"lat":27.826556,"amap_id":"B0KBJZ9FZP","order":4,"prev_distance_km":0.885,"cumulative_distance_km":18.424,"amap_marker_url":"https://uri.amap.com/marker?position=112.938541,27.826556&name=%E7%8C%AB%E7%A7%91%E7%8A%AC%E7%A7%91%28%E6%B9%98%E6%BD%AD%E9%AB%98%E6%96%B0%E4%B8%87%E8%BE%BE%E5%B9%BF%E5%9C%BA%E5%BA%97%29&src=vetmap&coordinate=gaode&callnative=1"},{"name":"瑞鹏宠物医院(湘潭万达分院)","address":"双马街道湘潭大道281号湘潭万达A地块综合楼","phone":"0731-52821198","category":"医疗保健服务;动物医疗场所;宠物诊所","area":"","lng":112.938592,"lat":27.826478,"amap_id":"B0IGKUK8BO","order":5,"prev_distance_km":0.01,"cumulative_distance_km":18.434,"amap_marker_url":"https://uri.amap.com/marker?position=112.938592,27.826478&name=%E7%91%9E%E9%B9%8F%E5%AE%A0%E7%89%A9%E5%8C%BB%E9%99%A2%28%E6%B9%98%E6%BD%AD%E4%B8%87%E8%BE%BE%E5%88%86%E9%99%A2%29&src=vetmap&coordinate=gaode&callnative=1"},{"name":"波比宠美工作室(湘潭高新万达广场店)","address":"望月路与长新路交叉口西160米","phone":"","category":"医疗保健服务;动物医疗场所;动物医疗场所","area":"","lng":112.940277,"lat":27.826382,"amap_id":"B0LGUSDT5H","order":6,"prev_distance_km":0.166,"cumulative_distance_km":18.6,"amap_marker_url":"https://uri.amap.com/marker?position=112.940277,27.826382&name=%E6%B3%A2%E6%AF%94%E5%AE%A0%E7%BE%8E%E5%B7%A5%E4%BD%9C%E5%AE%A4%28%E6%B9%98%E6%BD%AD%E9%AB%98%E6%96%B0%E4%B8%87%E8%BE%BE%E5%B9%BF%E5%9C%BA%E5%BA%97%29&src=vetmap&coordinate=gaode&callnative=1"},{"name":"恒爱动物医院","address":"万达广场望月路S5号楼","phone":"13973216578;15673210808","category":"医疗保健服务;动物医疗场所;宠物诊所","area":"","lng":112.941976,"lat":27.825645,"amap_id":"B0KD0ZW6LX","order":7,"prev_distance_km":0.186,"cumulative_distance_km":18.786,"amap_marker_url":"https://uri.amap.com/marker?position=112.941976,27.825645&name=%E6%81%92%E7%88%B1%E5%8A%A8%E7%89%A9%E5%8C%BB%E9%99%A2&src=vetmap&coordinate=gaode&callnative=1"},{"name":"狗崽队宠物医院","address":"书院路街道电工路一号A2栋","phone":"13519759096","category":"医疗保健服务;动物医疗场所;宠物诊所","area":"友谊","lng":112.935035,"lat":27.81482,"amap_id":"B0LA3Z8WL2","order":8,"prev_distance_km":1.384,"cumulative_distance_km":20.17,"amap_marker_url":"https://uri.amap.com/marker?position=112.935035,27.814820&name=%E7%8B%97%E5%B4%BD%E9%98%9F%E5%AE%A0%E7%89%A9%E5%8C%BB%E9%99%A2&src=vetmap&coordinate=gaode&callnative=1"},{"name":"希望宠物医院","address":"芙蓉西路183号","phone":"0731-52720510","category":"医疗保健服务;动物医疗场所;宠物诊所","area":"","lng":112.923189,"lat":27.822638,"amap_id":"B02DC01QK2","order":9,"prev_distance_km":1.454,"cumulative_distance_km":21.624,"amap_marker_url":"https://uri.amap.com/marker?position=112.923189,27.822638&name=%E5%B8%8C%E6%9C%9B%E5%AE%A0%E7%89%A9%E5%8C%BB%E9%99%A2&src=vetmap&coordinate=gaode&callnative=1"},{"name":"振东宠物会所","address":"霞光路与岚霞路交叉口西180米","phone":"","category":"医疗保健服务;动物医疗场所;宠物诊所","area":"","lng":112.916694,"lat":27.827637,"amap_id":"B0L6U937U7","order":10,"prev_distance_km":0.847,"cumulative_distance_km":22.471,"amap_marker_url":"https://uri.amap.com/marker?position=112.916694,27.827637&name=%E6%8C%AF%E4%B8%9C%E5%AE%A0%E7%89%A9%E4%BC%9A%E6%89%80&src=vetmap&coordinate=gaode&callnative=1"},{"name":"湘潭市动物疫病预防控制中心","address":"新庙路与岚园路交叉口南260米","phone":"","category":"医疗保健服务;动物医疗场所;动物医疗场所","area":"","lng":112.91068,"lat":27.830431,"amap_id":"B0FFHFVOLA","order":11,"prev_distance_km":0.668,"cumulative_distance_km":23.139,"amap_marker_url":"https://uri.amap.com/marker?position=112.910680,27.830431&name=%E6%B9%98%E6%BD%AD%E5%B8%82%E5%8A%A8%E7%89%A9%E7%96%AB%E7%97%85%E9%A2%84%E9%98%B2%E6%8E%A7%E5%88%B6%E4%B8%AD%E5%BF%83&src=vetmap&coordinate=gaode&callnative=1"},{"name":"狗富贵宠物","address":"滨江中路与三角坪东路交叉口东北300米","phone":"","category":"购物服务;专卖店;宠物用品店|医疗保健服务;动物医疗场所;动物医疗场所","area":"","lng":112.916825,"lat":27.848925,"amap_id":"B0LAZ7ZGMU","order":12,"prev_distance_km":2.143,"cumulative_distance_km":25.282,"amap_marker_url":"https://uri.amap.com/marker?position=112.916825,27.848925&name=%E7%8B%97%E5%AF%8C%E8%B4%B5%E5%AE%A0%E7%89%A9&src=vetmap&coordinate=gaode&callnative=1"}]}