{"summary":{"id":"d01560","province":"湖南省","city":"衡阳市","district":"祁东县","count":6,"total_distance_km":8.34,"coordinate_system":"GCJ-02 / Amap","generated_at":"2026-05-07 19:58:11"},"rows":[{"name":"夸口宠物医院","address":"红星美凯龙家居建材2栋115-116号","phone":"13575251892;18229205873","category":"医疗保健服务;动物医疗场所;宠物诊所","area":"","lng":112.064605,"lat":26.769137,"amap_id":"B0HKDDUEDO","order":1,"prev_distance_km":0.0,"cumulative_distance_km":0.0,"amap_marker_url":"https://uri.amap.com/marker?position=112.064605,26.769137&name=%E5%A4%B8%E5%8F%A3%E5%AE%A0%E7%89%A9%E5%8C%BB%E9%99%A2&src=vetmap&coordinate=gaode&callnative=1"},{"name":"南山宠物诊所","address":"玉合街道竹苑路南侧(步步高小区幼儿园对面)曙光路往东第11-12号门","phone":"","category":"医疗保健服务;动物医疗场所;宠物诊所","area":"","lng":112.087026,"lat":26.796591,"amap_id":"B0L2GZSG2W","order":2,"prev_distance_km":3.778,"cumulative_distance_km":3.778,"amap_marker_url":"https://uri.amap.com/marker?position=112.087026,26.796591&name=%E5%8D%97%E5%B1%B1%E5%AE%A0%E7%89%A9%E8%AF%8A%E6%89%80&src=vetmap&coordinate=gaode&callnative=1"},{"name":"苏安宠物医院","address":"祁丰大道206号","phone":"19152359188","category":"医疗保健服务;动物医疗场所;宠物诊所","area":"","lng":112.097855,"lat":26.78764,"amap_id":"B0LR0ZMJNF","order":3,"prev_distance_km":1.465,"cumulative_distance_km":5.243,"amap_marker_url":"https://uri.amap.com/marker?position=112.097855,26.787640&name=%E8%8B%8F%E5%AE%89%E5%AE%A0%E7%89%A9%E5%8C%BB%E9%99%A2&src=vetmap&coordinate=gaode&callnative=1"},{"name":"洪桥镇畜牧站门市部","address":"兴旺路与富绅路交叉口西20米","phone":"","category":"医疗保健服务;动物医疗场所;兽医站","area":"","lng":112.108822,"lat":26.783684,"amap_id":"B0KKAMBIYK","order":4,"prev_distance_km":1.174,"cumulative_distance_km":6.417,"amap_marker_url":"https://uri.amap.com/marker?position=112.108822,26.783684&name=%E6%B4%AA%E6%A1%A5%E9%95%87%E7%95%9C%E7%89%A7%E7%AB%99%E9%97%A8%E5%B8%82%E9%83%A8&src=vetmap&coordinate=gaode&callnative=1"},{"name":"南山宠物诊所","address":"洪桥镇南山路555号","phone":"15886461828;18273443686","category":"医疗保健服务;动物医疗场所;宠物诊所","area":"","lng":112.118992,"lat":26.779364,"amap_id":"B0J2R7U3DE","order":5,"prev_distance_km":1.118,"cumulative_distance_km":7.535,"amap_marker_url":"https://uri.amap.com/marker?position=112.118992,26.779364&name=%E5%8D%97%E5%B1%B1%E5%AE%A0%E7%89%A9%E8%AF%8A%E6%89%80&src=vetmap&coordinate=gaode&callnative=1"},{"name":"夸口宠物诊所","address":"洪桥街道办事处鼎山东路286号","phone":"13575251892","category":"医疗保健服务;动物医疗场所;宠物诊所","area":"","lng":112.12477,"lat":26.784441,"amap_id":"B0FFGSYJR8","order":6,"prev_distance_km":0.805,"cumulative_distance_km":8.34,"amap_marker_url":"https://uri.amap.com/marker?position=112.124770,26.784441&name=%E5%A4%B8%E5%8F%A3%E5%AE%A0%E7%89%A9%E8%AF%8A%E6%89%80&src=vetmap&coordinate=gaode&callnative=1"}]}