{"summary":{"id":"d01588","province":"湖南省","city":"长沙市","district":"天心区","count":32,"total_distance_km":30.688,"coordinate_system":"GCJ-02 / Amap","generated_at":"2026-05-07 20:23:58"},"rows":[{"name":"麦家动物诊所","address":"暮云街道西湖安置区B区31","phone":"19918808104","category":"医疗保健服务;动物医疗场所;宠物诊所","area":"","lng":113.001268,"lat":28.042028,"amap_id":"B0K1KZIG92","order":1,"prev_distance_km":0.0,"cumulative_distance_km":0.0,"amap_marker_url":"https://uri.amap.com/marker?position=113.001268,28.042028&name=%E9%BA%A6%E5%AE%B6%E5%8A%A8%E7%89%A9%E8%AF%8A%E6%89%80&src=vetmap&coordinate=gaode&callnative=1"},{"name":"维多爱宠物诊所(哈佛小镇店)","address":"哈佛小镇2040栋129号","phone":"19198131514","category":"医疗保健服务;动物医疗场所;宠物诊所","area":"","lng":113.011228,"lat":28.05565,"amap_id":"B0HKMC8B2Q","order":2,"prev_distance_km":1.803,"cumulative_distance_km":1.803,"amap_marker_url":"https://uri.amap.com/marker?position=113.011228,28.055650&name=%E7%BB%B4%E5%A4%9A%E7%88%B1%E5%AE%A0%E7%89%A9%E8%AF%8A%E6%89%80%28%E5%93%88%E4%BD%9B%E5%B0%8F%E9%95%87%E5%BA%97%29&src=vetmap&coordinate=gaode&callnative=1"},{"name":"沐荣宠物医院","address":"五矿格澜郡141栋116号门面","phone":"15802620512","category":"医疗保健服务;动物医疗场所;宠物诊所","area":"","lng":113.006631,"lat":28.059877,"amap_id":"B0FFJEU4F2","order":3,"prev_distance_km":0.651,"cumulative_distance_km":2.454,"amap_marker_url":"https://uri.amap.com/marker?position=113.006631,28.059877&name=%E6%B2%90%E8%8D%A3%E5%AE%A0%E7%89%A9%E5%8C%BB%E9%99%A2&src=vetmap&coordinate=gaode&callnative=1"},{"name":"瑞鹏宠物医院(万家丽南路分院)","address":"万家丽南路二段999格澜郡141栋111号","phone":"0731-85950548","category":"医疗保健服务;动物医疗场所;宠物诊所","area":"","lng":113.006396,"lat":28.059835,"amap_id":"B0HUAS1L51","order":4,"prev_distance_km":0.024,"cumulative_distance_km":2.478,"amap_marker_url":"https://uri.amap.com/marker?position=113.006396,28.059835&name=%E7%91%9E%E9%B9%8F%E5%AE%A0%E7%89%A9%E5%8C%BB%E9%99%A2%28%E4%B8%87%E5%AE%B6%E4%B8%BD%E5%8D%97%E8%B7%AF%E5%88%86%E9%99%A2%29&src=vetmap&coordinate=gaode&callnative=1"},{"name":"嘉荣宠物医院(环宇城店)","address":"环宇城A门东350米","phone":"18229883456","category":"医疗保健服务;动物医疗场所;宠物诊所","area":"","lng":112.989001,"lat":28.068674,"amap_id":"B0H63U9CSM","order":5,"prev_distance_km":1.97,"cumulative_distance_km":4.447,"amap_marker_url":"https://uri.amap.com/marker?position=112.989001,28.068674&name=%E5%98%89%E8%8D%A3%E5%AE%A0%E7%89%A9%E5%8C%BB%E9%99%A2%28%E7%8E%AF%E5%AE%87%E5%9F%8E%E5%BA%97%29&src=vetmap&coordinate=gaode&callnative=1"},{"name":"可乐宠物","address":"中建芙蓉偶遇23栋10013","phone":"17267400501","category":"医疗保健服务;动物医疗场所;动物医疗场所","area":"","lng":112.995309,"lat":28.080845,"amap_id":"B0FFKZAD8N","order":6,"prev_distance_km":1.488,"cumulative_distance_km":5.935,"amap_marker_url":"https://uri.amap.com/marker?position=112.995309,28.080845&name=%E5%8F%AF%E4%B9%90%E5%AE%A0%E7%89%A9&src=vetmap&coordinate=gaode&callnative=1"},{"name":"瑞鹏宠物医院(大托分院)","address":"芙蓉南路二段302号金房奥斯苑6栋203-2房","phone":"0731-85950128","category":"医疗保健服务;动物医疗场所;宠物诊所","area":"","lng":112.987407,"lat":28.082387,"amap_id":"B0HBMUL3RQ","order":7,"prev_distance_km":0.794,"cumulative_distance_km":6.729,"amap_marker_url":"https://uri.amap.com/marker?position=112.987407,28.082387&name=%E7%91%9E%E9%B9%8F%E5%AE%A0%E7%89%A9%E5%8C%BB%E9%99%A2%28%E5%A4%A7%E6%89%98%E5%88%86%E9%99%A2%29&src=vetmap&coordinate=gaode&callnative=1"},{"name":"宠依家宠物医院","address":"九峰小区南门西50米","phone":"0731-89908458","category":"医疗保健服务;动物医疗场所;宠物诊所","area":"","lng":112.981299,"lat":28.093841,"amap_id":"B0FFK5O9F8","order":8,"prev_distance_km":1.408,"cumulative_distance_km":8.137,"amap_marker_url":"https://uri.amap.com/marker?position=112.981299,28.093841&name=%E5%AE%A0%E4%BE%9D%E5%AE%B6%E5%AE%A0%E7%89%A9%E5%8C%BB%E9%99%A2&src=vetmap&coordinate=gaode&callnative=1"},{"name":"瑞心宠物医院(碧水春城店)","address":"刘家冲南路599号夏威夷碧水春城一栋","phone":"0731-84111363;19067128932","category":"医疗保健服务;动物医疗场所;宠物诊所","area":"桂花坪","lng":112.991857,"lat":28.095069,"amap_id":"B0FFJWH57F","order":9,"prev_distance_km":1.045,"cumulative_distance_km":9.182,"amap_marker_url":"https://uri.amap.com/marker?position=112.991857,28.095069&name=%E7%91%9E%E5%BF%83%E5%AE%A0%E7%89%A9%E5%8C%BB%E9%99%A2%28%E7%A2%A7%E6%B0%B4%E6%98%A5%E5%9F%8E%E5%BA%97%29&src=vetmap&coordinate=gaode&callnative=1"},{"name":"舒佑宠物医院","address":"桂花坪路109号A7-09","phone":"18674460053","category":"医疗保健服务;动物医疗场所;宠物诊所","area":"","lng":112.989011,"lat":28.10446,"amap_id":"B0L1HSXIAA","order":10,"prev_distance_km":1.081,"cumulative_distance_km":10.262,"amap_marker_url":"https://uri.amap.com/marker?position=112.989011,28.104460&name=%E8%88%92%E4%BD%91%E5%AE%A0%E7%89%A9%E5%8C%BB%E9%99%A2&src=vetmap&coordinate=gaode&callnative=1"},{"name":"怡心宠物医院24h急诊(绿地公馆)","address":"芙蓉路二段88号绿地公馆9栋105门面","phone":"13517497775","category":"医疗保健服务;动物医疗场所;宠物诊所","area":"桂花坪","lng":112.987441,"lat":28.104321,"amap_id":"B0KACCYCES","order":11,"prev_distance_km":0.155,"cumulative_distance_km":10.417,"amap_marker_url":"https://uri.amap.com/marker?position=112.987441,28.104321&name=%E6%80%A1%E5%BF%83%E5%AE%A0%E7%89%A9%E5%8C%BB%E9%99%A224h%E6%80%A5%E8%AF%8A%28%E7%BB%BF%E5%9C%B0%E5%85%AC%E9%A6%86%29&src=vetmap&coordinate=gaode&callnative=1"},{"name":"启航宠物医院","address":"鑫远尚玺3栋119-120门面","phone":"19198114066","category":"医疗保健服务;动物医疗场所;宠物诊所","area":"","lng":112.978358,"lat":28.109002,"amap_id":"B0HKKAGH9O","order":12,"prev_distance_km":1.032,"cumulative_distance_km":11.449,"amap_marker_url":"https://uri.amap.com/marker?position=112.978358,28.109002&name=%E5%90%AF%E8%88%AA%E5%AE%A0%E7%89%A9%E5%8C%BB%E9%99%A2&src=vetmap&coordinate=gaode&callnative=1"},{"name":"毛豆宠物医院(天心店)","address":"鑫远御文雅苑二期","phone":"17788926997","category":"医疗保健服务;动物医疗场所;宠物诊所","area":"新开铺","lng":112.969962,"lat":28.123443,"amap_id":"B0KUD76AWQ","order":13,"prev_distance_km":1.805,"cumulative_distance_km":13.254,"amap_marker_url":"https://uri.amap.com/marker?position=112.969962,28.123443&name=%E6%AF%9B%E8%B1%86%E5%AE%A0%E7%89%A9%E5%8C%BB%E9%99%A2%28%E5%A4%A9%E5%BF%83%E5%BA%97%29&src=vetmap&coordinate=gaode&callnative=1"},{"name":"洋洋洋宠物诊所","address":"木莲西路和庄公寓4栋5栋105号门面","phone":"19118978053","category":"医疗保健服务;动物医疗场所;宠物诊所","area":"新开铺","lng":112.984097,"lat":28.128699,"amap_id":"B0H645IMJO","order":14,"prev_distance_km":1.504,"cumulative_distance_km":14.758,"amap_marker_url":"https://uri.amap.com/marker?position=112.984097,28.128699&name=%E6%B4%8B%E6%B4%8B%E6%B4%8B%E5%AE%A0%E7%89%A9%E8%AF%8A%E6%89%80&src=vetmap&coordinate=gaode&callnative=1"},{"name":"拜迪宠物医院·24H(天心旗舰店)","address":"芙蓉南路一段499号彩虹都家园地下室-101房","phone":"18374875553;18807421563","category":"医疗保健服务;动物医疗场所;宠物诊所","area":"芙蓉南路","lng":112.987862,"lat":28.127605,"amap_id":"B0FFJAGOTC","order":15,"prev_distance_km":0.389,"cumulative_distance_km":15.147,"amap_marker_url":"https://uri.amap.com/marker?position=112.987862,28.127605&name=%E6%8B%9C%E8%BF%AA%E5%AE%A0%E7%89%A9%E5%8C%BB%E9%99%A2%C2%B724H%28%E5%A4%A9%E5%BF%83%E6%97%97%E8%88%B0%E5%BA%97%29&src=vetmap&coordinate=gaode&callnative=1"},{"name":"洋洋宠物医院","address":"新韶东路531号","phone":"13237422482","category":"医疗保健服务;动物医疗场所;宠物诊所","area":"","lng":112.990709,"lat":28.120736,"amap_id":"B0KKTRNG66","order":16,"prev_distance_km":0.813,"cumulative_distance_km":15.96,"amap_marker_url":"https://uri.amap.com/marker?position=112.990709,28.120736&name=%E6%B4%8B%E6%B4%8B%E5%AE%A0%E7%89%A9%E5%8C%BB%E9%99%A2&src=vetmap&coordinate=gaode&callnative=1"},{"name":"富瑞宠物医院","address":"正塘坡路153号","phone":"18207316857","category":"医疗保健服务;动物医疗场所;宠物诊所","area":"","lng":113.000447,"lat":28.117648,"amap_id":"B0H11AOWQI","order":17,"prev_distance_km":1.015,"cumulative_distance_km":16.975,"amap_marker_url":"https://uri.amap.com/marker?position=113.000447,28.117648&name=%E5%AF%8C%E7%91%9E%E5%AE%A0%E7%89%A9%E5%8C%BB%E9%99%A2&src=vetmap&coordinate=gaode&callnative=1"},{"name":"瑞派宠物医院-木莲路院(猫科心脏专科·免疫点)","address":"木莲西路121号","phone":"18175196120","category":"医疗保健服务;动物医疗场所;宠物诊所","area":"","lng":113.000473,"lat":28.12725,"amap_id":"B0FFIDFJ2Q","order":18,"prev_distance_km":1.068,"cumulative_distance_km":18.042,"amap_marker_url":"https://uri.amap.com/marker?position=113.000473,28.127250&name=%E7%91%9E%E6%B4%BE%E5%AE%A0%E7%89%A9%E5%8C%BB%E9%99%A2-%E6%9C%A8%E8%8E%B2%E8%B7%AF%E9%99%A2%28%E7%8C%AB%E7%A7%91%E5%BF%83%E8%84%8F%E4%B8%93%E7%A7%91%C2%B7%E5%85%8D%E7%96%AB%E7%82%B9%29&src=vetmap&coordinate=gaode&callnative=1"},{"name":"安心宠物医院(木莲路店)","address":"木莲西路110号","phone":"15575875776","category":"医疗保健服务;动物医疗场所;宠物诊所","area":"","lng":113.001118,"lat":28.127938,"amap_id":"B0JD07XJ6T","order":19,"prev_distance_km":0.099,"cumulative_distance_km":18.142,"amap_marker_url":"https://uri.amap.com/marker?position=113.001118,28.127938&name=%E5%AE%89%E5%BF%83%E5%AE%A0%E7%89%A9%E5%8C%BB%E9%99%A2%28%E6%9C%A8%E8%8E%B2%E8%B7%AF%E5%BA%97%29&src=vetmap&coordinate=gaode&callnative=1"},{"name":"瑞鹏宠物医院·宠保定点·猫科·犬科中心(木莲西路店)","address":"木莲西路168号雍晟时代园1栋115-116房","phone":"0731-85953166;13347311466","category":"医疗保健服务;动物医疗场所;宠物诊所","area":"","lng":112.996797,"lat":28.12772,"amap_id":"B0FFKX2SZX","order":20,"prev_distance_km":0.424,"cumulative_distance_km":18.566,"amap_marker_url":"https://uri.amap.com/marker?position=112.996797,28.127720&name=%E7%91%9E%E9%B9%8F%E5%AE%A0%E7%89%A9%E5%8C%BB%E9%99%A2%C2%B7%E5%AE%A0%E4%BF%9D%E5%AE%9A%E7%82%B9%C2%B7%E7%8C%AB%E7%A7%91%C2%B7%E7%8A%AC%E7%A7%91%E4%B8%AD%E5%BF%83%28%E6%9C%A8%E8%8E%B2%E8%A5%BF%E8%B7%AF%E5%BA%97%29&src=vetmap&coordinate=gaode&callnative=1"},{"name":"长沙·宠灵阁·宠物火化善终服务店","address":"芙蓉南路1号","phone":"15274850028","category":"医疗保健服务;动物医疗场所;动物医疗场所","area":"浦沅","lng":112.984258,"lat":28.145415,"amap_id":"B0L195FMTD","order":21,"prev_distance_km":2.32,"cumulative_distance_km":20.886,"amap_marker_url":"https://uri.amap.com/marker?position=112.984258,28.145415&name=%E9%95%BF%E6%B2%99%C2%B7%E5%AE%A0%E7%81%B5%E9%98%81%C2%B7%E5%AE%A0%E7%89%A9%E7%81%AB%E5%8C%96%E5%96%84%E7%BB%88%E6%9C%8D%E5%8A%A1%E5%BA%97&src=vetmap&coordinate=gaode&callnative=1"},{"name":"贝贝康24小时宠物医院·CT影像·宠保定点(书院南路总院)","address":"新开铺路211号富绿新村二期1栋综合楼101","phone":"15581661183","category":"医疗保健服务;动物医疗场所;宠物诊所","area":"书院南路","lng":112.972161,"lat":28.14632,"amap_id":"B0L2ZA3I5A","order":22,"prev_distance_km":1.19,"cumulative_distance_km":22.077,"amap_marker_url":"https://uri.amap.com/marker?position=112.972161,28.146320&name=%E8%B4%9D%E8%B4%9D%E5%BA%B724%E5%B0%8F%E6%97%B6%E5%AE%A0%E7%89%A9%E5%8C%BB%E9%99%A2%C2%B7CT%E5%BD%B1%E5%83%8F%C2%B7%E5%AE%A0%E4%BF%9D%E5%AE%9A%E7%82%B9%28%E4%B9%A6%E9%99%A2%E5%8D%97%E8%B7%AF%E6%80%BB%E9%99%A2%29&src=vetmap&coordinate=gaode&callnative=1"},{"name":"瑞爱宠物医院","address":"书院南路华丽家族小区1号","phone":"19386905108","category":"医疗保健服务;动物医疗场所;宠物诊所","area":"新开铺","lng":112.972803,"lat":28.147993,"amap_id":"B02DB04LEC","order":23,"prev_distance_km":0.196,"cumulative_distance_km":22.273,"amap_marker_url":"https://uri.amap.com/marker?position=112.972803,28.147993&name=%E7%91%9E%E7%88%B1%E5%AE%A0%E7%89%A9%E5%8C%BB%E9%99%A2&src=vetmap&coordinate=gaode&callnative=1"},{"name":"瑞派·仁才动物医院24h(书院路店)","address":"书院南路398号天悦鑫苑B栋二楼整层","phone":"0731-84163638;15364098858;17700581188","category":"医疗保健服务;动物医疗场所;宠物诊所","area":"赤岭路","lng":112.972206,"lat":28.153329,"amap_id":"B02DB0THM8","order":24,"prev_distance_km":0.596,"cumulative_distance_km":22.869,"amap_marker_url":"https://uri.amap.com/marker?position=112.972206,28.153329&name=%E7%91%9E%E6%B4%BE%C2%B7%E4%BB%81%E6%89%8D%E5%8A%A8%E7%89%A9%E5%8C%BB%E9%99%A224h%28%E4%B9%A6%E9%99%A2%E8%B7%AF%E5%BA%97%29&src=vetmap&coordinate=gaode&callnative=1"},{"name":"康美宠物医院(南湖公寓店)","address":"南湖路439号(碧沙湖地铁站2号口步行480米)","phone":"13755102207","category":"医疗保健服务;动物医疗场所;宠物诊所","area":"书院南路","lng":112.972521,"lat":28.164814,"amap_id":"B02DB07QXA","order":25,"prev_distance_km":1.277,"cumulative_distance_km":24.147,"amap_marker_url":"https://uri.amap.com/marker?position=112.972521,28.164814&name=%E5%BA%B7%E7%BE%8E%E5%AE%A0%E7%89%A9%E5%8C%BB%E9%99%A2%28%E5%8D%97%E6%B9%96%E5%85%AC%E5%AF%93%E5%BA%97%29&src=vetmap&coordinate=gaode&callnative=1"},{"name":"倾心宠物诊所","address":"裕南街街道南湖路天龙花园东幢102","phone":"13786187337;13874879008","category":"医疗保健服务;动物医疗场所;宠物诊所","area":"金盆岭","lng":112.979848,"lat":28.165501,"amap_id":"B0FFL7N2FU","order":26,"prev_distance_km":0.722,"cumulative_distance_km":24.869,"amap_marker_url":"https://uri.amap.com/marker?position=112.979848,28.165501&name=%E5%80%BE%E5%BF%83%E5%AE%A0%E7%89%A9%E8%AF%8A%E6%89%80&src=vetmap&coordinate=gaode&callnative=1"},{"name":"泽熙宠物诊所","address":"书院路与白沙路交叉口东南40米","phone":"0731-84863212","category":"医疗保健服务;动物医疗场所;宠物诊所","area":"东瓜山","lng":112.971067,"lat":28.173389,"amap_id":"B0LB5Z27ZK","order":27,"prev_distance_km":1.229,"cumulative_distance_km":26.098,"amap_marker_url":"https://uri.amap.com/marker?position=112.971067,28.173389&name=%E6%B3%BD%E7%86%99%E5%AE%A0%E7%89%A9%E8%AF%8A%E6%89%80&src=vetmap&coordinate=gaode&callnative=1"},{"name":"唯依爱24小时宠物医院","address":"城南路街道体育产业2号商住楼104","phone":"0731-84393398","category":"医疗保健服务;动物医疗场所;宠物诊所","area":"城南路","lng":112.985146,"lat":28.174862,"amap_id":"B0KKDR4N3S","order":28,"prev_distance_km":1.39,"cumulative_distance_km":27.488,"amap_marker_url":"https://uri.amap.com/marker?position=112.985146,28.174862&name=%E5%94%AF%E4%BE%9D%E7%88%B124%E5%B0%8F%E6%97%B6%E5%AE%A0%E7%89%A9%E5%8C%BB%E9%99%A2&src=vetmap&coordinate=gaode&callnative=1"},{"name":"瑞鹏宠物医院·眼科(白沙店)","address":"劳动西路388号102房","phone":"0731-85319066","category":"医疗保健服务;动物医疗场所;宠物诊所","area":"城南路","lng":112.978324,"lat":28.177528,"amap_id":"B0FFF0EGMK","order":29,"prev_distance_km":0.731,"cumulative_distance_km":28.219,"amap_marker_url":"https://uri.amap.com/marker?position=112.978324,28.177528&name=%E7%91%9E%E9%B9%8F%E5%AE%A0%E7%89%A9%E5%8C%BB%E9%99%A2%C2%B7%E7%9C%BC%E7%A7%91%28%E7%99%BD%E6%B2%99%E5%BA%97%29&src=vetmap&coordinate=gaode&callnative=1"},{"name":"溺爱宠物洗澡美容","address":"书院路碧湘街锡庆里72号","phone":"","category":"医疗保健服务;动物医疗场所;宠物诊所","area":"书院路","lng":112.97297,"lat":28.18162,"amap_id":"B0HK01LBU4","order":30,"prev_distance_km":0.695,"cumulative_distance_km":28.914,"amap_marker_url":"https://uri.amap.com/marker?position=112.972970,28.181620&name=%E6%BA%BA%E7%88%B1%E5%AE%A0%E7%89%A9%E6%B4%97%E6%BE%A1%E7%BE%8E%E5%AE%B9&src=vetmap&coordinate=gaode&callnative=1"},{"name":"哆哥宠物诊所","address":"城南西路210号1楼(南门口地铁站2号口步行240米)","phone":"18900765559;4006999175","category":"医疗保健服务;动物医疗场所;宠物诊所","area":"城南路","lng":112.978182,"lat":28.183581,"amap_id":"B0H23CQD26","order":31,"prev_distance_km":0.555,"cumulative_distance_km":29.469,"amap_marker_url":"https://uri.amap.com/marker?position=112.978182,28.183581&name=%E5%93%86%E5%93%A5%E5%AE%A0%E7%89%A9%E8%AF%8A%E6%89%80&src=vetmap&coordinate=gaode&callnative=1"},{"name":"天禧宠物","address":"西牌楼街7栋108","phone":"","category":"医疗保健服务;动物医疗场所;动物医疗场所","area":"解放西路","lng":112.973105,"lat":28.193589,"amap_id":"B0K16CRWHK","order":32,"prev_distance_km":1.219,"cumulative_distance_km":30.688,"amap_marker_url":"https://uri.amap.com/marker?position=112.973105,28.193589&name=%E5%A4%A9%E7%A6%A7%E5%AE%A0%E7%89%A9&src=vetmap&coordinate=gaode&callnative=1"}]}