{"summary":{"id":"d01671","province":"福建省","city":"龙岩市","district":"上杭县","count":11,"route_count":1,"max_route_clinics":11,"total_distance_km":106.873,"coordinate_system":"GCJ-02 / Amap","generated_at":"2026-05-07 21:30:34"},"routes":[{"id":"r1","name":"第1段","count":11,"total_distance_km":106.873,"rows":[{"name":"桥发兽医服务部","address":"651县道与641县道交叉口北160米","phone":"","category":"医疗保健服务;动物医疗场所;兽医站","area":"","lng":116.343375,"lat":25.306843,"amap_id":"B0H64UK71H","order":1,"prev_distance_km":0.0,"cumulative_distance_km":0.0,"amap_marker_url":"https://uri.amap.com/marker?position=116.343375,25.306843&name=%E6%A1%A5%E5%8F%91%E5%85%BD%E5%8C%BB%E6%9C%8D%E5%8A%A1%E9%83%A8&src=vetmap&coordinate=gaode&callnative=1","route_id":"r1","route_name":"第1段"},{"name":"繁顺兽医店","address":"中共才溪镇委员会东侧140米","phone":"13004985161","category":"医疗保健服务;动物医疗场所;兽医站","area":"","lng":116.422889,"lat":25.256631,"amap_id":"B0FFG4FUM6","order":2,"prev_distance_km":9.751,"cumulative_distance_km":9.751,"amap_marker_url":"https://uri.amap.com/marker?position=116.422889,25.256631&name=%E7%B9%81%E9%A1%BA%E5%85%BD%E5%8C%BB%E5%BA%97&src=vetmap&coordinate=gaode&callnative=1","route_id":"r1","route_name":"第1段"},{"name":"兽医门诊","address":"319国道与358国道交叉口东南20米","phone":"","category":"医疗保健服务;动物医疗场所;兽医站","area":"","lng":116.734122,"lat":25.219015,"amap_id":"B0HG05YEG3","order":3,"prev_distance_km":31.582,"cumulative_distance_km":41.334,"amap_marker_url":"https://uri.amap.com/marker?position=116.734122,25.219015&name=%E5%85%BD%E5%8C%BB%E9%97%A8%E8%AF%8A&src=vetmap&coordinate=gaode&callnative=1","route_id":"r1","route_name":"第1段"},{"name":"白砂小马动物保健中心","address":"白砂镇白沙开发区中国石化加油站对面","phone":"15959737006","category":"医疗保健服务;动物医疗场所;宠物诊所","area":"","lng":116.603002,"lat":25.13529,"amap_id":"B0FFG3EGNF","order":4,"prev_distance_km":16.149,"cumulative_distance_km":57.482,"amap_marker_url":"https://uri.amap.com/marker?position=116.603002,25.135290&name=%E7%99%BD%E7%A0%82%E5%B0%8F%E9%A9%AC%E5%8A%A8%E7%89%A9%E4%BF%9D%E5%81%A5%E4%B8%AD%E5%BF%83&src=vetmap&coordinate=gaode&callnative=1","route_id":"r1","route_name":"第1段"},{"name":"优麦GO宠物诊所","address":"临城镇振兴东路9号","phone":"15860163266","category":"医疗保健服务;动物医疗场所;宠物诊所","area":"","lng":116.440107,"lat":25.053924,"amap_id":"B0K6SU7B4U","order":5,"prev_distance_km":18.733,"cumulative_distance_km":76.215,"amap_marker_url":"https://uri.amap.com/marker?position=116.440107,25.053924&name=%E4%BC%98%E9%BA%A6GO%E5%AE%A0%E7%89%A9%E8%AF%8A%E6%89%80&src=vetmap&coordinate=gaode&callnative=1","route_id":"r1","route_name":"第1段"},{"name":"喵小屋宠物医院","address":"二环东路与立新路交叉口北80米","phone":"15259041770","category":"医疗保健服务;动物医疗场所;宠物诊所","area":"","lng":116.435881,"lat":25.055302,"amap_id":"B0KRBXTUZZ","order":6,"prev_distance_km":0.452,"cumulative_distance_km":76.668,"amap_marker_url":"https://uri.amap.com/marker?position=116.435881,25.055302&name=%E5%96%B5%E5%B0%8F%E5%B1%8B%E5%AE%A0%E7%89%A9%E5%8C%BB%E9%99%A2&src=vetmap&coordinate=gaode&callnative=1","route_id":"r1","route_name":"第1段"},{"name":"上杭县遇宠动物诊所","address":"北环东路61号(老法院同边住东30来)","phone":"","category":"医疗保健服务;动物医疗场所;宠物诊所","area":"北环路","lng":116.429518,"lat":25.054889,"amap_id":"B0JRVCI796","order":7,"prev_distance_km":0.643,"cumulative_distance_km":77.31,"amap_marker_url":"https://uri.amap.com/marker?position=116.429518,25.054889&name=%E4%B8%8A%E6%9D%AD%E5%8E%BF%E9%81%87%E5%AE%A0%E5%8A%A8%E7%89%A9%E8%AF%8A%E6%89%80&src=vetmap&coordinate=gaode&callnative=1","route_id":"r1","route_name":"第1段"},{"name":"瑞朝宠物医院","address":"临城镇城东村北环东路30-2号","phone":"18250004699","category":"医疗保健服务;动物医疗场所;宠物诊所","area":"北环路","lng":116.427834,"lat":25.054515,"amap_id":"B0LA2M4V2H","order":8,"prev_distance_km":0.175,"cumulative_distance_km":77.485,"amap_marker_url":"https://uri.amap.com/marker?position=116.427834,25.054515&name=%E7%91%9E%E6%9C%9D%E5%AE%A0%E7%89%A9%E5%8C%BB%E9%99%A2&src=vetmap&coordinate=gaode&callnative=1","route_id":"r1","route_name":"第1段"},{"name":"丘发荣畜牧兽医","address":"临城镇北环西路新华联合石油","phone":"0597-3966645;13959482789","category":"医疗保健服务;动物医疗场所;兽医站","area":"北环路","lng":116.405448,"lat":25.053452,"amap_id":"B0FFH63XT6","order":9,"prev_distance_km":2.258,"cumulative_distance_km":79.743,"amap_marker_url":"https://uri.amap.com/marker?position=116.405448,25.053452&name=%E4%B8%98%E5%8F%91%E8%8D%A3%E7%95%9C%E7%89%A7%E5%85%BD%E5%8C%BB&src=vetmap&coordinate=gaode&callnative=1","route_id":"r1","route_name":"第1段"},{"name":"上杭县优麦宠物医院(帝豪时代广场店)","address":"临城镇城西村二环西路1-5号","phone":"15860163266","category":"医疗保健服务;动物医疗场所;宠物诊所","area":"","lng":116.402878,"lat":25.05421,"amap_id":"B0GUXUBDCM","order":10,"prev_distance_km":0.272,"cumulative_distance_km":80.015,"amap_marker_url":"https://uri.amap.com/marker?position=116.402878,25.054210&name=%E4%B8%8A%E6%9D%AD%E5%8E%BF%E4%BC%98%E9%BA%A6%E5%AE%A0%E7%89%A9%E5%8C%BB%E9%99%A2%28%E5%B8%9D%E8%B1%AA%E6%97%B6%E4%BB%A3%E5%B9%BF%E5%9C%BA%E5%BA%97%29&src=vetmap&coordinate=gaode&callnative=1","route_id":"r1","route_name":"第1段"},{"name":"炬丰动保","address":"中杭石化加油站(下都振鸿站)东北侧160米","phone":"","category":"医疗保健服务;动物医疗场所;动物医疗场所","area":"","lng":116.460098,"lat":24.818313,"amap_id":"B0L6ULSBZ2","order":11,"prev_distance_km":26.858,"cumulative_distance_km":106.873,"amap_marker_url":"https://uri.amap.com/marker?position=116.460098,24.818313&name=%E7%82%AC%E4%B8%B0%E5%8A%A8%E4%BF%9D&src=vetmap&coordinate=gaode&callnative=1","route_id":"r1","route_name":"第1段"}]}],"rows":[{"name":"桥发兽医服务部","address":"651县道与641县道交叉口北160米","phone":"","category":"医疗保健服务;动物医疗场所;兽医站","area":"","lng":116.343375,"lat":25.306843,"amap_id":"B0H64UK71H","order":1,"prev_distance_km":0.0,"cumulative_distance_km":0.0,"amap_marker_url":"https://uri.amap.com/marker?position=116.343375,25.306843&name=%E6%A1%A5%E5%8F%91%E5%85%BD%E5%8C%BB%E6%9C%8D%E5%8A%A1%E9%83%A8&src=vetmap&coordinate=gaode&callnative=1","route_id":"r1","route_name":"第1段","global_order":1},{"name":"繁顺兽医店","address":"中共才溪镇委员会东侧140米","phone":"13004985161","category":"医疗保健服务;动物医疗场所;兽医站","area":"","lng":116.422889,"lat":25.256631,"amap_id":"B0FFG4FUM6","order":2,"prev_distance_km":9.751,"cumulative_distance_km":9.751,"amap_marker_url":"https://uri.amap.com/marker?position=116.422889,25.256631&name=%E7%B9%81%E9%A1%BA%E5%85%BD%E5%8C%BB%E5%BA%97&src=vetmap&coordinate=gaode&callnative=1","route_id":"r1","route_name":"第1段","global_order":2},{"name":"兽医门诊","address":"319国道与358国道交叉口东南20米","phone":"","category":"医疗保健服务;动物医疗场所;兽医站","area":"","lng":116.734122,"lat":25.219015,"amap_id":"B0HG05YEG3","order":3,"prev_distance_km":31.582,"cumulative_distance_km":41.334,"amap_marker_url":"https://uri.amap.com/marker?position=116.734122,25.219015&name=%E5%85%BD%E5%8C%BB%E9%97%A8%E8%AF%8A&src=vetmap&coordinate=gaode&callnative=1","route_id":"r1","route_name":"第1段","global_order":3},{"name":"白砂小马动物保健中心","address":"白砂镇白沙开发区中国石化加油站对面","phone":"15959737006","category":"医疗保健服务;动物医疗场所;宠物诊所","area":"","lng":116.603002,"lat":25.13529,"amap_id":"B0FFG3EGNF","order":4,"prev_distance_km":16.149,"cumulative_distance_km":57.482,"amap_marker_url":"https://uri.amap.com/marker?position=116.603002,25.135290&name=%E7%99%BD%E7%A0%82%E5%B0%8F%E9%A9%AC%E5%8A%A8%E7%89%A9%E4%BF%9D%E5%81%A5%E4%B8%AD%E5%BF%83&src=vetmap&coordinate=gaode&callnative=1","route_id":"r1","route_name":"第1段","global_order":4},{"name":"优麦GO宠物诊所","address":"临城镇振兴东路9号","phone":"15860163266","category":"医疗保健服务;动物医疗场所;宠物诊所","area":"","lng":116.440107,"lat":25.053924,"amap_id":"B0K6SU7B4U","order":5,"prev_distance_km":18.733,"cumulative_distance_km":76.215,"amap_marker_url":"https://uri.amap.com/marker?position=116.440107,25.053924&name=%E4%BC%98%E9%BA%A6GO%E5%AE%A0%E7%89%A9%E8%AF%8A%E6%89%80&src=vetmap&coordinate=gaode&callnative=1","route_id":"r1","route_name":"第1段","global_order":5},{"name":"喵小屋宠物医院","address":"二环东路与立新路交叉口北80米","phone":"15259041770","category":"医疗保健服务;动物医疗场所;宠物诊所","area":"","lng":116.435881,"lat":25.055302,"amap_id":"B0KRBXTUZZ","order":6,"prev_distance_km":0.452,"cumulative_distance_km":76.668,"amap_marker_url":"https://uri.amap.com/marker?position=116.435881,25.055302&name=%E5%96%B5%E5%B0%8F%E5%B1%8B%E5%AE%A0%E7%89%A9%E5%8C%BB%E9%99%A2&src=vetmap&coordinate=gaode&callnative=1","route_id":"r1","route_name":"第1段","global_order":6},{"name":"上杭县遇宠动物诊所","address":"北环东路61号(老法院同边住东30来)","phone":"","category":"医疗保健服务;动物医疗场所;宠物诊所","area":"北环路","lng":116.429518,"lat":25.054889,"amap_id":"B0JRVCI796","order":7,"prev_distance_km":0.643,"cumulative_distance_km":77.31,"amap_marker_url":"https://uri.amap.com/marker?position=116.429518,25.054889&name=%E4%B8%8A%E6%9D%AD%E5%8E%BF%E9%81%87%E5%AE%A0%E5%8A%A8%E7%89%A9%E8%AF%8A%E6%89%80&src=vetmap&coordinate=gaode&callnative=1","route_id":"r1","route_name":"第1段","global_order":7},{"name":"瑞朝宠物医院","address":"临城镇城东村北环东路30-2号","phone":"18250004699","category":"医疗保健服务;动物医疗场所;宠物诊所","area":"北环路","lng":116.427834,"lat":25.054515,"amap_id":"B0LA2M4V2H","order":8,"prev_distance_km":0.175,"cumulative_distance_km":77.485,"amap_marker_url":"https://uri.amap.com/marker?position=116.427834,25.054515&name=%E7%91%9E%E6%9C%9D%E5%AE%A0%E7%89%A9%E5%8C%BB%E9%99%A2&src=vetmap&coordinate=gaode&callnative=1","route_id":"r1","route_name":"第1段","global_order":8},{"name":"丘发荣畜牧兽医","address":"临城镇北环西路新华联合石油","phone":"0597-3966645;13959482789","category":"医疗保健服务;动物医疗场所;兽医站","area":"北环路","lng":116.405448,"lat":25.053452,"amap_id":"B0FFH63XT6","order":9,"prev_distance_km":2.258,"cumulative_distance_km":79.743,"amap_marker_url":"https://uri.amap.com/marker?position=116.405448,25.053452&name=%E4%B8%98%E5%8F%91%E8%8D%A3%E7%95%9C%E7%89%A7%E5%85%BD%E5%8C%BB&src=vetmap&coordinate=gaode&callnative=1","route_id":"r1","route_name":"第1段","global_order":9},{"name":"上杭县优麦宠物医院(帝豪时代广场店)","address":"临城镇城西村二环西路1-5号","phone":"15860163266","category":"医疗保健服务;动物医疗场所;宠物诊所","area":"","lng":116.402878,"lat":25.05421,"amap_id":"B0GUXUBDCM","order":10,"prev_distance_km":0.272,"cumulative_distance_km":80.015,"amap_marker_url":"https://uri.amap.com/marker?position=116.402878,25.054210&name=%E4%B8%8A%E6%9D%AD%E5%8E%BF%E4%BC%98%E9%BA%A6%E5%AE%A0%E7%89%A9%E5%8C%BB%E9%99%A2%28%E5%B8%9D%E8%B1%AA%E6%97%B6%E4%BB%A3%E5%B9%BF%E5%9C%BA%E5%BA%97%29&src=vetmap&coordinate=gaode&callnative=1","route_id":"r1","route_name":"第1段","global_order":10},{"name":"炬丰动保","address":"中杭石化加油站(下都振鸿站)东北侧160米","phone":"","category":"医疗保健服务;动物医疗场所;动物医疗场所","area":"","lng":116.460098,"lat":24.818313,"amap_id":"B0L6ULSBZ2","order":11,"prev_distance_km":26.858,"cumulative_distance_km":106.873,"amap_marker_url":"https://uri.amap.com/marker?position=116.460098,24.818313&name=%E7%82%AC%E4%B8%B0%E5%8A%A8%E4%BF%9D&src=vetmap&coordinate=gaode&callnative=1","route_id":"r1","route_name":"第1段","global_order":11}]}