{"summary":{"id":"d01606","province":"福建省","city":"三明市","district":"清流县","count":6,"total_distance_km":53.319,"coordinate_system":"GCJ-02 / Amap","generated_at":"2026-05-07 20:24:03"},"rows":[{"name":"动物医院","address":"嵩北路与富民中路交叉口西60米","phone":"","category":"医疗保健服务;动物医疗场所;宠物诊所","area":"","lng":116.951407,"lat":26.263774,"amap_id":"B0KRM16V2Z","order":1,"prev_distance_km":0.0,"cumulative_distance_km":0.0,"amap_marker_url":"https://uri.amap.com/marker?position=116.951407,26.263774&name=%E5%8A%A8%E7%89%A9%E5%8C%BB%E9%99%A2&src=vetmap&coordinate=gaode&callnative=1"},{"name":"清流县嵩口畜牧兽医水产站","address":"解放街与解放路交叉口东南140米","phone":"","category":"医疗保健服务;动物医疗场所;兽医站","area":"","lng":116.8929,"lat":26.140328,"amap_id":"B0LKMS6NBP","order":2,"prev_distance_km":14.916,"cumulative_distance_km":14.916,"amap_marker_url":"https://uri.amap.com/marker?position=116.892900,26.140328&name=%E6%B8%85%E6%B5%81%E5%8E%BF%E5%B5%A9%E5%8F%A3%E7%95%9C%E7%89%A7%E5%85%BD%E5%8C%BB%E6%B0%B4%E4%BA%A7%E7%AB%99&src=vetmap&coordinate=gaode&callnative=1"},{"name":"鑫悦宠物诊所","address":"龙津镇北山路20号103室","phone":"18259778113","category":"医疗保健服务;动物医疗场所;宠物诊所","area":"","lng":116.808586,"lat":26.180437,"amap_id":"B0JK9OGIBQ","order":3,"prev_distance_km":9.524,"cumulative_distance_km":24.44,"amap_marker_url":"https://uri.amap.com/marker?position=116.808586,26.180437&name=%E9%91%AB%E6%82%A6%E5%AE%A0%E7%89%A9%E8%AF%8A%E6%89%80&src=vetmap&coordinate=gaode&callnative=1"},{"name":"贝乐宠物","address":"龙津镇碧林北路980号","phone":"18649657007","category":"医疗保健服务;动物医疗场所;宠物诊所","area":"","lng":116.805446,"lat":26.180736,"amap_id":"B0L1C966A6","order":4,"prev_distance_km":0.315,"cumulative_distance_km":24.755,"amap_marker_url":"https://uri.amap.com/marker?position=116.805446,26.180736&name=%E8%B4%9D%E4%B9%90%E5%AE%A0%E7%89%A9&src=vetmap&coordinate=gaode&callnative=1"},{"name":"清流县里田乡畜牧兽医站(暂停营业)","address":"安丰路与东安路交叉口西380米","phone":"","category":"医疗保健服务;动物医疗场所;兽医站","area":"","lng":116.7015,"lat":26.012068,"amap_id":"B0FFFY3ARW","order":5,"prev_distance_km":21.436,"cumulative_distance_km":46.191,"amap_marker_url":"https://uri.amap.com/marker?position=116.701500,26.012068&name=%E6%B8%85%E6%B5%81%E5%8E%BF%E9%87%8C%E7%94%B0%E4%B9%A1%E7%95%9C%E7%89%A7%E5%85%BD%E5%8C%BB%E7%AB%99%28%E6%9A%82%E5%81%9C%E8%90%A5%E4%B8%9A%29&src=vetmap&coordinate=gaode&callnative=1"},{"name":"校溪社区畜牧兽医站","address":"长校镇","phone":"","category":"医疗保健服务;动物医疗场所;兽医站","area":"","lng":116.719875,"lat":25.950125,"amap_id":"B0GRXX8CWW","order":6,"prev_distance_km":7.128,"cumulative_distance_km":53.319,"amap_marker_url":"https://uri.amap.com/marker?position=116.719875,25.950125&name=%E6%A0%A1%E6%BA%AA%E7%A4%BE%E5%8C%BA%E7%95%9C%E7%89%A7%E5%85%BD%E5%8C%BB%E7%AB%99&src=vetmap&coordinate=gaode&callnative=1"}]}