{"summary":{"id":"d01649","province":"福建省","city":"漳州市","district":"诏安县","count":5,"total_distance_km":2.807,"coordinate_system":"GCJ-02 / Amap","generated_at":"2026-05-07 19:58:19"},"rows":[{"name":"深桥兽医站","address":"南诏镇三角点谊安旅社旁边","phone":"","category":"医疗保健服务;动物医疗场所;兽医站","area":"","lng":117.154791,"lat":23.720849,"amap_id":"B0JUMSZP8P","order":1,"prev_distance_km":0.0,"cumulative_distance_km":0.0,"amap_marker_url":"https://uri.amap.com/marker?position=117.154791,23.720849&name=%E6%B7%B1%E6%A1%A5%E5%85%BD%E5%8C%BB%E7%AB%99&src=vetmap&coordinate=gaode&callnative=1"},{"name":"汪佳宠物生活馆","address":"康华路6号","phone":"13123326842","category":"医疗保健服务;动物医疗场所;宠物诊所","area":"","lng":117.171427,"lat":23.71397,"amap_id":"B0FFKKCRVJ","order":2,"prev_distance_km":1.858,"cumulative_distance_km":1.858,"amap_marker_url":"https://uri.amap.com/marker?position=117.171427,23.713970&name=%E6%B1%AA%E4%BD%B3%E5%AE%A0%E7%89%A9%E7%94%9F%E6%B4%BB%E9%A6%86&src=vetmap&coordinate=gaode&callnative=1"},{"name":"汪佳宠物医院(益宠轩连锁.诏安24h急诊中心)","address":"南诏镇康华路5号","phone":"13123326842;18396493558;19359359120","category":"医疗保健服务;动物医疗场所;宠物诊所","area":"","lng":117.171369,"lat":23.713848,"amap_id":"B0H0RSDJ04","order":3,"prev_distance_km":0.015,"cumulative_distance_km":1.873,"amap_marker_url":"https://uri.amap.com/marker?position=117.171369,23.713848&name=%E6%B1%AA%E4%BD%B3%E5%AE%A0%E7%89%A9%E5%8C%BB%E9%99%A2%28%E7%9B%8A%E5%AE%A0%E8%BD%A9%E8%BF%9E%E9%94%81.%E8%AF%8F%E5%AE%8924h%E6%80%A5%E8%AF%8A%E4%B8%AD%E5%BF%83%29&src=vetmap&coordinate=gaode&callnative=1"},{"name":"众联动物医院(诏安店)","address":"嘉盛豪园1栋111-112号","phone":"15260614991;18405928271","category":"医疗保健服务;动物医疗场所;宠物诊所","area":"","lng":117.168992,"lat":23.71005,"amap_id":"B0IU7HLH0J","order":4,"prev_distance_km":0.487,"cumulative_distance_km":2.36,"amap_marker_url":"https://uri.amap.com/marker?position=117.168992,23.710050&name=%E4%BC%97%E8%81%94%E5%8A%A8%E7%89%A9%E5%8C%BB%E9%99%A2%28%E8%AF%8F%E5%AE%89%E5%BA%97%29&src=vetmap&coordinate=gaode&callnative=1"},{"name":"福贵宠物","address":"南诏镇光良街玉峰南路15号安居工程10幢106室","phone":"15060506400","category":"医疗保健服务;动物医疗场所;动物医疗场所","area":"","lng":117.173157,"lat":23.708788,"amap_id":"B0J1BYOV5G","order":5,"prev_distance_km":0.447,"cumulative_distance_km":2.807,"amap_marker_url":"https://uri.amap.com/marker?position=117.173157,23.708788&name=%E7%A6%8F%E8%B4%B5%E5%AE%A0%E7%89%A9&src=vetmap&coordinate=gaode&callnative=1"}]}