{"summary":{"id":"d01682","province":"辽宁省","city":"丹东市","district":"振兴区","count":22,"total_distance_km":23.001,"coordinate_system":"GCJ-02 / Amap","generated_at":"2026-05-07 20:24:14"},"rows":[{"name":"康缘动物医院","address":"江城大街111-6号","phone":"15641536178","category":"医疗保健服务;动物医疗场所;宠物诊所","area":"","lng":124.397341,"lat":40.130206,"amap_id":"B0J1M7WPVR","order":1,"prev_distance_km":0.0,"cumulative_distance_km":0.0,"amap_marker_url":"https://uri.amap.com/marker?position=124.397341,40.130206&name=%E5%BA%B7%E7%BC%98%E5%8A%A8%E7%89%A9%E5%8C%BB%E9%99%A2&src=vetmap&coordinate=gaode&callnative=1"},{"name":"酷狗宠物高级会所","address":"金桥小区4号楼坝岗路30号","phone":"0415-2888119","category":"医疗保健服务;动物医疗场所;宠物诊所","area":"","lng":124.390364,"lat":40.134376,"amap_id":"B0FFG2YNRW","order":2,"prev_distance_km":0.753,"cumulative_distance_km":0.753,"amap_marker_url":"https://uri.amap.com/marker?position=124.390364,40.134376&name=%E9%85%B7%E7%8B%97%E5%AE%A0%E7%89%A9%E9%AB%98%E7%BA%A7%E4%BC%9A%E6%89%80&src=vetmap&coordinate=gaode&callnative=1"},{"name":"丹东市长明动物医院","address":"十经街14号楼101室(230幼儿园对面)","phone":"0415-2388266","category":"医疗保健服务;动物医疗场所;宠物诊所","area":"六纬路","lng":124.38901,"lat":40.131231,"amap_id":"B0FFLCD9P1","order":3,"prev_distance_km":0.368,"cumulative_distance_km":1.121,"amap_marker_url":"https://uri.amap.com/marker?position=124.389010,40.131231&name=%E4%B8%B9%E4%B8%9C%E5%B8%82%E9%95%BF%E6%98%8E%E5%8A%A8%E7%89%A9%E5%8C%BB%E9%99%A2&src=vetmap&coordinate=gaode&callnative=1"},{"name":"养犬协会动物诊所","address":"五纬路101号","phone":"0415-2122883;13009200230","category":"医疗保健服务;动物医疗场所;宠物诊所","area":"六纬路","lng":124.390196,"lat":40.130539,"amap_id":"B019F0OSL1","order":4,"prev_distance_km":0.127,"cumulative_distance_km":1.248,"amap_marker_url":"https://uri.amap.com/marker?position=124.390196,40.130539&name=%E5%85%BB%E7%8A%AC%E5%8D%8F%E4%BC%9A%E5%8A%A8%E7%89%A9%E8%AF%8A%E6%89%80&src=vetmap&coordinate=gaode&callnative=1"},{"name":"伴侣动物诊所","address":"兴二路1-3号","phone":"0415-3175610","category":"医疗保健服务;动物医疗场所;宠物诊所","area":"","lng":124.380919,"lat":40.122778,"amap_id":"B0FFF63VMR","order":5,"prev_distance_km":1.169,"cumulative_distance_km":2.417,"amap_marker_url":"https://uri.amap.com/marker?position=124.380919,40.122778&name=%E4%BC%B4%E4%BE%A3%E5%8A%A8%E7%89%A9%E8%AF%8A%E6%89%80&src=vetmap&coordinate=gaode&callnative=1"},{"name":"旺得福动物医院","address":"锦山大街与兴三路交叉口西南100米","phone":"13760000814","category":"医疗保健服务;动物医疗场所;宠物诊所","area":"","lng":124.379952,"lat":40.121243,"amap_id":"B0K6FROVW8","order":6,"prev_distance_km":0.189,"cumulative_distance_km":2.606,"amap_marker_url":"https://uri.amap.com/marker?position=124.379952,40.121243&name=%E6%97%BA%E5%BE%97%E7%A6%8F%E5%8A%A8%E7%89%A9%E5%8C%BB%E9%99%A2&src=vetmap&coordinate=gaode&callnative=1"},{"name":"爱迪宠物生活馆","address":"兴五路59-12号","phone":"","category":"医疗保健服务;动物医疗场所;动物医疗场所","area":"永昌","lng":124.37691,"lat":40.121399,"amap_id":"B0FFFFNM2K","order":7,"prev_distance_km":0.259,"cumulative_distance_km":2.866,"amap_marker_url":"https://uri.amap.com/marker?position=124.376910,40.121399&name=%E7%88%B1%E8%BF%AA%E5%AE%A0%E7%89%A9%E7%94%9F%E6%B4%BB%E9%A6%86&src=vetmap&coordinate=gaode&callnative=1"},{"name":"乖宝贝动物医院","address":"山上街阳光小区1-107室","phone":"0415-2310280;18341518121","category":"医疗保健服务;动物医疗场所;宠物诊所","area":"","lng":124.368562,"lat":40.119917,"amap_id":"B019F018X7","order":8,"prev_distance_km":0.729,"cumulative_distance_km":3.594,"amap_marker_url":"https://uri.amap.com/marker?position=124.368562,40.119917&name=%E4%B9%96%E5%AE%9D%E8%B4%9D%E5%8A%A8%E7%89%A9%E5%8C%BB%E9%99%A2&src=vetmap&coordinate=gaode&callnative=1"},{"name":"帕维尔动物诊疗中心","address":"兴七路1-21-4","phone":"17609836373","category":"医疗保健服务;动物医疗场所;宠物诊所","area":"","lng":124.380738,"lat":40.112689,"amap_id":"B0LDVZ3NUV","order":9,"prev_distance_km":1.311,"cumulative_distance_km":4.905,"amap_marker_url":"https://uri.amap.com/marker?position=124.380738,40.112689&name=%E5%B8%95%E7%BB%B4%E5%B0%94%E5%8A%A8%E7%89%A9%E8%AF%8A%E7%96%97%E4%B8%AD%E5%BF%83&src=vetmap&coordinate=gaode&callnative=1"},{"name":"九九动物医院","address":"体育馆路17-7号","phone":"0415-6699766;15714152266","category":"医疗保健服务;动物医疗场所;宠物诊所","area":"","lng":124.372724,"lat":40.111598,"amap_id":"B0K359L14C","order":10,"prev_distance_km":0.692,"cumulative_distance_km":5.597,"amap_marker_url":"https://uri.amap.com/marker?position=124.372724,40.111598&name=%E4%B9%9D%E4%B9%9D%E5%8A%A8%E7%89%A9%E5%8C%BB%E9%99%A2&src=vetmap&coordinate=gaode&callnative=1"},{"name":"加禾动物医院","address":"青年大街135-25号","phone":"18104951699","category":"医疗保健服务;动物医疗场所;宠物诊所","area":"","lng":124.372286,"lat":40.109057,"amap_id":"B0K09130KE","order":11,"prev_distance_km":0.285,"cumulative_distance_km":5.882,"amap_marker_url":"https://uri.amap.com/marker?position=124.372286,40.109057&name=%E5%8A%A0%E7%A6%BE%E5%8A%A8%E7%89%A9%E5%8C%BB%E9%99%A2&src=vetmap&coordinate=gaode&callnative=1"},{"name":"乐派动物医院宠物店","address":"大众路12号(六道沟消防队正对面)","phone":"","category":"医疗保健服务;动物医疗场所;宠物诊所","area":"","lng":124.365459,"lat":40.108025,"amap_id":"B0K6MABMRU","order":12,"prev_distance_km":0.592,"cumulative_distance_km":6.474,"amap_marker_url":"https://uri.amap.com/marker?position=124.365459,40.108025&name=%E4%B9%90%E6%B4%BE%E5%8A%A8%E7%89%A9%E5%8C%BB%E9%99%A2%E5%AE%A0%E7%89%A9%E5%BA%97&src=vetmap&coordinate=gaode&callnative=1"},{"name":"恩雅宠物医院","address":"立交新路45-2底商","phone":"15541888149;16642501580","category":"医疗保健服务;动物医疗场所;宠物诊所","area":"","lng":124.361606,"lat":40.109946,"amap_id":"B0I2GZAJ40","order":13,"prev_distance_km":0.391,"cumulative_distance_km":6.865,"amap_marker_url":"https://uri.amap.com/marker?position=124.361606,40.109946&name=%E6%81%A9%E9%9B%85%E5%AE%A0%E7%89%A9%E5%8C%BB%E9%99%A2&src=vetmap&coordinate=gaode&callnative=1"},{"name":"丹东市动物检疫申报中心","address":"桃源新区(花园路)西南侧120米","phone":"","category":"医疗保健服务;动物医疗场所;宠物诊所","area":"","lng":124.359721,"lat":40.114901,"amap_id":"B0KBRLQYON","order":14,"prev_distance_km":0.574,"cumulative_distance_km":7.439,"amap_marker_url":"https://uri.amap.com/marker?position=124.359721,40.114901&name=%E4%B8%B9%E4%B8%9C%E5%B8%82%E5%8A%A8%E7%89%A9%E6%A3%80%E7%96%AB%E7%94%B3%E6%8A%A5%E4%B8%AD%E5%BF%83&src=vetmap&coordinate=gaode&callnative=1"},{"name":"大嘴狗动物医院","address":"春一路40-3号","phone":"0415-3141555;13050371992","category":"医疗保健服务;动物医疗场所;宠物诊所","area":"","lng":124.359542,"lat":40.109058,"amap_id":"B0FFMFJFK4","order":15,"prev_distance_km":0.65,"cumulative_distance_km":8.089,"amap_marker_url":"https://uri.amap.com/marker?position=124.359542,40.109058&name=%E5%A4%A7%E5%98%B4%E7%8B%97%E5%8A%A8%E7%89%A9%E5%8C%BB%E9%99%A2&src=vetmap&coordinate=gaode&callnative=1"},{"name":"丹东市瑞康动物医院","address":"41号S1-322-2","phone":"13234157222","category":"医疗保健服务;动物医疗场所;宠物诊所","area":"","lng":124.359357,"lat":40.105007,"amap_id":"B0K3YZ8ZTL","order":16,"prev_distance_km":0.451,"cumulative_distance_km":8.54,"amap_marker_url":"https://uri.amap.com/marker?position=124.359357,40.105007&name=%E4%B8%B9%E4%B8%9C%E5%B8%82%E7%91%9E%E5%BA%B7%E5%8A%A8%E7%89%A9%E5%8C%BB%E9%99%A2&src=vetmap&coordinate=gaode&callnative=1"},{"name":"博恩动物医院","address":"振兴区锦山大街和谐家园355-1-3","phone":"","category":"医疗保健服务;动物医疗场所;宠物诊所","area":"春五路","lng":124.355831,"lat":40.098821,"amap_id":"B0LU45L5T6","order":17,"prev_distance_km":0.75,"cumulative_distance_km":9.29,"amap_marker_url":"https://uri.amap.com/marker?position=124.355831,40.098821&name=%E5%8D%9A%E6%81%A9%E5%8A%A8%E7%89%A9%E5%8C%BB%E9%99%A2&src=vetmap&coordinate=gaode&callnative=1"},{"name":"帽盔山动物诊所","address":"人民桥小区1号楼","phone":"13942599528","category":"医疗保健服务;动物医疗场所;宠物诊所","area":"","lng":124.355051,"lat":40.097794,"amap_id":"B019F01BFH","order":18,"prev_distance_km":0.132,"cumulative_distance_km":9.422,"amap_marker_url":"https://uri.amap.com/marker?position=124.355051,40.097794&name=%E5%B8%BD%E7%9B%94%E5%B1%B1%E5%8A%A8%E7%89%A9%E8%AF%8A%E6%89%80&src=vetmap&coordinate=gaode&callnative=1"},{"name":"动物诊所","address":"国桢路11号国桢红房新区40号","phone":"18641587282","category":"医疗保健服务;动物医疗场所;兽医站","area":"","lng":124.348883,"lat":40.098678,"amap_id":"B0FFJ49OBS","order":19,"prev_distance_km":0.534,"cumulative_distance_km":9.956,"amap_marker_url":"https://uri.amap.com/marker?position=124.348883,40.098678&name=%E5%8A%A8%E7%89%A9%E8%AF%8A%E6%89%80&src=vetmap&coordinate=gaode&callnative=1"},{"name":"宠物门诊","address":"红房新区东区南2门西70米","phone":"0415-6180155;13842570398","category":"医疗保健服务;动物医疗场所;宠物诊所","area":"","lng":124.348956,"lat":40.098603,"amap_id":"B0FFF49INT","order":20,"prev_distance_km":0.01,"cumulative_distance_km":9.966,"amap_marker_url":"https://uri.amap.com/marker?position=124.348956,40.098603&name=%E5%AE%A0%E7%89%A9%E9%97%A8%E8%AF%8A&src=vetmap&coordinate=gaode&callnative=1"},{"name":"惠生宠物诊所","address":"英才街19-5","phone":"13050355657","category":"医疗保健服务;动物医疗场所;宠物诊所","area":"","lng":124.342092,"lat":40.012522,"amap_id":"B0JR4REEDS","order":21,"prev_distance_km":9.59,"cumulative_distance_km":19.556,"amap_marker_url":"https://uri.amap.com/marker?position=124.342092,40.012522&name=%E6%83%A0%E7%94%9F%E5%AE%A0%E7%89%A9%E8%AF%8A%E6%89%80&src=vetmap&coordinate=gaode&callnative=1"},{"name":"丹东边境经济合作区林旭斌动物诊所","address":"金安村宫家屯139-4","phone":"13050316961;13278107499","category":"医疗保健服务;动物医疗场所;宠物诊所","area":"","lng":124.308855,"lat":39.994872,"amap_id":"B0JRC56K4L","order":22,"prev_distance_km":3.445,"cumulative_distance_km":23.001,"amap_marker_url":"https://uri.amap.com/marker?position=124.308855,39.994872&name=%E4%B8%B9%E4%B8%9C%E8%BE%B9%E5%A2%83%E7%BB%8F%E6%B5%8E%E5%90%88%E4%BD%9C%E5%8C%BA%E6%9E%97%E6%97%AD%E6%96%8C%E5%8A%A8%E7%89%A9%E8%AF%8A%E6%89%80&src=vetmap&coordinate=gaode&callnative=1"}]}