{"summary":{"id":"d01681","province":"辽宁省","city":"丹东市","district":"宽甸满族自治县","count":12,"route_count":1,"max_route_clinics":12,"total_distance_km":73.169,"coordinate_system":"GCJ-02 / Amap","generated_at":"2026-05-08 19:48:38"},"routes":[{"id":"r1","name":"第1段","count":12,"total_distance_km":73.169,"rows":[{"name":"宽甸满族自治县灌水镇畜牧兽医站","address":"灌水镇车轱辘泡村202省道","phone":"0415-5192120","category":"医疗保健服务;动物医疗场所;兽医站","area":"","lng":124.574987,"lat":40.880626,"amap_id":"B019F02MUE","order":1,"prev_distance_km":0.0,"cumulative_distance_km":0.0,"amap_marker_url":"https://uri.amap.com/marker?position=124.574987,40.880626&name=%E5%AE%BD%E7%94%B8%E6%BB%A1%E6%97%8F%E8%87%AA%E6%B2%BB%E5%8E%BF%E7%81%8C%E6%B0%B4%E9%95%87%E7%95%9C%E7%89%A7%E5%85%BD%E5%8C%BB%E7%AB%99&src=vetmap&coordinate=gaode&callnative=1","route_id":"r1","route_name":"第1段"},{"name":"盛爱康宠物医院中心","address":"盛爱康宠物诊疗中心","phone":"13841476713","category":"医疗保健服务;动物医疗场所;宠物诊所","area":"","lng":124.780101,"lat":40.736957,"amap_id":"B0KK2SFFLI","order":2,"prev_distance_km":23.521,"cumulative_distance_km":23.521,"amap_marker_url":"https://uri.amap.com/marker?position=124.780101,40.736957&name=%E7%9B%9B%E7%88%B1%E5%BA%B7%E5%AE%A0%E7%89%A9%E5%8C%BB%E9%99%A2%E4%B8%AD%E5%BF%83&src=vetmap&coordinate=gaode&callnative=1","route_id":"r1","route_name":"第1段"},{"name":"丰隆动物诊所","address":"宽甸镇西门外小学东阳光金地园西门对面","phone":"13841573880;15841573567","category":"医疗保健服务;动物医疗场所;宠物诊所","area":"","lng":124.777708,"lat":40.734269,"amap_id":"B0FFFZ3SFV","order":3,"prev_distance_km":0.361,"cumulative_distance_km":23.881,"amap_marker_url":"https://uri.amap.com/marker?position=124.777708,40.734269&name=%E4%B8%B0%E9%9A%86%E5%8A%A8%E7%89%A9%E8%AF%8A%E6%89%80&src=vetmap&coordinate=gaode&callnative=1","route_id":"r1","route_name":"第1段"},{"name":"益康宠物","address":"阳光金地园南门旁","phone":"17804153220","category":"医疗保健服务;动物医疗场所;宠物诊所","area":"","lng":124.779548,"lat":40.733169,"amap_id":"B0J04160NV","order":4,"prev_distance_km":0.197,"cumulative_distance_km":24.079,"amap_marker_url":"https://uri.amap.com/marker?position=124.779548,40.733169&name=%E7%9B%8A%E5%BA%B7%E5%AE%A0%E7%89%A9&src=vetmap&coordinate=gaode&callnative=1","route_id":"r1","route_name":"第1段"},{"name":"名扬宠物诊所","address":"盛孚花园东北门东100米","phone":"13104156083","category":"医疗保健服务;动物医疗场所;宠物诊所","area":"","lng":124.784595,"lat":40.735614,"amap_id":"B0FFH36KJ2","order":5,"prev_distance_km":0.505,"cumulative_distance_km":24.583,"amap_marker_url":"https://uri.amap.com/marker?position=124.784595,40.735614&name=%E5%90%8D%E6%89%AC%E5%AE%A0%E7%89%A9%E8%AF%8A%E6%89%80&src=vetmap&coordinate=gaode&callnative=1","route_id":"r1","route_name":"第1段"},{"name":"中爱联盟宽甸县永辉动物诊所","address":"东环路364号(东升蔬菜水果超市对面)","phone":"0415-5658910;13204158910","category":"医疗保健服务;动物医疗场所;宠物诊所","area":"","lng":124.790712,"lat":40.731702,"amap_id":"B0FFFZ5MRX","order":6,"prev_distance_km":0.674,"cumulative_distance_km":25.258,"amap_marker_url":"https://uri.amap.com/marker?position=124.790712,40.731702&name=%E4%B8%AD%E7%88%B1%E8%81%94%E7%9B%9F%E5%AE%BD%E7%94%B8%E5%8E%BF%E6%B0%B8%E8%BE%89%E5%8A%A8%E7%89%A9%E8%AF%8A%E6%89%80&src=vetmap&coordinate=gaode&callnative=1","route_id":"r1","route_name":"第1段"},{"name":"小姜动物诊所","address":"府前东街80号","phone":"13470049734","category":"医疗保健服务;动物医疗场所;宠物诊所","area":"","lng":124.788664,"lat":40.730074,"amap_id":"B0FFKWBAZ3","order":7,"prev_distance_km":0.25,"cumulative_distance_km":25.508,"amap_marker_url":"https://uri.amap.com/marker?position=124.788664,40.730074&name=%E5%B0%8F%E5%A7%9C%E5%8A%A8%E7%89%A9%E8%AF%8A%E6%89%80&src=vetmap&coordinate=gaode&callnative=1","route_id":"r1","route_name":"第1段"},{"name":"宽甸县小动物流行病诊疗中心","address":"府前东街与新开路交叉口东南60米","phone":"","category":"医疗保健服务;动物医疗场所;动物医疗场所","area":"","lng":124.788576,"lat":40.730015,"amap_id":"B0G0ARYBCQ","order":8,"prev_distance_km":0.01,"cumulative_distance_km":25.518,"amap_marker_url":"https://uri.amap.com/marker?position=124.788576,40.730015&name=%E5%AE%BD%E7%94%B8%E5%8E%BF%E5%B0%8F%E5%8A%A8%E7%89%A9%E6%B5%81%E8%A1%8C%E7%97%85%E8%AF%8A%E7%96%97%E4%B8%AD%E5%BF%83&src=vetmap&coordinate=gaode&callnative=1","route_id":"r1","route_name":"第1段"},{"name":"宽甸县城乡兽医站","address":"202省道与董鄂妃街交叉口西南60米","phone":"0415-5674517","category":"医疗保健服务;动物医疗场所;兽医站","area":"","lng":124.786271,"lat":40.721449,"amap_id":"B019F02Q90","order":9,"prev_distance_km":0.972,"cumulative_distance_km":26.49,"amap_marker_url":"https://uri.amap.com/marker?position=124.786271,40.721449&name=%E5%AE%BD%E7%94%B8%E5%8E%BF%E5%9F%8E%E4%B9%A1%E5%85%BD%E5%8C%BB%E7%AB%99&src=vetmap&coordinate=gaode&callnative=1","route_id":"r1","route_name":"第1段"},{"name":"宽甸兽医站门诊","address":"202省道与董鄂妃街交叉口西南100米","phone":"13019809336","category":"医疗保健服务;动物医疗场所;兽医站","area":"","lng":124.786398,"lat":40.721066,"amap_id":"B019F02Q93","order":10,"prev_distance_km":0.044,"cumulative_distance_km":26.534,"amap_marker_url":"https://uri.amap.com/marker?position=124.786398,40.721066&name=%E5%AE%BD%E7%94%B8%E5%85%BD%E5%8C%BB%E7%AB%99%E9%97%A8%E8%AF%8A&src=vetmap&coordinate=gaode&callnative=1","route_id":"r1","route_name":"第1段"},{"name":"幸盛塬兽药店","address":"宽甸满族自治县红石镇人民政府西北侧60米","phone":"","category":"医疗保健服务;动物医疗场所;动物医疗场所","area":"","lng":125.017025,"lat":40.665725,"amap_id":"B0LDYKEZB9","order":11,"prev_distance_km":20.394,"cumulative_distance_km":46.928,"amap_marker_url":"https://uri.amap.com/marker?position=125.017025,40.665725&name=%E5%B9%B8%E7%9B%9B%E5%A1%AC%E5%85%BD%E8%8D%AF%E5%BA%97&src=vetmap&coordinate=gaode&callnative=1","route_id":"r1","route_name":"第1段"},{"name":"长甸兽医站","address":"长大线与331国道交叉口东60米","phone":"13704956353","category":"医疗保健服务;动物医疗场所;兽医站","area":"","lng":124.817908,"lat":40.484574,"amap_id":"B0FFG8YO51","order":12,"prev_distance_km":26.24,"cumulative_distance_km":73.169,"amap_marker_url":"https://uri.amap.com/marker?position=124.817908,40.484574&name=%E9%95%BF%E7%94%B8%E5%85%BD%E5%8C%BB%E7%AB%99&src=vetmap&coordinate=gaode&callnative=1","route_id":"r1","route_name":"第1段"}]}],"rows":[{"name":"宽甸满族自治县灌水镇畜牧兽医站","address":"灌水镇车轱辘泡村202省道","phone":"0415-5192120","category":"医疗保健服务;动物医疗场所;兽医站","area":"","lng":124.574987,"lat":40.880626,"amap_id":"B019F02MUE","order":1,"prev_distance_km":0.0,"cumulative_distance_km":0.0,"amap_marker_url":"https://uri.amap.com/marker?position=124.574987,40.880626&name=%E5%AE%BD%E7%94%B8%E6%BB%A1%E6%97%8F%E8%87%AA%E6%B2%BB%E5%8E%BF%E7%81%8C%E6%B0%B4%E9%95%87%E7%95%9C%E7%89%A7%E5%85%BD%E5%8C%BB%E7%AB%99&src=vetmap&coordinate=gaode&callnative=1","route_id":"r1","route_name":"第1段","global_order":1},{"name":"盛爱康宠物医院中心","address":"盛爱康宠物诊疗中心","phone":"13841476713","category":"医疗保健服务;动物医疗场所;宠物诊所","area":"","lng":124.780101,"lat":40.736957,"amap_id":"B0KK2SFFLI","order":2,"prev_distance_km":23.521,"cumulative_distance_km":23.521,"amap_marker_url":"https://uri.amap.com/marker?position=124.780101,40.736957&name=%E7%9B%9B%E7%88%B1%E5%BA%B7%E5%AE%A0%E7%89%A9%E5%8C%BB%E9%99%A2%E4%B8%AD%E5%BF%83&src=vetmap&coordinate=gaode&callnative=1","route_id":"r1","route_name":"第1段","global_order":2},{"name":"丰隆动物诊所","address":"宽甸镇西门外小学东阳光金地园西门对面","phone":"13841573880;15841573567","category":"医疗保健服务;动物医疗场所;宠物诊所","area":"","lng":124.777708,"lat":40.734269,"amap_id":"B0FFFZ3SFV","order":3,"prev_distance_km":0.361,"cumulative_distance_km":23.881,"amap_marker_url":"https://uri.amap.com/marker?position=124.777708,40.734269&name=%E4%B8%B0%E9%9A%86%E5%8A%A8%E7%89%A9%E8%AF%8A%E6%89%80&src=vetmap&coordinate=gaode&callnative=1","route_id":"r1","route_name":"第1段","global_order":3},{"name":"益康宠物","address":"阳光金地园南门旁","phone":"17804153220","category":"医疗保健服务;动物医疗场所;宠物诊所","area":"","lng":124.779548,"lat":40.733169,"amap_id":"B0J04160NV","order":4,"prev_distance_km":0.197,"cumulative_distance_km":24.079,"amap_marker_url":"https://uri.amap.com/marker?position=124.779548,40.733169&name=%E7%9B%8A%E5%BA%B7%E5%AE%A0%E7%89%A9&src=vetmap&coordinate=gaode&callnative=1","route_id":"r1","route_name":"第1段","global_order":4},{"name":"名扬宠物诊所","address":"盛孚花园东北门东100米","phone":"13104156083","category":"医疗保健服务;动物医疗场所;宠物诊所","area":"","lng":124.784595,"lat":40.735614,"amap_id":"B0FFH36KJ2","order":5,"prev_distance_km":0.505,"cumulative_distance_km":24.583,"amap_marker_url":"https://uri.amap.com/marker?position=124.784595,40.735614&name=%E5%90%8D%E6%89%AC%E5%AE%A0%E7%89%A9%E8%AF%8A%E6%89%80&src=vetmap&coordinate=gaode&callnative=1","route_id":"r1","route_name":"第1段","global_order":5},{"name":"中爱联盟宽甸县永辉动物诊所","address":"东环路364号(东升蔬菜水果超市对面)","phone":"0415-5658910;13204158910","category":"医疗保健服务;动物医疗场所;宠物诊所","area":"","lng":124.790712,"lat":40.731702,"amap_id":"B0FFFZ5MRX","order":6,"prev_distance_km":0.674,"cumulative_distance_km":25.258,"amap_marker_url":"https://uri.amap.com/marker?position=124.790712,40.731702&name=%E4%B8%AD%E7%88%B1%E8%81%94%E7%9B%9F%E5%AE%BD%E7%94%B8%E5%8E%BF%E6%B0%B8%E8%BE%89%E5%8A%A8%E7%89%A9%E8%AF%8A%E6%89%80&src=vetmap&coordinate=gaode&callnative=1","route_id":"r1","route_name":"第1段","global_order":6},{"name":"小姜动物诊所","address":"府前东街80号","phone":"13470049734","category":"医疗保健服务;动物医疗场所;宠物诊所","area":"","lng":124.788664,"lat":40.730074,"amap_id":"B0FFKWBAZ3","order":7,"prev_distance_km":0.25,"cumulative_distance_km":25.508,"amap_marker_url":"https://uri.amap.com/marker?position=124.788664,40.730074&name=%E5%B0%8F%E5%A7%9C%E5%8A%A8%E7%89%A9%E8%AF%8A%E6%89%80&src=vetmap&coordinate=gaode&callnative=1","route_id":"r1","route_name":"第1段","global_order":7},{"name":"宽甸县小动物流行病诊疗中心","address":"府前东街与新开路交叉口东南60米","phone":"","category":"医疗保健服务;动物医疗场所;动物医疗场所","area":"","lng":124.788576,"lat":40.730015,"amap_id":"B0G0ARYBCQ","order":8,"prev_distance_km":0.01,"cumulative_distance_km":25.518,"amap_marker_url":"https://uri.amap.com/marker?position=124.788576,40.730015&name=%E5%AE%BD%E7%94%B8%E5%8E%BF%E5%B0%8F%E5%8A%A8%E7%89%A9%E6%B5%81%E8%A1%8C%E7%97%85%E8%AF%8A%E7%96%97%E4%B8%AD%E5%BF%83&src=vetmap&coordinate=gaode&callnative=1","route_id":"r1","route_name":"第1段","global_order":8},{"name":"宽甸县城乡兽医站","address":"202省道与董鄂妃街交叉口西南60米","phone":"0415-5674517","category":"医疗保健服务;动物医疗场所;兽医站","area":"","lng":124.786271,"lat":40.721449,"amap_id":"B019F02Q90","order":9,"prev_distance_km":0.972,"cumulative_distance_km":26.49,"amap_marker_url":"https://uri.amap.com/marker?position=124.786271,40.721449&name=%E5%AE%BD%E7%94%B8%E5%8E%BF%E5%9F%8E%E4%B9%A1%E5%85%BD%E5%8C%BB%E7%AB%99&src=vetmap&coordinate=gaode&callnative=1","route_id":"r1","route_name":"第1段","global_order":9},{"name":"宽甸兽医站门诊","address":"202省道与董鄂妃街交叉口西南100米","phone":"13019809336","category":"医疗保健服务;动物医疗场所;兽医站","area":"","lng":124.786398,"lat":40.721066,"amap_id":"B019F02Q93","order":10,"prev_distance_km":0.044,"cumulative_distance_km":26.534,"amap_marker_url":"https://uri.amap.com/marker?position=124.786398,40.721066&name=%E5%AE%BD%E7%94%B8%E5%85%BD%E5%8C%BB%E7%AB%99%E9%97%A8%E8%AF%8A&src=vetmap&coordinate=gaode&callnative=1","route_id":"r1","route_name":"第1段","global_order":10},{"name":"幸盛塬兽药店","address":"宽甸满族自治县红石镇人民政府西北侧60米","phone":"","category":"医疗保健服务;动物医疗场所;动物医疗场所","area":"","lng":125.017025,"lat":40.665725,"amap_id":"B0LDYKEZB9","order":11,"prev_distance_km":20.394,"cumulative_distance_km":46.928,"amap_marker_url":"https://uri.amap.com/marker?position=125.017025,40.665725&name=%E5%B9%B8%E7%9B%9B%E5%A1%AC%E5%85%BD%E8%8D%AF%E5%BA%97&src=vetmap&coordinate=gaode&callnative=1","route_id":"r1","route_name":"第1段","global_order":11},{"name":"长甸兽医站","address":"长大线与331国道交叉口东60米","phone":"13704956353","category":"医疗保健服务;动物医疗场所;兽医站","area":"","lng":124.817908,"lat":40.484574,"amap_id":"B0FFG8YO51","order":12,"prev_distance_km":26.24,"cumulative_distance_km":73.169,"amap_marker_url":"https://uri.amap.com/marker?position=124.817908,40.484574&name=%E9%95%BF%E7%94%B8%E5%85%BD%E5%8C%BB%E7%AB%99&src=vetmap&coordinate=gaode&callnative=1","route_id":"r1","route_name":"第1段","global_order":12}]}