{"summary":{"id":"d01661","province":"福建省","city":"福州市","district":"长乐区","count":11,"total_distance_km":21.227,"coordinate_system":"GCJ-02 / Amap","generated_at":"2026-05-07 20:24:10"},"rows":[{"name":"宠物门诊","address":"振兴路与鹤梅线交叉口南100米","phone":"","category":"医疗保健服务;动物医疗场所;宠物诊所","area":"福州新区","lng":119.630934,"lat":25.978031,"amap_id":"B0FFH4UCKX","order":1,"prev_distance_km":0.0,"cumulative_distance_km":0.0,"amap_marker_url":"https://uri.amap.com/marker?position=119.630934,25.978031&name=%E5%AE%A0%E7%89%A9%E9%97%A8%E8%AF%8A&src=vetmap&coordinate=gaode&callnative=1"},{"name":"宠物护理","address":"胪峰大道与星光路交叉口北380米","phone":"","category":"医疗保健服务;动物医疗场所;宠物诊所","area":"福州新区","lng":119.625723,"lat":25.978595,"amap_id":"B0K35UDT1P","order":2,"prev_distance_km":0.525,"cumulative_distance_km":0.525,"amap_marker_url":"https://uri.amap.com/marker?position=119.625723,25.978595&name=%E5%AE%A0%E7%89%A9%E6%8A%A4%E7%90%86&src=vetmap&coordinate=gaode&callnative=1"},{"name":"博旺宠物诊疗中心(金峰店)","address":"金峰镇六林村军民路10-6-7号","phone":"18559162622","category":"医疗保健服务;动物医疗场所;宠物诊所","area":"福州新区","lng":119.621733,"lat":25.971857,"amap_id":"B0FFJKZDEE","order":3,"prev_distance_km":0.849,"cumulative_distance_km":1.373,"amap_marker_url":"https://uri.amap.com/marker?position=119.621733,25.971857&name=%E5%8D%9A%E6%97%BA%E5%AE%A0%E7%89%A9%E8%AF%8A%E7%96%97%E4%B8%AD%E5%BF%83%28%E9%87%91%E5%B3%B0%E5%BA%97%29&src=vetmap&coordinate=gaode&callnative=1"},{"name":"流浪之家诊所","address":"金峰镇施朱村","phone":"13625045458;19050103357","category":"医疗保健服务;动物医疗场所;宠物诊所","area":"福州新区","lng":119.634225,"lat":25.955975,"amap_id":"B0K31AJENR","order":4,"prev_distance_km":2.163,"cumulative_distance_km":3.536,"amap_marker_url":"https://uri.amap.com/marker?position=119.634225,25.955975&name=%E6%B5%81%E6%B5%AA%E4%B9%8B%E5%AE%B6%E8%AF%8A%E6%89%80&src=vetmap&coordinate=gaode&callnative=1"},{"name":"长乐区动物检疫申报点","address":"鹤文线北150米","phone":"","category":"医疗保健服务;动物医疗场所;动物医疗场所","area":"","lng":119.565532,"lat":25.934956,"amap_id":"B0FFK4V3I6","order":5,"prev_distance_km":7.255,"cumulative_distance_km":10.792,"amap_marker_url":"https://uri.amap.com/marker?position=119.565532,25.934956&name=%E9%95%BF%E4%B9%90%E5%8C%BA%E5%8A%A8%E7%89%A9%E6%A3%80%E7%96%AB%E7%94%B3%E6%8A%A5%E7%82%B9&src=vetmap&coordinate=gaode&callnative=1"},{"name":"善宠动物医院·犬猫全科(长乐店)","address":"航城街道联村村利洋125-89号","phone":"13960736195","category":"医疗保健服务;动物医疗场所;宠物诊所","area":"长乐","lng":119.517432,"lat":25.954106,"amap_id":"B0H6FM17C2","order":6,"prev_distance_km":5.26,"cumulative_distance_km":16.051,"amap_marker_url":"https://uri.amap.com/marker?position=119.517432,25.954106&name=%E5%96%84%E5%AE%A0%E5%8A%A8%E7%89%A9%E5%8C%BB%E9%99%A2%C2%B7%E7%8A%AC%E7%8C%AB%E5%85%A8%E7%A7%91%28%E9%95%BF%E4%B9%90%E5%BA%97%29&src=vetmap&coordinate=gaode&callnative=1"},{"name":"可心宠物医院·骨科·心脏·急重症中心","address":"航城街道联村井下67-167-2号","phone":"0591-28882120;15306915555","category":"医疗保健服务;动物医疗场所;宠物诊所","area":"长乐","lng":119.514701,"lat":25.952059,"amap_id":"B0FFMH08F8","order":7,"prev_distance_km":0.355,"cumulative_distance_km":16.407,"amap_marker_url":"https://uri.amap.com/marker?position=119.514701,25.952059&name=%E5%8F%AF%E5%BF%83%E5%AE%A0%E7%89%A9%E5%8C%BB%E9%99%A2%C2%B7%E9%AA%A8%E7%A7%91%C2%B7%E5%BF%83%E8%84%8F%C2%B7%E6%80%A5%E9%87%8D%E7%97%87%E4%B8%AD%E5%BF%83&src=vetmap&coordinate=gaode&callnative=1"},{"name":"瑞杰动物药品","address":"上湖城南新村西北侧90米","phone":"","category":"医疗保健服务;动物医疗场所;动物医疗场所","area":"长乐","lng":119.511742,"lat":25.946445,"amap_id":"B0K6YA5B8D","order":8,"prev_distance_km":0.691,"cumulative_distance_km":17.098,"amap_marker_url":"https://uri.amap.com/marker?position=119.511742,25.946445&name=%E7%91%9E%E6%9D%B0%E5%8A%A8%E7%89%A9%E8%8D%AF%E5%93%81&src=vetmap&coordinate=gaode&callnative=1"},{"name":"长乐博旺宠物医院(犬猫专科医院)","address":"朝阳中路新乐花园24号","phone":"0591-28205786;18659175131","category":"医疗保健服务;动物医疗场所;宠物诊所","area":"长乐","lng":119.508572,"lat":25.95561,"amap_id":"B0FFHCY6IP","order":9,"prev_distance_km":1.067,"cumulative_distance_km":18.165,"amap_marker_url":"https://uri.amap.com/marker?position=119.508572,25.955610&name=%E9%95%BF%E4%B9%90%E5%8D%9A%E6%97%BA%E5%AE%A0%E7%89%A9%E5%8C%BB%E9%99%A2%28%E7%8A%AC%E7%8C%AB%E4%B8%93%E7%A7%91%E5%8C%BB%E9%99%A2%29&src=vetmap&coordinate=gaode&callnative=1"},{"name":"大圣宠物诊疗猫专科·24h急诊·骨科","address":"航城街道吴航路999号","phone":"18259117385","category":"医疗保健服务;动物医疗场所;宠物诊所","area":"长乐","lng":119.491968,"lat":25.951125,"amap_id":"B0J2OSCJLB","order":10,"prev_distance_km":1.733,"cumulative_distance_km":19.898,"amap_marker_url":"https://uri.amap.com/marker?position=119.491968,25.951125&name=%E5%A4%A7%E5%9C%A3%E5%AE%A0%E7%89%A9%E8%AF%8A%E7%96%97%E7%8C%AB%E4%B8%93%E7%A7%91%C2%B724h%E6%80%A5%E8%AF%8A%C2%B7%E9%AA%A8%E7%A7%91&src=vetmap&coordinate=gaode&callnative=1"},{"name":"圣宠宠物医院·猫科·骨科·夜诊(富阳小区店)","address":"海峡路富阳小区18号店面","phone":"13763839698","category":"医疗保健服务;动物医疗场所;宠物诊所","area":"","lng":119.486625,"lat":25.940182,"amap_id":"B0IKYSB2WP","order":11,"prev_distance_km":1.329,"cumulative_distance_km":21.227,"amap_marker_url":"https://uri.amap.com/marker?position=119.486625,25.940182&name=%E5%9C%A3%E5%AE%A0%E5%AE%A0%E7%89%A9%E5%8C%BB%E9%99%A2%C2%B7%E7%8C%AB%E7%A7%91%C2%B7%E9%AA%A8%E7%A7%91%C2%B7%E5%A4%9C%E8%AF%8A%28%E5%AF%8C%E9%98%B3%E5%B0%8F%E5%8C%BA%E5%BA%97%29&src=vetmap&coordinate=gaode&callnative=1"}]}