{"summary":{"id":"d01670","province":"福建省","city":"莆田市","district":"荔城区","count":17,"total_distance_km":24.28,"coordinate_system":"GCJ-02 / Amap","generated_at":"2026-05-07 20:24:10"},"rows":[{"name":"刚好宠物医院","address":"同心西路与荔城北大道交叉口东南60米","phone":"18159035802","category":"医疗保健服务;动物医疗场所;宠物诊所","area":"","lng":119.023555,"lat":25.477224,"amap_id":"B0J03C19PW","order":1,"prev_distance_km":0.0,"cumulative_distance_km":0.0,"amap_marker_url":"https://uri.amap.com/marker?position=119.023555,25.477224&name=%E5%88%9A%E5%A5%BD%E5%AE%A0%E7%89%A9%E5%8C%BB%E9%99%A2&src=vetmap&coordinate=gaode&callnative=1"},{"name":"艾贝莱宠物医院","address":"东圳东路886号","phone":"19835339796","category":"医疗保健服务;动物医疗场所;宠物诊所","area":"东圳路","lng":119.031256,"lat":25.445272,"amap_id":"B0K2754OKU","order":2,"prev_distance_km":3.636,"cumulative_distance_km":3.636,"amap_marker_url":"https://uri.amap.com/marker?position=119.031256,25.445272&name=%E8%89%BE%E8%B4%9D%E8%8E%B1%E5%AE%A0%E7%89%A9%E5%8C%BB%E9%99%A2&src=vetmap&coordinate=gaode&callnative=1"},{"name":"六城门宠物医院","address":"八二一中街1220号","phone":"0594-2600826;15659569793","category":"医疗保健服务;动物医疗场所;宠物诊所","area":"","lng":119.025394,"lat":25.444718,"amap_id":"B0FFF2E71O","order":3,"prev_distance_km":0.592,"cumulative_distance_km":4.228,"amap_marker_url":"https://uri.amap.com/marker?position=119.025394,25.444718&name=%E5%85%AD%E5%9F%8E%E9%97%A8%E5%AE%A0%E7%89%A9%E5%8C%BB%E9%99%A2&src=vetmap&coordinate=gaode&callnative=1"},{"name":"宠未来宠物医院·24h综合性全科诊疗机构·猫友好金级认证","address":"拱辰街道八二一中街1110号、1112号、1116号","phone":"0594-2576868;13067235807","category":"医疗保健服务;动物医疗场所;宠物诊所","area":"","lng":119.024918,"lat":25.443089,"amap_id":"B0LUOUBPHQ","order":4,"prev_distance_km":0.187,"cumulative_distance_km":4.415,"amap_marker_url":"https://uri.amap.com/marker?position=119.024918,25.443089&name=%E5%AE%A0%E6%9C%AA%E6%9D%A5%E5%AE%A0%E7%89%A9%E5%8C%BB%E9%99%A2%C2%B724h%E7%BB%BC%E5%90%88%E6%80%A7%E5%85%A8%E7%A7%91%E8%AF%8A%E7%96%97%E6%9C%BA%E6%9E%84%C2%B7%E7%8C%AB%E5%8F%8B%E5%A5%BD%E9%87%91%E7%BA%A7%E8%AE%A4%E8%AF%81&src=vetmap&coordinate=gaode&callnative=1"},{"name":"佳宝宠物医院(正荣时代店)","address":"镇海街道东园东路73号","phone":"15860054000","category":"医疗保健服务;动物医疗场所;宠物诊所","area":"东园路","lng":119.01813,"lat":25.441296,"amap_id":"B0FFM14JYQ","order":5,"prev_distance_km":0.71,"cumulative_distance_km":5.125,"amap_marker_url":"https://uri.amap.com/marker?position=119.018130,25.441296&name=%E4%BD%B3%E5%AE%9D%E5%AE%A0%E7%89%A9%E5%8C%BB%E9%99%A2%28%E6%AD%A3%E8%8D%A3%E6%97%B6%E4%BB%A3%E5%BA%97%29&src=vetmap&coordinate=gaode&callnative=1"},{"name":"一零一宠物医院","address":"正荣时代广场对面九五医院大门旁","phone":"0594-2804101;18159050350","category":"医疗保健服务;动物医疗场所;宠物诊所","area":"东园路","lng":119.020333,"lat":25.438864,"amap_id":"B0J11H7K59","order":6,"prev_distance_km":0.349,"cumulative_distance_km":5.475,"amap_marker_url":"https://uri.amap.com/marker?position=119.020333,25.438864&name=%E4%B8%80%E9%9B%B6%E4%B8%80%E5%AE%A0%E7%89%A9%E5%8C%BB%E9%99%A2&src=vetmap&coordinate=gaode&callnative=1"},{"name":"萌康宠物医院","address":"拱辰街道仪莘路269号皇庭水岸B区5号楼213室","phone":"18005949266","category":"医疗保健服务;动物医疗场所;宠物诊所","area":"","lng":119.027549,"lat":25.440132,"amap_id":"B0HUUCSYBK","order":7,"prev_distance_km":0.738,"cumulative_distance_km":6.213,"amap_marker_url":"https://uri.amap.com/marker?position=119.027549,25.440132&name=%E8%90%8C%E5%BA%B7%E5%AE%A0%E7%89%A9%E5%8C%BB%E9%99%A2&src=vetmap&coordinate=gaode&callnative=1"},{"name":"瑞鹏宠物医院(康旺分院)","address":"镇海街道延寿中街389号","phone":"0594-2290652;18060451391","category":"医疗保健服务;动物医疗场所;宠物诊所","area":"","lng":119.028344,"lat":25.432114,"amap_id":"B0IAR7AMOL","order":8,"prev_distance_km":0.895,"cumulative_distance_km":7.108,"amap_marker_url":"https://uri.amap.com/marker?position=119.028344,25.432114&name=%E7%91%9E%E9%B9%8F%E5%AE%A0%E7%89%A9%E5%8C%BB%E9%99%A2%28%E5%BA%B7%E6%97%BA%E5%88%86%E9%99%A2%29&src=vetmap&coordinate=gaode&callnative=1"},{"name":"康旺宠物医院","address":"延寿中街389,385号","phone":"0594-2290652;18060451391","category":"医疗保健服务;动物医疗场所;宠物诊所","area":"","lng":119.028335,"lat":25.432107,"amap_id":"B0LKBST5SK","order":9,"prev_distance_km":0.001,"cumulative_distance_km":7.109,"amap_marker_url":"https://uri.amap.com/marker?position=119.028335,25.432107&name=%E5%BA%B7%E6%97%BA%E5%AE%A0%E7%89%A9%E5%8C%BB%E9%99%A2&src=vetmap&coordinate=gaode&callnative=1"},{"name":"千宠百爱莆田动物医院","address":"福建省莆田市荔城区镇海街道延寿南街575号","phone":"13358532763","category":"医疗保健服务;动物医疗场所;宠物诊所","area":"","lng":119.024476,"lat":25.424388,"amap_id":"B0HKOZI09M","order":10,"prev_distance_km":0.942,"cumulative_distance_km":8.051,"amap_marker_url":"https://uri.amap.com/marker?position=119.024476,25.424388&name=%E5%8D%83%E5%AE%A0%E7%99%BE%E7%88%B1%E8%8E%86%E7%94%B0%E5%8A%A8%E7%89%A9%E5%8C%BB%E9%99%A2&src=vetmap&coordinate=gaode&callnative=1"},{"name":"爱宝宠物医院","address":"天妃路1482号","phone":"0594-2559986;13305046502;13559391576","category":"医疗保健服务;动物医疗场所;宠物诊所","area":"","lng":119.026134,"lat":25.421338,"amap_id":"B0KKVMSMZX","order":11,"prev_distance_km":0.378,"cumulative_distance_km":8.429,"amap_marker_url":"https://uri.amap.com/marker?position=119.026134,25.421338&name=%E7%88%B1%E5%AE%9D%E5%AE%A0%E7%89%A9%E5%8C%BB%E9%99%A2&src=vetmap&coordinate=gaode&callnative=1"},{"name":"贝佳宠物","address":"镇海街道天妃路1333号","phone":"13706068807","category":"医疗保健服务;动物医疗场所;宠物诊所","area":"","lng":119.02799,"lat":25.42054,"amap_id":"B0GUBXS42J","order":12,"prev_distance_km":0.206,"cumulative_distance_km":8.635,"amap_marker_url":"https://uri.amap.com/marker?position=119.027990,25.420540&name=%E8%B4%9D%E4%BD%B3%E5%AE%A0%E7%89%A9&src=vetmap&coordinate=gaode&callnative=1"},{"name":"旺科宠物诊所","address":"拱辰街道万科七期尚勤街1691号","phone":"18596935385","category":"医疗保健服务;动物医疗场所;宠物诊所","area":"","lng":119.050125,"lat":25.425275,"amap_id":"B0LKN9RRSZ","order":13,"prev_distance_km":2.284,"cumulative_distance_km":10.92,"amap_marker_url":"https://uri.amap.com/marker?position=119.050125,25.425275&name=%E6%97%BA%E7%A7%91%E5%AE%A0%E7%89%A9%E8%AF%8A%E6%89%80&src=vetmap&coordinate=gaode&callnative=1"},{"name":"莆田市荔城区新度镇畜牧兽医站","address":"天妃路4207号","phone":"","category":"医疗保健服务;动物医疗场所;兽医站","area":"","lng":119.04059,"lat":25.399163,"amap_id":"B025200T0J","order":14,"prev_distance_km":3.057,"cumulative_distance_km":13.977,"amap_marker_url":"https://uri.amap.com/marker?position=119.040590,25.399163&name=%E8%8E%86%E7%94%B0%E5%B8%82%E8%8D%94%E5%9F%8E%E5%8C%BA%E6%96%B0%E5%BA%A6%E9%95%87%E7%95%9C%E7%89%A7%E5%85%BD%E5%8C%BB%E7%AB%99&src=vetmap&coordinate=gaode&callnative=1"},{"name":"周洪兽药店","address":"S202(荔港大道)","phone":"13799012280","category":"医疗保健服务;动物医疗场所;动物医疗场所","area":"","lng":119.072301,"lat":25.373788,"amap_id":"B0FFFPSM4J","order":15,"prev_distance_km":4.256,"cumulative_distance_km":18.233,"amap_marker_url":"https://uri.amap.com/marker?position=119.072301,25.373788&name=%E5%91%A8%E6%B4%AA%E5%85%BD%E8%8D%AF%E5%BA%97&src=vetmap&coordinate=gaode&callnative=1"},{"name":"珍斗宠物医院(莆田店)","address":"梅雪北大道与228国道交叉口西南约20米","phone":"18596969672","category":"医疗保健服务;动物医疗场所;宠物诊所","area":"","lng":119.078105,"lat":25.369802,"amap_id":"B0H2P7R6PD","order":16,"prev_distance_km":0.732,"cumulative_distance_km":18.965,"amap_marker_url":"https://uri.amap.com/marker?position=119.078105,25.369802&name=%E7%8F%8D%E6%96%97%E5%AE%A0%E7%89%A9%E5%8C%BB%E9%99%A2%28%E8%8E%86%E7%94%B0%E5%BA%97%29&src=vetmap&coordinate=gaode&callnative=1"},{"name":"莆田市荔城区阿青动物诊所","address":"新度镇大坂村上大坂312号","phone":"13626903028","category":"医疗保健服务;动物医疗场所;宠物诊所","area":"","lng":119.035421,"lat":25.341579,"amap_id":"B0HRJ7NPFV","order":17,"prev_distance_km":5.315,"cumulative_distance_km":24.28,"amap_marker_url":"https://uri.amap.com/marker?position=119.035421,25.341579&name=%E8%8E%86%E7%94%B0%E5%B8%82%E8%8D%94%E5%9F%8E%E5%8C%BA%E9%98%BF%E9%9D%92%E5%8A%A8%E7%89%A9%E8%AF%8A%E6%89%80&src=vetmap&coordinate=gaode&callnative=1"}]}