{"summary":{"id":"d01654","province":"福建省","city":"福州市","district":"台江区","count":18,"total_distance_km":11.47,"coordinate_system":"GCJ-02 / Amap","generated_at":"2026-05-07 20:24:09"},"rows":[{"name":"宠佳宠物医院","address":"福光南路397号-399号武夷绿洲20号楼沿街店面","phone":"17268663120","category":"医疗保健服务;动物医疗场所;宠物诊所","area":"鳌峰","lng":119.355167,"lat":26.056792,"amap_id":"B0IKUU9XLN","order":1,"prev_distance_km":0.0,"cumulative_distance_km":0.0,"amap_marker_url":"https://uri.amap.com/marker?position=119.355167,26.056792&name=%E5%AE%A0%E4%BD%B3%E5%AE%A0%E7%89%A9%E5%8C%BB%E9%99%A2&src=vetmap&coordinate=gaode&callnative=1"},{"name":"安安宠医·安兴宠物医院(台江万达分院)","address":"鳌峰街道江滨中大道(现海润花园)18栋","phone":"18060738020","category":"医疗保健服务;动物医疗场所;宠物诊所","area":"鳌峰","lng":119.350512,"lat":26.051719,"amap_id":"B0HABSP78G","order":2,"prev_distance_km":0.731,"cumulative_distance_km":0.731,"amap_marker_url":"https://uri.amap.com/marker?position=119.350512,26.051719&name=%E5%AE%89%E5%AE%89%E5%AE%A0%E5%8C%BB%C2%B7%E5%AE%89%E5%85%B4%E5%AE%A0%E7%89%A9%E5%8C%BB%E9%99%A2%28%E5%8F%B0%E6%B1%9F%E4%B8%87%E8%BE%BE%E5%88%86%E9%99%A2%29&src=vetmap&coordinate=gaode&callnative=1"},{"name":"联心宠物诊所","address":"鳌峰路海润滨江花园B区49号楼10号店","phone":"13625087298","category":"医疗保健服务;动物医疗场所;宠物诊所","area":"鳌峰","lng":119.347519,"lat":26.052514,"amap_id":"B0FFL72MU4","order":3,"prev_distance_km":0.312,"cumulative_distance_km":1.043,"amap_marker_url":"https://uri.amap.com/marker?position=119.347519,26.052514&name=%E8%81%94%E5%BF%83%E5%AE%A0%E7%89%A9%E8%AF%8A%E6%89%80&src=vetmap&coordinate=gaode&callnative=1"},{"name":"宠物医院","address":"五一南路186号1b店面","phone":"17326666110","category":"医疗保健服务;动物医疗场所;宠物诊所","area":"","lng":119.313757,"lat":26.056092,"amap_id":"B0FFGOA0OV","order":4,"prev_distance_km":3.396,"cumulative_distance_km":4.439,"amap_marker_url":"https://uri.amap.com/marker?position=119.313757,26.056092&name=%E5%AE%A0%E7%89%A9%E5%8C%BB%E9%99%A2&src=vetmap&coordinate=gaode&callnative=1"},{"name":"福建农职院动物医院","address":"五一南路与国货西路交叉口南40米","phone":"","category":"医疗保健服务;动物医疗场所;宠物诊所","area":"广达路","lng":119.312575,"lat":26.063425,"amap_id":"B0LDCHTLEA","order":5,"prev_distance_km":0.824,"cumulative_distance_km":5.263,"amap_marker_url":"https://uri.amap.com/marker?position=119.312575,26.063425&name=%E7%A6%8F%E5%BB%BA%E5%86%9C%E8%81%8C%E9%99%A2%E5%8A%A8%E7%89%A9%E5%8C%BB%E9%99%A2&src=vetmap&coordinate=gaode&callnative=1"},{"name":"福州瑞派诺维动物医院(24h转诊中心)","address":"五一南路2号茂泰世纪大厦F1层","phone":"18950282862","category":"医疗保健服务;动物医疗场所;宠物诊所","area":"广达路","lng":119.312508,"lat":26.063445,"amap_id":"B0KUM75TFI","order":6,"prev_distance_km":0.007,"cumulative_distance_km":5.27,"amap_marker_url":"https://uri.amap.com/marker?position=119.312508,26.063445&name=%E7%A6%8F%E5%B7%9E%E7%91%9E%E6%B4%BE%E8%AF%BA%E7%BB%B4%E5%8A%A8%E7%89%A9%E5%8C%BB%E9%99%A2%2824h%E8%BD%AC%E8%AF%8A%E4%B8%AD%E5%BF%83%29&src=vetmap&coordinate=gaode&callnative=1"},{"name":"康立宠物医院.猫科.骨科.内窥镜影像中心","address":"茶亭亚华大厦(国货西路142号)","phone":"17750289991","category":"医疗保健服务;动物医疗场所;宠物诊所","area":"茶亭","lng":119.310683,"lat":26.064067,"amap_id":"B0JD6S10PX","order":7,"prev_distance_km":0.195,"cumulative_distance_km":5.465,"amap_marker_url":"https://uri.amap.com/marker?position=119.310683,26.064067&name=%E5%BA%B7%E7%AB%8B%E5%AE%A0%E7%89%A9%E5%8C%BB%E9%99%A2.%E7%8C%AB%E7%A7%91.%E9%AA%A8%E7%A7%91.%E5%86%85%E7%AA%A5%E9%95%9C%E5%BD%B1%E5%83%8F%E4%B8%AD%E5%BF%83&src=vetmap&coordinate=gaode&callnative=1"},{"name":"安安宠医·安尚宠物医院(广达路店)","address":"广达路228号(茶亭公园公交车站对面)","phone":"0591-83367122","category":"医疗保健服务;动物医疗场所;宠物诊所","area":"八一七中路","lng":119.307637,"lat":26.06543,"amap_id":"B0FFJPUW4D","order":8,"prev_distance_km":0.34,"cumulative_distance_km":5.805,"amap_marker_url":"https://uri.amap.com/marker?position=119.307637,26.065430&name=%E5%AE%89%E5%AE%89%E5%AE%A0%E5%8C%BB%C2%B7%E5%AE%89%E5%B0%9A%E5%AE%A0%E7%89%A9%E5%8C%BB%E9%99%A2%28%E5%B9%BF%E8%BE%BE%E8%B7%AF%E5%BA%97%29&src=vetmap&coordinate=gaode&callnative=1"},{"name":"贝宠爱宠物诊所","address":"广达路395号-2(达道地铁站A口步行260米)","phone":"15005004333","category":"医疗保健服务;动物医疗场所;宠物诊所","area":"广达路","lng":119.30865,"lat":26.059646,"amap_id":"B0J6KM3L8K","order":9,"prev_distance_km":0.651,"cumulative_distance_km":6.456,"amap_marker_url":"https://uri.amap.com/marker?position=119.308650,26.059646&name=%E8%B4%9D%E5%AE%A0%E7%88%B1%E5%AE%A0%E7%89%A9%E8%AF%8A%E6%89%80&src=vetmap&coordinate=gaode&callnative=1"},{"name":"台江区云海宠物医院","address":"洋中街道铺前顶路20号群升国际三期I地块I1号楼1层07店面","phone":"","category":"医疗保健服务;动物医疗场所;宠物诊所","area":"八一七中路","lng":119.3061,"lat":26.060965,"amap_id":"B0J2DSU5W7","order":10,"prev_distance_km":0.294,"cumulative_distance_km":6.75,"amap_marker_url":"https://uri.amap.com/marker?position=119.306100,26.060965&name=%E5%8F%B0%E6%B1%9F%E5%8C%BA%E4%BA%91%E6%B5%B7%E5%AE%A0%E7%89%A9%E5%8C%BB%E9%99%A2&src=vetmap&coordinate=gaode&callnative=1"},{"name":"瑞派艾利萌宠物医院","address":"工业路168-77号","phone":"0591-83347951;13665064294;13959199814","category":"医疗保健服务;动物医疗场所;宠物诊所","area":"工业路","lng":119.300275,"lat":26.063181,"amap_id":"B0FFGWPPL3","order":11,"prev_distance_km":0.632,"cumulative_distance_km":7.382,"amap_marker_url":"https://uri.amap.com/marker?position=119.300275,26.063181&name=%E7%91%9E%E6%B4%BE%E8%89%BE%E5%88%A9%E8%90%8C%E5%AE%A0%E7%89%A9%E5%8C%BB%E9%99%A2&src=vetmap&coordinate=gaode&callnative=1"},{"name":"瑞辰动物缘宠物医院·猫科·异宠(台江宝龙分院)","address":"白马中路126号书香大第9号楼一层","phone":"0591-88381818;18900276866","category":"医疗保健服务;动物医疗场所;宠物诊所","area":"工业路","lng":119.296152,"lat":26.063167,"amap_id":"B0KRSRHAA5","order":12,"prev_distance_km":0.412,"cumulative_distance_km":7.793,"amap_marker_url":"https://uri.amap.com/marker?position=119.296152,26.063167&name=%E7%91%9E%E8%BE%B0%E5%8A%A8%E7%89%A9%E7%BC%98%E5%AE%A0%E7%89%A9%E5%8C%BB%E9%99%A2%C2%B7%E7%8C%AB%E7%A7%91%C2%B7%E5%BC%82%E5%AE%A0%28%E5%8F%B0%E6%B1%9F%E5%AE%9D%E9%BE%99%E5%88%86%E9%99%A2%29&src=vetmap&coordinate=gaode&callnative=1"},{"name":"安安宠医·安友宠物医院(骨科中心)","address":"上海街道白马中路书香大第沿街店面103号","phone":"0591-83723120","category":"医疗保健服务;动物医疗场所;宠物诊所","area":"白马中路","lng":119.294674,"lat":26.064867,"amap_id":"B0FFK78XME","order":13,"prev_distance_km":0.24,"cumulative_distance_km":8.033,"amap_marker_url":"https://uri.amap.com/marker?position=119.294674,26.064867&name=%E5%AE%89%E5%AE%89%E5%AE%A0%E5%8C%BB%C2%B7%E5%AE%89%E5%8F%8B%E5%AE%A0%E7%89%A9%E5%8C%BB%E9%99%A2%28%E9%AA%A8%E7%A7%91%E4%B8%AD%E5%BF%83%29&src=vetmap&coordinate=gaode&callnative=1"},{"name":"宠乐堂动物医院","address":"西二环南路32号长汀里花园1号楼04店面(省血液中心旁)","phone":"13960755802;15080043001","category":"医疗保健服务;动物医疗场所;宠物诊所","area":"工业路","lng":119.288845,"lat":26.060517,"amap_id":"B0FFHZTFCN","order":14,"prev_distance_km":0.757,"cumulative_distance_km":8.79,"amap_marker_url":"https://uri.amap.com/marker?position=119.288845,26.060517&name=%E5%AE%A0%E4%B9%90%E5%A0%82%E5%8A%A8%E7%89%A9%E5%8C%BB%E9%99%A2&src=vetmap&coordinate=gaode&callnative=1"},{"name":"乐派堂宠物中心医院·24H·核磁·CT·透析","address":"工业路193号宝龙城市广场迪厅1层02至07商铺","phone":"0591-22290246;18900240962","category":"医疗保健服务;动物医疗场所;宠物诊所","area":"宝龙","lng":119.291774,"lat":26.060515,"amap_id":"B0K0KRC421","order":15,"prev_distance_km":0.293,"cumulative_distance_km":9.083,"amap_marker_url":"https://uri.amap.com/marker?position=119.291774,26.060515&name=%E4%B9%90%E6%B4%BE%E5%A0%82%E5%AE%A0%E7%89%A9%E4%B8%AD%E5%BF%83%E5%8C%BB%E9%99%A2%C2%B724H%C2%B7%E6%A0%B8%E7%A3%81%C2%B7CT%C2%B7%E9%80%8F%E6%9E%90&src=vetmap&coordinate=gaode&callnative=1"},{"name":"北极动物医院·全科·疑难重症(台江·医道院)","address":"洋中街道洋中路299号融信洋中城(地块十二)1号楼1层10店面","phone":"15396126605","category":"医疗保健服务;动物医疗场所;宠物诊所","area":"八一七中路","lng":119.302899,"lat":26.056042,"amap_id":"B0H2DXHEIY","order":16,"prev_distance_km":1.218,"cumulative_distance_km":10.3,"amap_marker_url":"https://uri.amap.com/marker?position=119.302899,26.056042&name=%E5%8C%97%E6%9E%81%E5%8A%A8%E7%89%A9%E5%8C%BB%E9%99%A2%C2%B7%E5%85%A8%E7%A7%91%C2%B7%E7%96%91%E9%9A%BE%E9%87%8D%E7%97%87%28%E5%8F%B0%E6%B1%9F%C2%B7%E5%8C%BB%E9%81%93%E9%99%A2%29&src=vetmap&coordinate=gaode&callnative=1"},{"name":"安兴宠物医院(洋中路分院)","address":"学军路98号","phone":"0591-83210696","category":"医疗保健服务;动物医疗场所;宠物诊所","area":"八一七中路","lng":119.303503,"lat":26.054974,"amap_id":"B0H6TC6XXM","order":17,"prev_distance_km":0.133,"cumulative_distance_km":10.434,"amap_marker_url":"https://uri.amap.com/marker?position=119.303503,26.054974&name=%E5%AE%89%E5%85%B4%E5%AE%A0%E7%89%A9%E5%8C%BB%E9%99%A2%28%E6%B4%8B%E4%B8%AD%E8%B7%AF%E5%88%86%E9%99%A2%29&src=vetmap&coordinate=gaode&callnative=1"},{"name":"蓝精灵宠物诊所(同德路店)","address":"同德路179号","phone":"13107659085","category":"医疗保健服务;动物医疗场所;宠物诊所","area":"同德路","lng":119.296599,"lat":26.048014,"amap_id":"B024F0VGIT","order":18,"prev_distance_km":1.037,"cumulative_distance_km":11.47,"amap_marker_url":"https://uri.amap.com/marker?position=119.296599,26.048014&name=%E8%93%9D%E7%B2%BE%E7%81%B5%E5%AE%A0%E7%89%A9%E8%AF%8A%E6%89%80%28%E5%90%8C%E5%BE%B7%E8%B7%AF%E5%BA%97%29&src=vetmap&coordinate=gaode&callnative=1"}]}