{"summary":{"id":"d01632","province":"福建省","city":"泉州市","district":"安溪县","count":13,"route_count":1,"max_route_clinics":13,"total_distance_km":101.734,"coordinate_system":"GCJ-02 / Amap","generated_at":"2026-05-07 21:30:30"},"routes":[{"id":"r1","name":"第1段","count":13,"total_distance_km":101.734,"rows":[{"name":"龙涓兽医站","address":"341县道西侧","phone":"13615903500","category":"医疗保健服务;动物医疗场所;兽医站","area":"","lng":117.738142,"lat":24.961341,"amap_id":"B0H64ZHAT3","order":1,"prev_distance_km":0.0,"cumulative_distance_km":0.0,"amap_marker_url":"https://uri.amap.com/marker?position=117.738142,24.961341&name=%E9%BE%99%E6%B6%93%E5%85%BD%E5%8C%BB%E7%AB%99&src=vetmap&coordinate=gaode&callnative=1","route_id":"r1","route_name":"第1段"},{"name":"利民兽医服务站","address":"龙涓派出所东北侧290米","phone":"","category":"医疗保健服务;动物医疗场所;兽医站","area":"","lng":117.739568,"lat":24.96465,"amap_id":"B0FFMEF4OD","order":2,"prev_distance_km":0.395,"cumulative_distance_km":0.395,"amap_marker_url":"https://uri.amap.com/marker?position=117.739568,24.964650&name=%E5%88%A9%E6%B0%91%E5%85%BD%E5%8C%BB%E6%9C%8D%E5%8A%A1%E7%AB%99&src=vetmap&coordinate=gaode&callnative=1","route_id":"r1","route_name":"第1段"},{"name":"大坪兽医站","address":"十九中东侧140米","phone":"0595-23435666;13959931923","category":"医疗保健服务;动物医疗场所;兽医站","area":"","lng":117.976218,"lat":24.891045,"amap_id":"B0FFG36TV6","order":3,"prev_distance_km":25.227,"cumulative_distance_km":25.622,"amap_marker_url":"https://uri.amap.com/marker?position=117.976218,24.891045&name=%E5%A4%A7%E5%9D%AA%E5%85%BD%E5%8C%BB%E7%AB%99&src=vetmap&coordinate=gaode&callnative=1","route_id":"r1","route_name":"第1段"},{"name":"官桥服务站","address":"355国道与206省道交叉口西300米","phone":"","category":"医疗保健服务;动物医疗场所;兽医站","area":"","lng":118.096816,"lat":25.020135,"amap_id":"B0FFLC82UM","order":4,"prev_distance_km":18.811,"cumulative_distance_km":44.434,"amap_marker_url":"https://uri.amap.com/marker?position=118.096816,25.020135&name=%E5%AE%98%E6%A1%A5%E6%9C%8D%E5%8A%A1%E7%AB%99&src=vetmap&coordinate=gaode&callnative=1","route_id":"r1","route_name":"第1段"},{"name":"仁峰兽医店","address":"官桥镇206省道弘桥花园","phone":"0595-23327057;13805934839","category":"医疗保健服务;动物医疗场所;兽医站","area":"","lng":118.105897,"lat":25.023538,"amap_id":"B0HG7LK3HC","order":5,"prev_distance_km":0.99,"cumulative_distance_km":45.424,"amap_marker_url":"https://uri.amap.com/marker?position=118.105897,25.023538&name=%E4%BB%81%E5%B3%B0%E5%85%BD%E5%8C%BB%E5%BA%97&src=vetmap&coordinate=gaode&callnative=1","route_id":"r1","route_name":"第1段"},{"name":"厦门御宝贝宠物医院安溪分院","address":"建安大道宝龙国际社区","phone":"0595-23411199;15396671926","category":"医疗保健服务;动物医疗场所;宠物诊所","area":"","lng":118.19512,"lat":25.042133,"amap_id":"B0I2PDC7GJ","order":6,"prev_distance_km":9.224,"cumulative_distance_km":54.648,"amap_marker_url":"https://uri.amap.com/marker?position=118.195120,25.042133&name=%E5%8E%A6%E9%97%A8%E5%BE%A1%E5%AE%9D%E8%B4%9D%E5%AE%A0%E7%89%A9%E5%8C%BB%E9%99%A2%E5%AE%89%E6%BA%AA%E5%88%86%E9%99%A2&src=vetmap&coordinate=gaode&callnative=1","route_id":"r1","route_name":"第1段"},{"name":"纬济宠物医院·犬猫24小时急诊中心","address":"建安大道78号铺","phone":"13799486160","category":"医疗保健服务;动物医疗场所;宠物诊所","area":"","lng":118.191605,"lat":25.048097,"amap_id":"B0JAK5HKLM","order":7,"prev_distance_km":0.752,"cumulative_distance_km":55.399,"amap_marker_url":"https://uri.amap.com/marker?position=118.191605,25.048097&name=%E7%BA%AC%E6%B5%8E%E5%AE%A0%E7%89%A9%E5%8C%BB%E9%99%A2%C2%B7%E7%8A%AC%E7%8C%AB24%E5%B0%8F%E6%97%B6%E6%80%A5%E8%AF%8A%E4%B8%AD%E5%BF%83&src=vetmap&coordinate=gaode&callnative=1","route_id":"r1","route_name":"第1段"},{"name":"贝安宠物医院","address":"城厢镇永安路永安楼高289-291号","phone":"18359532210","category":"医疗保健服务;动物医疗场所;宠物诊所","area":"","lng":118.199648,"lat":25.057733,"amap_id":"B0FFKC8HUV","order":8,"prev_distance_km":1.343,"cumulative_distance_km":56.743,"amap_marker_url":"https://uri.amap.com/marker?position=118.199648,25.057733&name=%E8%B4%9D%E5%AE%89%E5%AE%A0%E7%89%A9%E5%8C%BB%E9%99%A2&src=vetmap&coordinate=gaode&callnative=1","route_id":"r1","route_name":"第1段"},{"name":"比特斯宠物医院(参内分院)","address":"参内镇隆恩华城9栋107号","phone":"15759480712","category":"医疗保健服务;动物医疗场所;宠物诊所","area":"","lng":118.221836,"lat":25.068265,"amap_id":"B0KR1LM6M8","order":9,"prev_distance_km":2.523,"cumulative_distance_km":59.266,"amap_marker_url":"https://uri.amap.com/marker?position=118.221836,25.068265&name=%E6%AF%94%E7%89%B9%E6%96%AF%E5%AE%A0%E7%89%A9%E5%8C%BB%E9%99%A2%28%E5%8F%82%E5%86%85%E5%88%86%E9%99%A2%29&src=vetmap&coordinate=gaode&callnative=1","route_id":"r1","route_name":"第1段"},{"name":"相伴宠物医院","address":"新安路552-554-556号","phone":"18100536120","category":"医疗保健服务;动物医疗场所;宠物诊所","area":"","lng":118.19489,"lat":25.066387,"amap_id":"B0I3X55VWH","order":10,"prev_distance_km":2.722,"cumulative_distance_km":61.988,"amap_marker_url":"https://uri.amap.com/marker?position=118.194890,25.066387&name=%E7%9B%B8%E4%BC%B4%E5%AE%A0%E7%89%A9%E5%8C%BB%E9%99%A2&src=vetmap&coordinate=gaode&callnative=1","route_id":"r1","route_name":"第1段"},{"name":"比特斯宠物医院","address":"城厢镇仙苑路178号","phone":"19942834663","category":"医疗保健服务;动物医疗场所;宠物诊所","area":"","lng":118.162704,"lat":25.069086,"amap_id":"B0HRVL428X","order":11,"prev_distance_km":3.256,"cumulative_distance_km":65.244,"amap_marker_url":"https://uri.amap.com/marker?position=118.162704,25.069086&name=%E6%AF%94%E7%89%B9%E6%96%AF%E5%AE%A0%E7%89%A9%E5%8C%BB%E9%99%A2&src=vetmap&coordinate=gaode&callnative=1","route_id":"r1","route_name":"第1段"},{"name":"金谷兽医站","address":"东石线与汤内大桥交叉口东320米","phone":"","category":"医疗保健服务;动物医疗场所;兽医站","area":"","lng":118.120275,"lat":25.16889,"amap_id":"B0KA7MSNGE","order":12,"prev_distance_km":11.891,"cumulative_distance_km":77.135,"amap_marker_url":"https://uri.amap.com/marker?position=118.120275,25.168890&name=%E9%87%91%E8%B0%B7%E5%85%BD%E5%8C%BB%E7%AB%99&src=vetmap&coordinate=gaode&callnative=1","route_id":"r1","route_name":"第1段"},{"name":"兽医","address":"长卿镇长霞路56号","phone":"","category":"医疗保健服务;动物医疗场所;兽医站","area":"","lng":117.877659,"lat":25.19597,"amap_id":"B0K2YHNMZ7","order":13,"prev_distance_km":24.599,"cumulative_distance_km":101.734,"amap_marker_url":"https://uri.amap.com/marker?position=117.877659,25.195970&name=%E5%85%BD%E5%8C%BB&src=vetmap&coordinate=gaode&callnative=1","route_id":"r1","route_name":"第1段"}]}],"rows":[{"name":"龙涓兽医站","address":"341县道西侧","phone":"13615903500","category":"医疗保健服务;动物医疗场所;兽医站","area":"","lng":117.738142,"lat":24.961341,"amap_id":"B0H64ZHAT3","order":1,"prev_distance_km":0.0,"cumulative_distance_km":0.0,"amap_marker_url":"https://uri.amap.com/marker?position=117.738142,24.961341&name=%E9%BE%99%E6%B6%93%E5%85%BD%E5%8C%BB%E7%AB%99&src=vetmap&coordinate=gaode&callnative=1","route_id":"r1","route_name":"第1段","global_order":1},{"name":"利民兽医服务站","address":"龙涓派出所东北侧290米","phone":"","category":"医疗保健服务;动物医疗场所;兽医站","area":"","lng":117.739568,"lat":24.96465,"amap_id":"B0FFMEF4OD","order":2,"prev_distance_km":0.395,"cumulative_distance_km":0.395,"amap_marker_url":"https://uri.amap.com/marker?position=117.739568,24.964650&name=%E5%88%A9%E6%B0%91%E5%85%BD%E5%8C%BB%E6%9C%8D%E5%8A%A1%E7%AB%99&src=vetmap&coordinate=gaode&callnative=1","route_id":"r1","route_name":"第1段","global_order":2},{"name":"大坪兽医站","address":"十九中东侧140米","phone":"0595-23435666;13959931923","category":"医疗保健服务;动物医疗场所;兽医站","area":"","lng":117.976218,"lat":24.891045,"amap_id":"B0FFG36TV6","order":3,"prev_distance_km":25.227,"cumulative_distance_km":25.622,"amap_marker_url":"https://uri.amap.com/marker?position=117.976218,24.891045&name=%E5%A4%A7%E5%9D%AA%E5%85%BD%E5%8C%BB%E7%AB%99&src=vetmap&coordinate=gaode&callnative=1","route_id":"r1","route_name":"第1段","global_order":3},{"name":"官桥服务站","address":"355国道与206省道交叉口西300米","phone":"","category":"医疗保健服务;动物医疗场所;兽医站","area":"","lng":118.096816,"lat":25.020135,"amap_id":"B0FFLC82UM","order":4,"prev_distance_km":18.811,"cumulative_distance_km":44.434,"amap_marker_url":"https://uri.amap.com/marker?position=118.096816,25.020135&name=%E5%AE%98%E6%A1%A5%E6%9C%8D%E5%8A%A1%E7%AB%99&src=vetmap&coordinate=gaode&callnative=1","route_id":"r1","route_name":"第1段","global_order":4},{"name":"仁峰兽医店","address":"官桥镇206省道弘桥花园","phone":"0595-23327057;13805934839","category":"医疗保健服务;动物医疗场所;兽医站","area":"","lng":118.105897,"lat":25.023538,"amap_id":"B0HG7LK3HC","order":5,"prev_distance_km":0.99,"cumulative_distance_km":45.424,"amap_marker_url":"https://uri.amap.com/marker?position=118.105897,25.023538&name=%E4%BB%81%E5%B3%B0%E5%85%BD%E5%8C%BB%E5%BA%97&src=vetmap&coordinate=gaode&callnative=1","route_id":"r1","route_name":"第1段","global_order":5},{"name":"厦门御宝贝宠物医院安溪分院","address":"建安大道宝龙国际社区","phone":"0595-23411199;15396671926","category":"医疗保健服务;动物医疗场所;宠物诊所","area":"","lng":118.19512,"lat":25.042133,"amap_id":"B0I2PDC7GJ","order":6,"prev_distance_km":9.224,"cumulative_distance_km":54.648,"amap_marker_url":"https://uri.amap.com/marker?position=118.195120,25.042133&name=%E5%8E%A6%E9%97%A8%E5%BE%A1%E5%AE%9D%E8%B4%9D%E5%AE%A0%E7%89%A9%E5%8C%BB%E9%99%A2%E5%AE%89%E6%BA%AA%E5%88%86%E9%99%A2&src=vetmap&coordinate=gaode&callnative=1","route_id":"r1","route_name":"第1段","global_order":6},{"name":"纬济宠物医院·犬猫24小时急诊中心","address":"建安大道78号铺","phone":"13799486160","category":"医疗保健服务;动物医疗场所;宠物诊所","area":"","lng":118.191605,"lat":25.048097,"amap_id":"B0JAK5HKLM","order":7,"prev_distance_km":0.752,"cumulative_distance_km":55.399,"amap_marker_url":"https://uri.amap.com/marker?position=118.191605,25.048097&name=%E7%BA%AC%E6%B5%8E%E5%AE%A0%E7%89%A9%E5%8C%BB%E9%99%A2%C2%B7%E7%8A%AC%E7%8C%AB24%E5%B0%8F%E6%97%B6%E6%80%A5%E8%AF%8A%E4%B8%AD%E5%BF%83&src=vetmap&coordinate=gaode&callnative=1","route_id":"r1","route_name":"第1段","global_order":7},{"name":"贝安宠物医院","address":"城厢镇永安路永安楼高289-291号","phone":"18359532210","category":"医疗保健服务;动物医疗场所;宠物诊所","area":"","lng":118.199648,"lat":25.057733,"amap_id":"B0FFKC8HUV","order":8,"prev_distance_km":1.343,"cumulative_distance_km":56.743,"amap_marker_url":"https://uri.amap.com/marker?position=118.199648,25.057733&name=%E8%B4%9D%E5%AE%89%E5%AE%A0%E7%89%A9%E5%8C%BB%E9%99%A2&src=vetmap&coordinate=gaode&callnative=1","route_id":"r1","route_name":"第1段","global_order":8},{"name":"比特斯宠物医院(参内分院)","address":"参内镇隆恩华城9栋107号","phone":"15759480712","category":"医疗保健服务;动物医疗场所;宠物诊所","area":"","lng":118.221836,"lat":25.068265,"amap_id":"B0KR1LM6M8","order":9,"prev_distance_km":2.523,"cumulative_distance_km":59.266,"amap_marker_url":"https://uri.amap.com/marker?position=118.221836,25.068265&name=%E6%AF%94%E7%89%B9%E6%96%AF%E5%AE%A0%E7%89%A9%E5%8C%BB%E9%99%A2%28%E5%8F%82%E5%86%85%E5%88%86%E9%99%A2%29&src=vetmap&coordinate=gaode&callnative=1","route_id":"r1","route_name":"第1段","global_order":9},{"name":"相伴宠物医院","address":"新安路552-554-556号","phone":"18100536120","category":"医疗保健服务;动物医疗场所;宠物诊所","area":"","lng":118.19489,"lat":25.066387,"amap_id":"B0I3X55VWH","order":10,"prev_distance_km":2.722,"cumulative_distance_km":61.988,"amap_marker_url":"https://uri.amap.com/marker?position=118.194890,25.066387&name=%E7%9B%B8%E4%BC%B4%E5%AE%A0%E7%89%A9%E5%8C%BB%E9%99%A2&src=vetmap&coordinate=gaode&callnative=1","route_id":"r1","route_name":"第1段","global_order":10},{"name":"比特斯宠物医院","address":"城厢镇仙苑路178号","phone":"19942834663","category":"医疗保健服务;动物医疗场所;宠物诊所","area":"","lng":118.162704,"lat":25.069086,"amap_id":"B0HRVL428X","order":11,"prev_distance_km":3.256,"cumulative_distance_km":65.244,"amap_marker_url":"https://uri.amap.com/marker?position=118.162704,25.069086&name=%E6%AF%94%E7%89%B9%E6%96%AF%E5%AE%A0%E7%89%A9%E5%8C%BB%E9%99%A2&src=vetmap&coordinate=gaode&callnative=1","route_id":"r1","route_name":"第1段","global_order":11},{"name":"金谷兽医站","address":"东石线与汤内大桥交叉口东320米","phone":"","category":"医疗保健服务;动物医疗场所;兽医站","area":"","lng":118.120275,"lat":25.16889,"amap_id":"B0KA7MSNGE","order":12,"prev_distance_km":11.891,"cumulative_distance_km":77.135,"amap_marker_url":"https://uri.amap.com/marker?position=118.120275,25.168890&name=%E9%87%91%E8%B0%B7%E5%85%BD%E5%8C%BB%E7%AB%99&src=vetmap&coordinate=gaode&callnative=1","route_id":"r1","route_name":"第1段","global_order":12},{"name":"兽医","address":"长卿镇长霞路56号","phone":"","category":"医疗保健服务;动物医疗场所;兽医站","area":"","lng":117.877659,"lat":25.19597,"amap_id":"B0K2YHNMZ7","order":13,"prev_distance_km":24.599,"cumulative_distance_km":101.734,"amap_marker_url":"https://uri.amap.com/marker?position=117.877659,25.195970&name=%E5%85%BD%E5%8C%BB&src=vetmap&coordinate=gaode&callnative=1","route_id":"r1","route_name":"第1段","global_order":13}]}