{"summary":{"id":"d01623","province":"福建省","city":"宁德市","district":"古田县","count":5,"route_count":1,"max_route_clinics":5,"total_distance_km":3.246,"coordinate_system":"GCJ-02 / Amap","generated_at":"2026-05-08 19:48:30"},"routes":[{"id":"r1","name":"第1段","count":5,"total_distance_km":3.246,"rows":[{"name":"古田县动物检疫申报点","address":"306省道与玉田大道交叉口南380米","phone":"","category":"医疗保健服务;动物医疗场所;动物医疗场所","area":"","lng":118.75298,"lat":26.562947,"amap_id":"B0I3TUBA26","order":1,"prev_distance_km":0.0,"cumulative_distance_km":0.0,"amap_marker_url":"https://uri.amap.com/marker?position=118.752980,26.562947&name=%E5%8F%A4%E7%94%B0%E5%8E%BF%E5%8A%A8%E7%89%A9%E6%A3%80%E7%96%AB%E7%94%B3%E6%8A%A5%E7%82%B9&src=vetmap&coordinate=gaode&callnative=1","route_id":"r1","route_name":"第1段"},{"name":"莱之德宠物诊所","address":"298-3","phone":"19559359234","category":"医疗保健服务;动物医疗场所;宠物诊所","area":"","lng":118.750883,"lat":26.57523,"amap_id":"B0JUZUEMHB","order":2,"prev_distance_km":1.382,"cumulative_distance_km":1.382,"amap_marker_url":"https://uri.amap.com/marker?position=118.750883,26.575230&name=%E8%8E%B1%E4%B9%8B%E5%BE%B7%E5%AE%A0%E7%89%A9%E8%AF%8A%E6%89%80&src=vetmap&coordinate=gaode&callnative=1","route_id":"r1","route_name":"第1段"},{"name":"萌宠友家宠物医院","address":"解放二支路9号宠物宠物洗澡宠物寄养猫粮狗粮宠物美容医疗宠物住院","phone":"","category":"医疗保健服务;动物医疗场所;宠物诊所","area":"城东","lng":118.749662,"lat":26.578855,"amap_id":"B0LB1CV954","order":3,"prev_distance_km":0.421,"cumulative_distance_km":1.803,"amap_marker_url":"https://uri.amap.com/marker?position=118.749662,26.578855&name=%E8%90%8C%E5%AE%A0%E5%8F%8B%E5%AE%B6%E5%AE%A0%E7%89%A9%E5%8C%BB%E9%99%A2&src=vetmap&coordinate=gaode&callnative=1","route_id":"r1","route_name":"第1段"},{"name":"花圈寿衣","address":"建设路与新华路交叉口东南20米","phone":"","category":"医疗保健服务;动物医疗场所;宠物诊所","area":"城西","lng":118.74265,"lat":26.57967,"amap_id":"B0J1RYL9D4","order":4,"prev_distance_km":0.703,"cumulative_distance_km":2.506,"amap_marker_url":"https://uri.amap.com/marker?position=118.742650,26.579670&name=%E8%8A%B1%E5%9C%88%E5%AF%BF%E8%A1%A3&src=vetmap&coordinate=gaode&callnative=1","route_id":"r1","route_name":"第1段"},{"name":"牧迪动物医院","address":"万泰广场北侧12号楼10-11","phone":"","category":"医疗保健服务;动物医疗场所;宠物诊所","area":"城西","lng":118.73874,"lat":26.574007,"amap_id":"B0L2PUQIE0","order":5,"prev_distance_km":0.74,"cumulative_distance_km":3.246,"amap_marker_url":"https://uri.amap.com/marker?position=118.738740,26.574007&name=%E7%89%A7%E8%BF%AA%E5%8A%A8%E7%89%A9%E5%8C%BB%E9%99%A2&src=vetmap&coordinate=gaode&callnative=1","route_id":"r1","route_name":"第1段"}]}],"rows":[{"name":"古田县动物检疫申报点","address":"306省道与玉田大道交叉口南380米","phone":"","category":"医疗保健服务;动物医疗场所;动物医疗场所","area":"","lng":118.75298,"lat":26.562947,"amap_id":"B0I3TUBA26","order":1,"prev_distance_km":0.0,"cumulative_distance_km":0.0,"amap_marker_url":"https://uri.amap.com/marker?position=118.752980,26.562947&name=%E5%8F%A4%E7%94%B0%E5%8E%BF%E5%8A%A8%E7%89%A9%E6%A3%80%E7%96%AB%E7%94%B3%E6%8A%A5%E7%82%B9&src=vetmap&coordinate=gaode&callnative=1","route_id":"r1","route_name":"第1段","global_order":1},{"name":"莱之德宠物诊所","address":"298-3","phone":"19559359234","category":"医疗保健服务;动物医疗场所;宠物诊所","area":"","lng":118.750883,"lat":26.57523,"amap_id":"B0JUZUEMHB","order":2,"prev_distance_km":1.382,"cumulative_distance_km":1.382,"amap_marker_url":"https://uri.amap.com/marker?position=118.750883,26.575230&name=%E8%8E%B1%E4%B9%8B%E5%BE%B7%E5%AE%A0%E7%89%A9%E8%AF%8A%E6%89%80&src=vetmap&coordinate=gaode&callnative=1","route_id":"r1","route_name":"第1段","global_order":2},{"name":"萌宠友家宠物医院","address":"解放二支路9号宠物宠物洗澡宠物寄养猫粮狗粮宠物美容医疗宠物住院","phone":"","category":"医疗保健服务;动物医疗场所;宠物诊所","area":"城东","lng":118.749662,"lat":26.578855,"amap_id":"B0LB1CV954","order":3,"prev_distance_km":0.421,"cumulative_distance_km":1.803,"amap_marker_url":"https://uri.amap.com/marker?position=118.749662,26.578855&name=%E8%90%8C%E5%AE%A0%E5%8F%8B%E5%AE%B6%E5%AE%A0%E7%89%A9%E5%8C%BB%E9%99%A2&src=vetmap&coordinate=gaode&callnative=1","route_id":"r1","route_name":"第1段","global_order":3},{"name":"花圈寿衣","address":"建设路与新华路交叉口东南20米","phone":"","category":"医疗保健服务;动物医疗场所;宠物诊所","area":"城西","lng":118.74265,"lat":26.57967,"amap_id":"B0J1RYL9D4","order":4,"prev_distance_km":0.703,"cumulative_distance_km":2.506,"amap_marker_url":"https://uri.amap.com/marker?position=118.742650,26.579670&name=%E8%8A%B1%E5%9C%88%E5%AF%BF%E8%A1%A3&src=vetmap&coordinate=gaode&callnative=1","route_id":"r1","route_name":"第1段","global_order":4},{"name":"牧迪动物医院","address":"万泰广场北侧12号楼10-11","phone":"","category":"医疗保健服务;动物医疗场所;宠物诊所","area":"城西","lng":118.73874,"lat":26.574007,"amap_id":"B0L2PUQIE0","order":5,"prev_distance_km":0.74,"cumulative_distance_km":3.246,"amap_marker_url":"https://uri.amap.com/marker?position=118.738740,26.574007&name=%E7%89%A7%E8%BF%AA%E5%8A%A8%E7%89%A9%E5%8C%BB%E9%99%A2&src=vetmap&coordinate=gaode&callnative=1","route_id":"r1","route_name":"第1段","global_order":5}]}