{"summary":{"id":"d01604","province":"福建省","city":"三明市","district":"沙县区","count":6,"total_distance_km":16.565,"coordinate_system":"GCJ-02 / Amap","generated_at":"2026-05-07 19:58:15"},"rows":[{"name":"友好宠物","address":"凤岗长泰北路188-2号","phone":"18659439167","category":"医疗保健服务;动物医疗场所;宠物诊所","area":"","lng":117.786175,"lat":26.420075,"amap_id":"B0L1U53Q83","order":1,"prev_distance_km":0.0,"cumulative_distance_km":0.0,"amap_marker_url":"https://uri.amap.com/marker?position=117.786175,26.420075&name=%E5%8F%8B%E5%A5%BD%E5%AE%A0%E7%89%A9&src=vetmap&coordinate=gaode&callnative=1"},{"name":"瑞派诺维宠物医院(沙县店)","address":"凤岗新城西路1-1号","phone":"","category":"医疗保健服务;动物医疗场所;宠物诊所","area":"凤岗","lng":117.784248,"lat":26.398977,"amap_id":"B0J3XS0X9L","order":2,"prev_distance_km":2.354,"cumulative_distance_km":2.354,"amap_marker_url":"https://uri.amap.com/marker?position=117.784248,26.398977&name=%E7%91%9E%E6%B4%BE%E8%AF%BA%E7%BB%B4%E5%AE%A0%E7%89%A9%E5%8C%BB%E9%99%A2%28%E6%B2%99%E5%8E%BF%E5%BA%97%29&src=vetmap&coordinate=gaode&callnative=1"},{"name":"田心宠物诊所","address":"新城中路131号","phone":"17350522336","category":"医疗保健服务;动物医疗场所;宠物诊所","area":"","lng":117.786639,"lat":26.399182,"amap_id":"B0FFJ0T2YK","order":3,"prev_distance_km":0.239,"cumulative_distance_km":2.593,"amap_marker_url":"https://uri.amap.com/marker?position=117.786639,26.399182&name=%E7%94%B0%E5%BF%83%E5%AE%A0%E7%89%A9%E8%AF%8A%E6%89%80&src=vetmap&coordinate=gaode&callnative=1"},{"name":"安涯宠物","address":"李刚中路25-1-2","phone":"17759855557","category":"医疗保健服务;动物医疗场所;动物医疗场所","area":"府前中路","lng":117.791875,"lat":26.394075,"amap_id":"B0L2V18QJZ","order":4,"prev_distance_km":0.771,"cumulative_distance_km":3.364,"amap_marker_url":"https://uri.amap.com/marker?position=117.791875,26.394075&name=%E5%AE%89%E6%B6%AF%E5%AE%A0%E7%89%A9&src=vetmap&coordinate=gaode&callnative=1"},{"name":"沙县洋坊鸿宇养殖兽药服务站","address":"洋坊罗布桥头5栋","phone":"0598-8866681;13507583896","category":"医疗保健服务;动物医疗场所;动物医疗场所","area":"","lng":117.808021,"lat":26.38234,"amap_id":"B02560QEQW","order":5,"prev_distance_km":2.071,"cumulative_distance_km":5.435,"amap_marker_url":"https://uri.amap.com/marker?position=117.808021,26.382340&name=%E6%B2%99%E5%8E%BF%E6%B4%8B%E5%9D%8A%E9%B8%BF%E5%AE%87%E5%85%BB%E6%AE%96%E5%85%BD%E8%8D%AF%E6%9C%8D%E5%8A%A1%E7%AB%99&src=vetmap&coordinate=gaode&callnative=1"},{"name":"沙县高砂畜牧兽医水产站","address":"高砂大道与004乡道交叉口南340米","phone":"","category":"医疗保健服务;动物医疗场所;兽医站","area":"","lng":117.909775,"lat":26.423725,"amap_id":"B0L21HSPIL","order":6,"prev_distance_km":11.13,"cumulative_distance_km":16.565,"amap_marker_url":"https://uri.amap.com/marker?position=117.909775,26.423725&name=%E6%B2%99%E5%8E%BF%E9%AB%98%E7%A0%82%E7%95%9C%E7%89%A7%E5%85%BD%E5%8C%BB%E6%B0%B4%E4%BA%A7%E7%AB%99&src=vetmap&coordinate=gaode&callnative=1"}]}