{"summary":{"id":"d01679","province":"辽宁省","city":"丹东市","district":"元宝区","count":10,"route_count":1,"max_route_clinics":10,"total_distance_km":13.205,"coordinate_system":"GCJ-02 / Amap","generated_at":"2026-05-07 21:30:38"},"routes":[{"id":"r1","name":"第1段","count":10,"total_distance_km":13.205,"rows":[{"name":"爱特宠物诊所","address":"九江街67-6号","phone":"0415-3971259;13324153765","category":"医疗保健服务;动物医疗场所;宠物诊所","area":"锦山大街","lng":124.406887,"lat":40.144805,"amap_id":"B0FFF3PRXI","order":1,"prev_distance_km":0.0,"cumulative_distance_km":0.0,"amap_marker_url":"https://uri.amap.com/marker?position=124.406887,40.144805&name=%E7%88%B1%E7%89%B9%E5%AE%A0%E7%89%A9%E8%AF%8A%E6%89%80&src=vetmap&coordinate=gaode&callnative=1","route_id":"r1","route_name":"第1段"},{"name":"心语24h宠物医院","address":"九江街41-4号","phone":"0415-2222290;18840521231","category":"医疗保健服务;动物医疗场所;宠物诊所","area":"","lng":124.408058,"lat":40.143089,"amap_id":"B0JBSNQV02","order":2,"prev_distance_km":0.215,"cumulative_distance_km":0.215,"amap_marker_url":"https://uri.amap.com/marker?position=124.408058,40.143089&name=%E5%BF%83%E8%AF%AD24h%E5%AE%A0%E7%89%A9%E5%8C%BB%E9%99%A2&src=vetmap&coordinate=gaode&callnative=1","route_id":"r1","route_name":"第1段"},{"name":"动物诊所(虹桥小区店)","address":"金色童年双语艺术幼儿园西南门西80米","phone":"","category":"医疗保健服务;动物医疗场所;宠物诊所","area":"","lng":124.409723,"lat":40.143051,"amap_id":"B0K6H5G3O9","order":3,"prev_distance_km":0.142,"cumulative_distance_km":0.357,"amap_marker_url":"https://uri.amap.com/marker?position=124.409723,40.143051&name=%E5%8A%A8%E7%89%A9%E8%AF%8A%E6%89%80%28%E8%99%B9%E6%A1%A5%E5%B0%8F%E5%8C%BA%E5%BA%97%29&src=vetmap&coordinate=gaode&callnative=1","route_id":"r1","route_name":"第1段"},{"name":"安诺动物医院","address":"永安街永安新区57号楼104室","phone":"0415-6226979;13704117630","category":"医疗保健服务;动物医疗场所;宠物诊所","area":"","lng":124.405931,"lat":40.136933,"amap_id":"B0HUGSQHL5","order":4,"prev_distance_km":0.753,"cumulative_distance_km":1.11,"amap_marker_url":"https://uri.amap.com/marker?position=124.405931,40.136933&name=%E5%AE%89%E8%AF%BA%E5%8A%A8%E7%89%A9%E5%8C%BB%E9%99%A2&src=vetmap&coordinate=gaode&callnative=1","route_id":"r1","route_name":"第1段"},{"name":"三星动物医院","address":"兴隆街16-7号","phone":"0415-2821816;14704159887","category":"医疗保健服务;动物医疗场所;宠物诊所|医疗保健服务;动物医疗场所;兽医站","area":"","lng":124.399267,"lat":40.134161,"amap_id":"B0HDDZA8AF","order":5,"prev_distance_km":0.645,"cumulative_distance_km":1.755,"amap_marker_url":"https://uri.amap.com/marker?position=124.399267,40.134161&name=%E4%B8%89%E6%98%9F%E5%8A%A8%E7%89%A9%E5%8C%BB%E9%99%A2&src=vetmap&coordinate=gaode&callnative=1","route_id":"r1","route_name":"第1段"},{"name":"贵权动物医院","address":"县前街107号","phone":"","category":"医疗保健服务;动物医疗场所;宠物诊所","area":"","lng":124.390106,"lat":40.13593,"amap_id":"B019F01CG0","order":6,"prev_distance_km":0.803,"cumulative_distance_km":2.558,"amap_marker_url":"https://uri.amap.com/marker?position=124.390106,40.135930&name=%E8%B4%B5%E6%9D%83%E5%8A%A8%E7%89%A9%E5%8C%BB%E9%99%A2&src=vetmap&coordinate=gaode&callnative=1","route_id":"r1","route_name":"第1段"},{"name":"轩淇动物医院(县前街店)","address":"县前街10号","phone":"","category":"医疗保健服务;动物医疗场所;宠物诊所","area":"","lng":124.392123,"lat":40.137202,"amap_id":"B0K29AU8S1","order":7,"prev_distance_km":0.222,"cumulative_distance_km":2.78,"amap_marker_url":"https://uri.amap.com/marker?position=124.392123,40.137202&name=%E8%BD%A9%E6%B7%87%E5%8A%A8%E7%89%A9%E5%8C%BB%E9%99%A2%28%E5%8E%BF%E5%89%8D%E8%A1%97%E5%BA%97%29&src=vetmap&coordinate=gaode&callnative=1","route_id":"r1","route_name":"第1段"},{"name":"名扬动物门诊(鸿润宝业家园店)","address":"中宝街21-10号","phone":"0415-2337670","category":"医疗保健服务;动物医疗场所;宠物诊所","area":"八道","lng":124.393556,"lat":40.14401,"amap_id":"B019F0OVE4","order":8,"prev_distance_km":0.767,"cumulative_distance_km":3.547,"amap_marker_url":"https://uri.amap.com/marker?position=124.393556,40.144010&name=%E5%90%8D%E6%89%AC%E5%8A%A8%E7%89%A9%E9%97%A8%E8%AF%8A%28%E9%B8%BF%E6%B6%A6%E5%AE%9D%E4%B8%9A%E5%AE%B6%E5%9B%AD%E5%BA%97%29&src=vetmap&coordinate=gaode&callnative=1","route_id":"r1","route_name":"第1段"},{"name":"宝贝疙瘩宠物诊所","address":"宝山大街5-号","phone":"0415-2802696;13841545996","category":"医疗保健服务;动物医疗场所;宠物诊所","area":"八道","lng":124.392087,"lat":40.144822,"amap_id":"B019F0P4MG","order":9,"prev_distance_km":0.154,"cumulative_distance_km":3.701,"amap_marker_url":"https://uri.amap.com/marker?position=124.392087,40.144822&name=%E5%AE%9D%E8%B4%9D%E7%96%99%E7%98%A9%E5%AE%A0%E7%89%A9%E8%AF%8A%E6%89%80&src=vetmap&coordinate=gaode&callnative=1","route_id":"r1","route_name":"第1段"},{"name":"荣晟宠业","address":"石桥村三组","phone":"16604151568","category":"医疗保健服务;动物医疗场所;动物医疗场所","area":"","lng":124.320658,"lat":40.210608,"amap_id":"B0L11UL058","order":10,"prev_distance_km":9.505,"cumulative_distance_km":13.205,"amap_marker_url":"https://uri.amap.com/marker?position=124.320658,40.210608&name=%E8%8D%A3%E6%99%9F%E5%AE%A0%E4%B8%9A&src=vetmap&coordinate=gaode&callnative=1","route_id":"r1","route_name":"第1段"}]}],"rows":[{"name":"爱特宠物诊所","address":"九江街67-6号","phone":"0415-3971259;13324153765","category":"医疗保健服务;动物医疗场所;宠物诊所","area":"锦山大街","lng":124.406887,"lat":40.144805,"amap_id":"B0FFF3PRXI","order":1,"prev_distance_km":0.0,"cumulative_distance_km":0.0,"amap_marker_url":"https://uri.amap.com/marker?position=124.406887,40.144805&name=%E7%88%B1%E7%89%B9%E5%AE%A0%E7%89%A9%E8%AF%8A%E6%89%80&src=vetmap&coordinate=gaode&callnative=1","route_id":"r1","route_name":"第1段","global_order":1},{"name":"心语24h宠物医院","address":"九江街41-4号","phone":"0415-2222290;18840521231","category":"医疗保健服务;动物医疗场所;宠物诊所","area":"","lng":124.408058,"lat":40.143089,"amap_id":"B0JBSNQV02","order":2,"prev_distance_km":0.215,"cumulative_distance_km":0.215,"amap_marker_url":"https://uri.amap.com/marker?position=124.408058,40.143089&name=%E5%BF%83%E8%AF%AD24h%E5%AE%A0%E7%89%A9%E5%8C%BB%E9%99%A2&src=vetmap&coordinate=gaode&callnative=1","route_id":"r1","route_name":"第1段","global_order":2},{"name":"动物诊所(虹桥小区店)","address":"金色童年双语艺术幼儿园西南门西80米","phone":"","category":"医疗保健服务;动物医疗场所;宠物诊所","area":"","lng":124.409723,"lat":40.143051,"amap_id":"B0K6H5G3O9","order":3,"prev_distance_km":0.142,"cumulative_distance_km":0.357,"amap_marker_url":"https://uri.amap.com/marker?position=124.409723,40.143051&name=%E5%8A%A8%E7%89%A9%E8%AF%8A%E6%89%80%28%E8%99%B9%E6%A1%A5%E5%B0%8F%E5%8C%BA%E5%BA%97%29&src=vetmap&coordinate=gaode&callnative=1","route_id":"r1","route_name":"第1段","global_order":3},{"name":"安诺动物医院","address":"永安街永安新区57号楼104室","phone":"0415-6226979;13704117630","category":"医疗保健服务;动物医疗场所;宠物诊所","area":"","lng":124.405931,"lat":40.136933,"amap_id":"B0HUGSQHL5","order":4,"prev_distance_km":0.753,"cumulative_distance_km":1.11,"amap_marker_url":"https://uri.amap.com/marker?position=124.405931,40.136933&name=%E5%AE%89%E8%AF%BA%E5%8A%A8%E7%89%A9%E5%8C%BB%E9%99%A2&src=vetmap&coordinate=gaode&callnative=1","route_id":"r1","route_name":"第1段","global_order":4},{"name":"三星动物医院","address":"兴隆街16-7号","phone":"0415-2821816;14704159887","category":"医疗保健服务;动物医疗场所;宠物诊所|医疗保健服务;动物医疗场所;兽医站","area":"","lng":124.399267,"lat":40.134161,"amap_id":"B0HDDZA8AF","order":5,"prev_distance_km":0.645,"cumulative_distance_km":1.755,"amap_marker_url":"https://uri.amap.com/marker?position=124.399267,40.134161&name=%E4%B8%89%E6%98%9F%E5%8A%A8%E7%89%A9%E5%8C%BB%E9%99%A2&src=vetmap&coordinate=gaode&callnative=1","route_id":"r1","route_name":"第1段","global_order":5},{"name":"贵权动物医院","address":"县前街107号","phone":"","category":"医疗保健服务;动物医疗场所;宠物诊所","area":"","lng":124.390106,"lat":40.13593,"amap_id":"B019F01CG0","order":6,"prev_distance_km":0.803,"cumulative_distance_km":2.558,"amap_marker_url":"https://uri.amap.com/marker?position=124.390106,40.135930&name=%E8%B4%B5%E6%9D%83%E5%8A%A8%E7%89%A9%E5%8C%BB%E9%99%A2&src=vetmap&coordinate=gaode&callnative=1","route_id":"r1","route_name":"第1段","global_order":6},{"name":"轩淇动物医院(县前街店)","address":"县前街10号","phone":"","category":"医疗保健服务;动物医疗场所;宠物诊所","area":"","lng":124.392123,"lat":40.137202,"amap_id":"B0K29AU8S1","order":7,"prev_distance_km":0.222,"cumulative_distance_km":2.78,"amap_marker_url":"https://uri.amap.com/marker?position=124.392123,40.137202&name=%E8%BD%A9%E6%B7%87%E5%8A%A8%E7%89%A9%E5%8C%BB%E9%99%A2%28%E5%8E%BF%E5%89%8D%E8%A1%97%E5%BA%97%29&src=vetmap&coordinate=gaode&callnative=1","route_id":"r1","route_name":"第1段","global_order":7},{"name":"名扬动物门诊(鸿润宝业家园店)","address":"中宝街21-10号","phone":"0415-2337670","category":"医疗保健服务;动物医疗场所;宠物诊所","area":"八道","lng":124.393556,"lat":40.14401,"amap_id":"B019F0OVE4","order":8,"prev_distance_km":0.767,"cumulative_distance_km":3.547,"amap_marker_url":"https://uri.amap.com/marker?position=124.393556,40.144010&name=%E5%90%8D%E6%89%AC%E5%8A%A8%E7%89%A9%E9%97%A8%E8%AF%8A%28%E9%B8%BF%E6%B6%A6%E5%AE%9D%E4%B8%9A%E5%AE%B6%E5%9B%AD%E5%BA%97%29&src=vetmap&coordinate=gaode&callnative=1","route_id":"r1","route_name":"第1段","global_order":8},{"name":"宝贝疙瘩宠物诊所","address":"宝山大街5-号","phone":"0415-2802696;13841545996","category":"医疗保健服务;动物医疗场所;宠物诊所","area":"八道","lng":124.392087,"lat":40.144822,"amap_id":"B019F0P4MG","order":9,"prev_distance_km":0.154,"cumulative_distance_km":3.701,"amap_marker_url":"https://uri.amap.com/marker?position=124.392087,40.144822&name=%E5%AE%9D%E8%B4%9D%E7%96%99%E7%98%A9%E5%AE%A0%E7%89%A9%E8%AF%8A%E6%89%80&src=vetmap&coordinate=gaode&callnative=1","route_id":"r1","route_name":"第1段","global_order":9},{"name":"荣晟宠业","address":"石桥村三组","phone":"16604151568","category":"医疗保健服务;动物医疗场所;动物医疗场所","area":"","lng":124.320658,"lat":40.210608,"amap_id":"B0L11UL058","order":10,"prev_distance_km":9.505,"cumulative_distance_km":13.205,"amap_marker_url":"https://uri.amap.com/marker?position=124.320658,40.210608&name=%E8%8D%A3%E6%99%9F%E5%AE%A0%E4%B8%9A&src=vetmap&coordinate=gaode&callnative=1","route_id":"r1","route_name":"第1段","global_order":10}]}