{"summary":{"id":"d01658","province":"福建省","city":"福州市","district":"福清市","count":25,"total_distance_km":86.832,"coordinate_system":"GCJ-02 / Amap","generated_at":"2026-05-07 19:58:21"},"rows":[{"name":"老方兽药店","address":"沙埔镇沙埔村海明路5号","phone":"","category":"医疗保健服务;动物医疗场所;动物医疗场所","area":"福州新区","lng":119.529751,"lat":25.430721,"amap_id":"B0L1RCC2MA","order":1,"prev_distance_km":0.0,"cumulative_distance_km":0.0,"amap_marker_url":"https://uri.amap.com/marker?position=119.529751,25.430721&name=%E8%80%81%E6%96%B9%E5%85%BD%E8%8D%AF%E5%BA%97&src=vetmap&coordinate=gaode&callnative=1"},{"name":"福清市高山畜牧兽医站","address":"高山镇北溪路125号","phone":"","category":"医疗保健服务;动物医疗场所;兽医站","area":"福州新区","lng":119.565246,"lat":25.471164,"amap_id":"B0FFINBQEL","order":2,"prev_distance_km":5.738,"cumulative_distance_km":5.738,"amap_marker_url":"https://uri.amap.com/marker?position=119.565246,25.471164&name=%E7%A6%8F%E6%B8%85%E5%B8%82%E9%AB%98%E5%B1%B1%E7%95%9C%E7%89%A7%E5%85%BD%E5%8C%BB%E7%AB%99&src=vetmap&coordinate=gaode&callnative=1"},{"name":"宠美宠物诊所","address":"高山镇六一路78-34号","phone":"15005982668","category":"医疗保健服务;动物医疗场所;宠物诊所","area":"福州新区","lng":119.561441,"lat":25.471999,"amap_id":"B0LA97VMUF","order":3,"prev_distance_km":0.393,"cumulative_distance_km":6.131,"amap_marker_url":"https://uri.amap.com/marker?position=119.561441,25.471999&name=%E5%AE%A0%E7%BE%8E%E5%AE%A0%E7%89%A9%E8%AF%8A%E6%89%80&src=vetmap&coordinate=gaode&callnative=1"},{"name":"宠心宠物","address":"三山镇三金路167号","phone":"15959032615","category":"医疗保健服务;动物医疗场所;动物医疗场所","area":"福州新区","lng":119.521731,"lat":25.526736,"amap_id":"B0L3XA0I6I","order":4,"prev_distance_km":7.275,"cumulative_distance_km":13.406,"amap_marker_url":"https://uri.amap.com/marker?position=119.521731,25.526736&name=%E5%AE%A0%E5%BF%83%E5%AE%A0%E7%89%A9&src=vetmap&coordinate=gaode&callnative=1"},{"name":"福清海护兽药店","address":"新江路2号","phone":"13859069121","category":"医疗保健服务;动物医疗场所;动物医疗场所","area":"","lng":119.424168,"lat":25.548535,"amap_id":"B0G30PHGLA","order":5,"prev_distance_km":10.084,"cumulative_distance_km":23.491,"amap_marker_url":"https://uri.amap.com/marker?position=119.424168,25.548535&name=%E7%A6%8F%E6%B8%85%E6%B5%B7%E6%8A%A4%E5%85%BD%E8%8D%AF%E5%BA%97&src=vetmap&coordinate=gaode&callnative=1"},{"name":"龙田镇王先森宠物诊疗中心","address":"龙田镇龙泰街328-2店","phone":"13635221886","category":"医疗保健服务;动物医疗场所;宠物诊所","area":"","lng":119.461596,"lat":25.601829,"amap_id":"B0GKJBW0RG","order":6,"prev_distance_km":7.015,"cumulative_distance_km":30.506,"amap_marker_url":"https://uri.amap.com/marker?position=119.461596,25.601829&name=%E9%BE%99%E7%94%B0%E9%95%87%E7%8E%8B%E5%85%88%E6%A3%AE%E5%AE%A0%E7%89%A9%E8%AF%8A%E7%96%97%E4%B8%AD%E5%BF%83&src=vetmap&coordinate=gaode&callnative=1"},{"name":"福清市畜牧兽医中心龙田畜牧兽医站","address":"龙田兽医站","phone":"","category":"医疗保健服务;动物医疗场所;兽医站","area":"","lng":119.459611,"lat":25.606198,"amap_id":"B024F0XAZT","order":7,"prev_distance_km":0.525,"cumulative_distance_km":31.031,"amap_marker_url":"https://uri.amap.com/marker?position=119.459611,25.606198&name=%E7%A6%8F%E6%B8%85%E5%B8%82%E7%95%9C%E7%89%A7%E5%85%BD%E5%8C%BB%E4%B8%AD%E5%BF%83%E9%BE%99%E7%94%B0%E7%95%9C%E7%89%A7%E5%85%BD%E5%8C%BB%E7%AB%99&src=vetmap&coordinate=gaode&callnative=1"},{"name":"福清市海口益光兽药店","address":"陈氏祠堂西南侧190米","phone":"","category":"医疗保健服务;动物医疗场所;动物医疗场所","area":"","lng":119.421612,"lat":25.646426,"amap_id":"B0L26RFHHM","order":8,"prev_distance_km":5.876,"cumulative_distance_km":36.906,"amap_marker_url":"https://uri.amap.com/marker?position=119.421612,25.646426&name=%E7%A6%8F%E6%B8%85%E5%B8%82%E6%B5%B7%E5%8F%A3%E7%9B%8A%E5%85%89%E5%85%BD%E8%8D%AF%E5%BA%97&src=vetmap&coordinate=gaode&callnative=1"},{"name":"农威兽药店","address":"龙山路与东门街交叉口东北100米","phone":"","category":"医疗保健服务;动物医疗场所;动物医疗场所","area":"玉屏","lng":119.389207,"lat":25.72087,"amap_id":"B0FFMCG9ZR","order":9,"prev_distance_km":8.892,"cumulative_distance_km":45.798,"amap_marker_url":"https://uri.amap.com/marker?position=119.389207,25.720870&name=%E5%86%9C%E5%A8%81%E5%85%BD%E8%8D%AF%E5%BA%97&src=vetmap&coordinate=gaode&callnative=1"},{"name":"唯美宠物美容","address":"玉屏街道玉井路301号","phone":"15985719180","category":"医疗保健服务;动物医疗场所;宠物诊所","area":"福清","lng":119.387873,"lat":25.72861,"amap_id":"B0FFG9CNZ6","order":10,"prev_distance_km":0.871,"cumulative_distance_km":46.669,"amap_marker_url":"https://uri.amap.com/marker?position=119.387873,25.728610&name=%E5%94%AF%E7%BE%8E%E5%AE%A0%E7%89%A9%E7%BE%8E%E5%AE%B9&src=vetmap&coordinate=gaode&callnative=1"},{"name":"家缘宠物医院(翰林店)","address":"清荣大道103号","phone":"17850008268","category":"医疗保健服务;动物医疗场所;宠物诊所","area":"玉屏","lng":119.385328,"lat":25.725155,"amap_id":"B0I2HZ37YY","order":11,"prev_distance_km":0.461,"cumulative_distance_km":47.13,"amap_marker_url":"https://uri.amap.com/marker?position=119.385328,25.725155&name=%E5%AE%B6%E7%BC%98%E5%AE%A0%E7%89%A9%E5%8C%BB%E9%99%A2%28%E7%BF%B0%E6%9E%97%E5%BA%97%29&src=vetmap&coordinate=gaode&callnative=1"},{"name":"玉斗园畜牧兽医中心","address":"小桥街与何厝巷交叉口东100米","phone":"","category":"医疗保健服务;动物医疗场所;兽医站","area":"玉屏","lng":119.383525,"lat":25.717375,"amap_id":"B0M65DIOTM","order":12,"prev_distance_km":0.884,"cumulative_distance_km":48.014,"amap_marker_url":"https://uri.amap.com/marker?position=119.383525,25.717375&name=%E7%8E%89%E6%96%97%E5%9B%AD%E7%95%9C%E7%89%A7%E5%85%BD%E5%8C%BB%E4%B8%AD%E5%BF%83&src=vetmap&coordinate=gaode&callnative=1"},{"name":"瑞辰顽皮动物医院(侨中店)","address":"融润书香苑玉屏凤凰路66-101号、66-102号顽皮宠物医院","phone":"13950449427;15605085295","category":"医疗保健服务;动物医疗场所;宠物诊所","area":"玉屏","lng":119.376513,"lat":25.721284,"amap_id":"B0L6P7AJ0Q","order":13,"prev_distance_km":0.826,"cumulative_distance_km":48.84,"amap_marker_url":"https://uri.amap.com/marker?position=119.376513,25.721284&name=%E7%91%9E%E8%BE%B0%E9%A1%BD%E7%9A%AE%E5%8A%A8%E7%89%A9%E5%8C%BB%E9%99%A2%28%E4%BE%A8%E4%B8%AD%E5%BA%97%29&src=vetmap&coordinate=gaode&callnative=1"},{"name":"福宝宠物","address":"福百路9-23号","phone":"18500090531","category":"医疗保健服务;动物医疗场所;动物医疗场所","area":"福清","lng":119.355603,"lat":25.722562,"amap_id":"B0K047TF0F","order":14,"prev_distance_km":2.1,"cumulative_distance_km":50.94,"amap_marker_url":"https://uri.amap.com/marker?position=119.355603,25.722562&name=%E7%A6%8F%E5%AE%9D%E5%AE%A0%E7%89%A9&src=vetmap&coordinate=gaode&callnative=1"},{"name":"天宝美容医院","address":"康达路与康健路交叉口北180米","phone":"","category":"医疗保健服务;动物医疗场所;宠物诊所","area":"","lng":119.345825,"lat":25.730251,"amap_id":"B0L0HPPDV7","order":15,"prev_distance_km":1.3,"cumulative_distance_km":52.24,"amap_marker_url":"https://uri.amap.com/marker?position=119.345825,25.730251&name=%E5%A4%A9%E5%AE%9D%E7%BE%8E%E5%AE%B9%E5%8C%BB%E9%99%A2&src=vetmap&coordinate=gaode&callnative=1"},{"name":"家缘宠物医院(侨荣城店)","address":"侨荣城东南门西130米","phone":"13328221282","category":"医疗保健服务;动物医疗场所;宠物诊所","area":"福清","lng":119.346482,"lat":25.713003,"amap_id":"B0JA9XKTMJ","order":16,"prev_distance_km":1.919,"cumulative_distance_km":54.159,"amap_marker_url":"https://uri.amap.com/marker?position=119.346482,25.713003&name=%E5%AE%B6%E7%BC%98%E5%AE%A0%E7%89%A9%E5%8C%BB%E9%99%A2%28%E4%BE%A8%E8%8D%A3%E5%9F%8E%E5%BA%97%29&src=vetmap&coordinate=gaode&callnative=1"},{"name":"瑞辰顽皮多格动物医院(江滨中心院)","address":"清盛大道与福人路交叉口西80米","phone":"13178117160","category":"医疗保健服务;动物医疗场所;宠物诊所","area":"","lng":119.348204,"lat":25.70564,"amap_id":"B0FFIPVYWK","order":17,"prev_distance_km":0.837,"cumulative_distance_km":54.995,"amap_marker_url":"https://uri.amap.com/marker?position=119.348204,25.705640&name=%E7%91%9E%E8%BE%B0%E9%A1%BD%E7%9A%AE%E5%A4%9A%E6%A0%BC%E5%8A%A8%E7%89%A9%E5%8C%BB%E9%99%A2%28%E6%B1%9F%E6%BB%A8%E4%B8%AD%E5%BF%83%E9%99%A2%29&src=vetmap&coordinate=gaode&callnative=1"},{"name":"爱德旺宠物医院(融侨·观邸店)","address":"石竹街道融侨观邸279-102-103、105店面","phone":"13605953887","category":"医疗保健服务;动物医疗场所;宠物诊所","area":"","lng":119.339744,"lat":25.710602,"amap_id":"B0G0FA8DUY","order":18,"prev_distance_km":1.011,"cumulative_distance_km":56.007,"amap_marker_url":"https://uri.amap.com/marker?position=119.339744,25.710602&name=%E7%88%B1%E5%BE%B7%E6%97%BA%E5%AE%A0%E7%89%A9%E5%8C%BB%E9%99%A2%28%E8%9E%8D%E4%BE%A8%C2%B7%E8%A7%82%E9%82%B8%E5%BA%97%29&src=vetmap&coordinate=gaode&callnative=1"},{"name":"瑞尔宠物","address":"中庚紫金香山13栋116号","phone":"17364856245","category":"医疗保健服务;动物医疗场所;动物医疗场所","area":"宏路","lng":119.336151,"lat":25.70831,"amap_id":"B0LBXZIGFW","order":19,"prev_distance_km":0.441,"cumulative_distance_km":56.448,"amap_marker_url":"https://uri.amap.com/marker?position=119.336151,25.708310&name=%E7%91%9E%E5%B0%94%E5%AE%A0%E7%89%A9&src=vetmap&coordinate=gaode&callnative=1"},{"name":"萌宠宠物医院","address":"华润·中央公园东门旁","phone":"","category":"医疗保健服务;动物医疗场所;宠物诊所","area":"宏路","lng":119.329975,"lat":25.706075,"amap_id":"B0LKS7J24O","order":20,"prev_distance_km":0.667,"cumulative_distance_km":57.115,"amap_marker_url":"https://uri.amap.com/marker?position=119.329975,25.706075&name=%E8%90%8C%E5%AE%A0%E5%AE%A0%E7%89%A9%E5%8C%BB%E9%99%A2&src=vetmap&coordinate=gaode&callnative=1"},{"name":"开心宠物医院","address":"宏路街道中联城二期八号楼106-107店面","phone":"15359152239","category":"医疗保健服务;动物医疗场所;宠物诊所","area":"宏路","lng":119.337808,"lat":25.701442,"amap_id":"B0HK5CNDJI","order":21,"prev_distance_km":0.939,"cumulative_distance_km":58.053,"amap_marker_url":"https://uri.amap.com/marker?position=119.337808,25.701442&name=%E5%BC%80%E5%BF%83%E5%AE%A0%E7%89%A9%E5%8C%BB%E9%99%A2&src=vetmap&coordinate=gaode&callnative=1"},{"name":"宠物昼夜救护中心","address":"福建三华东物淀粉公司正对面","phone":"13859079095","category":"医疗保健服务;动物医疗场所;宠物诊所","area":"","lng":119.298175,"lat":25.614775,"amap_id":"B0H1B5XGGF","order":22,"prev_distance_km":10.424,"cumulative_distance_km":68.477,"amap_marker_url":"https://uri.amap.com/marker?position=119.298175,25.614775&name=%E5%AE%A0%E7%89%A9%E6%98%BC%E5%A4%9C%E6%95%91%E6%8A%A4%E4%B8%AD%E5%BF%83&src=vetmap&coordinate=gaode&callnative=1"},{"name":"吴明玉兽药店","address":"糖厂路与乐业路交叉口东北180米","phone":"","category":"医疗保健服务;动物医疗场所;动物医疗场所","area":"","lng":119.301716,"lat":25.607526,"amap_id":"B0JDTX0YJJ","order":23,"prev_distance_km":0.881,"cumulative_distance_km":69.358,"amap_marker_url":"https://uri.amap.com/marker?position=119.301716,25.607526&name=%E5%90%B4%E6%98%8E%E7%8E%89%E5%85%BD%E8%8D%AF%E5%BA%97&src=vetmap&coordinate=gaode&callnative=1"},{"name":"渔溪畜牧兽医站","address":"八一五路与双墩路交叉口南140米","phone":"","category":"医疗保健服务;动物医疗场所;兽医站","area":"","lng":119.295345,"lat":25.600355,"amap_id":"B024F0617N","order":24,"prev_distance_km":1.022,"cumulative_distance_km":70.38,"amap_marker_url":"https://uri.amap.com/marker?position=119.295345,25.600355&name=%E6%B8%94%E6%BA%AA%E7%95%9C%E7%89%A7%E5%85%BD%E5%8C%BB%E7%AB%99&src=vetmap&coordinate=gaode&callnative=1"},{"name":"福清市畜牧兽医中心江阴畜牧兽医站","address":"南港大道(江阴镇政府南侧约150米)","phone":"15980543330","category":"医疗保健服务;动物医疗场所;兽医站","area":"","lng":119.31954,"lat":25.454016,"amap_id":"B0FFIUCNI9","order":25,"prev_distance_km":16.452,"cumulative_distance_km":86.832,"amap_marker_url":"https://uri.amap.com/marker?position=119.319540,25.454016&name=%E7%A6%8F%E6%B8%85%E5%B8%82%E7%95%9C%E7%89%A7%E5%85%BD%E5%8C%BB%E4%B8%AD%E5%BF%83%E6%B1%9F%E9%98%B4%E7%95%9C%E7%89%A7%E5%85%BD%E5%8C%BB%E7%AB%99&src=vetmap&coordinate=gaode&callnative=1"}]}