{"summary":{"id":"d01635","province":"福建省","city":"泉州市","district":"晋江市","count":43,"route_count":1,"max_route_clinics":43,"total_distance_km":79.079,"coordinate_system":"GCJ-02 / Amap","generated_at":"2026-05-08 19:48:32"},"routes":[{"id":"r1","name":"第1段","count":43,"total_distance_km":79.079,"rows":[{"name":"十六号宠物医院·桥南总店·骨科中心","address":"池峰路新加坡城1期7栋19-20门店","phone":"17750561116","category":"医疗保健服务;动物医疗场所;宠物诊所","area":"","lng":118.566908,"lat":24.881563,"amap_id":"B0FFJ8A1UY","order":1,"prev_distance_km":0.0,"cumulative_distance_km":0.0,"amap_marker_url":"https://uri.amap.com/marker?position=118.566908,24.881563&name=%E5%8D%81%E5%85%AD%E5%8F%B7%E5%AE%A0%E7%89%A9%E5%8C%BB%E9%99%A2%C2%B7%E6%A1%A5%E5%8D%97%E6%80%BB%E5%BA%97%C2%B7%E9%AA%A8%E7%A7%91%E4%B8%AD%E5%BF%83&src=vetmap&coordinate=gaode&callnative=1","route_id":"r1","route_name":"第1段"},{"name":"瑞鹏宠物医院(望江路店)","address":"望江路79号(百捷中央公园A区11栋110店面)","phone":"0595-22881751","category":"医疗保健服务;动物医疗场所;宠物诊所","area":"","lng":118.569346,"lat":24.882569,"amap_id":"B0HDGUN9H8","order":2,"prev_distance_km":0.27,"cumulative_distance_km":0.27,"amap_marker_url":"https://uri.amap.com/marker?position=118.569346,24.882569&name=%E7%91%9E%E9%B9%8F%E5%AE%A0%E7%89%A9%E5%8C%BB%E9%99%A2%28%E6%9C%9B%E6%B1%9F%E8%B7%AF%E5%BA%97%29&src=vetmap&coordinate=gaode&callnative=1","route_id":"r1","route_name":"第1段"},{"name":"问心宠物医院","address":"池店镇望江路158号","phone":"13799872982","category":"医疗保健服务;动物医疗场所;宠物诊所","area":"","lng":118.572601,"lat":24.884367,"amap_id":"B0M6KZBQYV","order":3,"prev_distance_km":0.384,"cumulative_distance_km":0.655,"amap_marker_url":"https://uri.amap.com/marker?position=118.572601,24.884367&name=%E9%97%AE%E5%BF%83%E5%AE%A0%E7%89%A9%E5%8C%BB%E9%99%A2&src=vetmap&coordinate=gaode&callnative=1","route_id":"r1","route_name":"第1段"},{"name":"宠先生呗恩宠物诊所(桥南店)","address":"中骏·蓝湾半岛11栋16号","phone":"18705003530","category":"医疗保健服务;动物医疗场所;宠物诊所","area":"","lng":118.574468,"lat":24.886682,"amap_id":"B0FFJ890IG","order":4,"prev_distance_km":0.319,"cumulative_distance_km":0.974,"amap_marker_url":"https://uri.amap.com/marker?position=118.574468,24.886682&name=%E5%AE%A0%E5%85%88%E7%94%9F%E5%91%97%E6%81%A9%E5%AE%A0%E7%89%A9%E8%AF%8A%E6%89%80%28%E6%A1%A5%E5%8D%97%E5%BA%97%29&src=vetmap&coordinate=gaode&callnative=1","route_id":"r1","route_name":"第1段"},{"name":"启爱宠物医院","address":"中骏·四季花城1期西北1门东北160米","phone":"18259540009","category":"医疗保健服务;动物医疗场所;宠物诊所","area":"","lng":118.596505,"lat":24.863812,"amap_id":"B0KG2KS057","order":5,"prev_distance_km":3.378,"cumulative_distance_km":4.351,"amap_marker_url":"https://uri.amap.com/marker?position=118.596505,24.863812&name=%E5%90%AF%E7%88%B1%E5%AE%A0%E7%89%A9%E5%8C%BB%E9%99%A2&src=vetmap&coordinate=gaode&callnative=1","route_id":"r1","route_name":"第1段"},{"name":"宠缘宠物医院","address":"陈埭镇涵口村双龙嘉园1892号","phone":"15959881380","category":"医疗保健服务;动物医疗场所;宠物诊所","area":"","lng":118.602392,"lat":24.834256,"amap_id":"B0FFLHY90F","order":6,"prev_distance_km":3.34,"cumulative_distance_km":7.691,"amap_marker_url":"https://uri.amap.com/marker?position=118.602392,24.834256&name=%E5%AE%A0%E7%BC%98%E5%AE%A0%E7%89%A9%E5%8C%BB%E9%99%A2&src=vetmap&coordinate=gaode&callnative=1","route_id":"r1","route_name":"第1段"},{"name":"康隆动物(和平中路店)","address":"梅岭街道和平北路91-93号","phone":"18120636295","category":"医疗保健服务;动物医疗场所;宠物诊所","area":"梅岭","lng":118.588936,"lat":24.821841,"amap_id":"B0FFFNPOKA","order":7,"prev_distance_km":1.936,"cumulative_distance_km":9.627,"amap_marker_url":"https://uri.amap.com/marker?position=118.588936,24.821841&name=%E5%BA%B7%E9%9A%86%E5%8A%A8%E7%89%A9%28%E5%92%8C%E5%B9%B3%E4%B8%AD%E8%B7%AF%E5%BA%97%29&src=vetmap&coordinate=gaode&callnative=1","route_id":"r1","route_name":"第1段"},{"name":"晋江市动物检疫申报点","address":"和平北路33号附近","phone":"","category":"医疗保健服务;动物医疗场所;动物医疗场所","area":"梅岭","lng":118.588981,"lat":24.821361,"amap_id":"B0FFHXLFHU","order":8,"prev_distance_km":0.054,"cumulative_distance_km":9.681,"amap_marker_url":"https://uri.amap.com/marker?position=118.588981,24.821361&name=%E6%99%8B%E6%B1%9F%E5%B8%82%E5%8A%A8%E7%89%A9%E6%A3%80%E7%96%AB%E7%94%B3%E6%8A%A5%E7%82%B9&src=vetmap&coordinate=gaode&callnative=1","route_id":"r1","route_name":"第1段"},{"name":"吉米医院24h","address":"和平中路425-463号","phone":"18120636295","category":"医疗保健服务;动物医疗场所;宠物诊所","area":"","lng":118.589698,"lat":24.817648,"amap_id":"B0L6BBUT55","order":9,"prev_distance_km":0.419,"cumulative_distance_km":10.1,"amap_marker_url":"https://uri.amap.com/marker?position=118.589698,24.817648&name=%E5%90%89%E7%B1%B3%E5%8C%BB%E9%99%A224h&src=vetmap&coordinate=gaode&callnative=1","route_id":"r1","route_name":"第1段"},{"name":"吉米宠物医院(和平中路店)","address":"和平中路449-451号","phone":"","category":"医疗保健服务;动物医疗场所;宠物诊所","area":"","lng":118.589775,"lat":24.817575,"amap_id":"B0K0VLBI4Y","order":10,"prev_distance_km":0.011,"cumulative_distance_km":10.111,"amap_marker_url":"https://uri.amap.com/marker?position=118.589775,24.817575&name=%E5%90%89%E7%B1%B3%E5%AE%A0%E7%89%A9%E5%8C%BB%E9%99%A2%28%E5%92%8C%E5%B9%B3%E4%B8%AD%E8%B7%AF%E5%BA%97%29&src=vetmap&coordinate=gaode&callnative=1","route_id":"r1","route_name":"第1段"},{"name":"爱特宠物诊所","address":"湖光路232号","phone":"17859806188","category":"医疗保健服务;动物医疗场所;宠物诊所","area":"","lng":118.59211,"lat":24.818606,"amap_id":"B0FFKXUEHD","order":11,"prev_distance_km":0.262,"cumulative_distance_km":10.373,"amap_marker_url":"https://uri.amap.com/marker?position=118.592110,24.818606&name=%E7%88%B1%E7%89%B9%E5%AE%A0%E7%89%A9%E8%AF%8A%E6%89%80&src=vetmap&coordinate=gaode&callnative=1","route_id":"r1","route_name":"第1段"},{"name":"爱多茂宠物诊所","address":"盛亚楼西门旁","phone":"18359887699","category":"医疗保健服务;动物医疗场所;宠物诊所","area":"","lng":118.59595,"lat":24.813207,"amap_id":"B0K0CDAYJG","order":12,"prev_distance_km":0.715,"cumulative_distance_km":11.088,"amap_marker_url":"https://uri.amap.com/marker?position=118.595950,24.813207&name=%E7%88%B1%E5%A4%9A%E8%8C%82%E5%AE%A0%E7%89%A9%E8%AF%8A%E6%89%80&src=vetmap&coordinate=gaode&callnative=1","route_id":"r1","route_name":"第1段"},{"name":"星宠宠物诊所(时代分院)","address":"金溪路陈段5号第5-6间店面","phone":"17350783996","category":"医疗保健服务;动物医疗场所;宠物诊所","area":"","lng":118.597734,"lat":24.811712,"amap_id":"B0J1JZOIVW","order":13,"prev_distance_km":0.245,"cumulative_distance_km":11.333,"amap_marker_url":"https://uri.amap.com/marker?position=118.597734,24.811712&name=%E6%98%9F%E5%AE%A0%E5%AE%A0%E7%89%A9%E8%AF%8A%E6%89%80%28%E6%97%B6%E4%BB%A3%E5%88%86%E9%99%A2%29&src=vetmap&coordinate=gaode&callnative=1","route_id":"r1","route_name":"第1段"},{"name":"瑞辰爱康宠物医院(青阳院)","address":"青阳街道阳光路20-22号","phone":"0595-85027000;17750517900","category":"医疗保健服务;动物医疗场所;宠物诊所","area":"","lng":118.593818,"lat":24.813089,"amap_id":"B0FFGGC5MF","order":14,"prev_distance_km":0.424,"cumulative_distance_km":11.757,"amap_marker_url":"https://uri.amap.com/marker?position=118.593818,24.813089&name=%E7%91%9E%E8%BE%B0%E7%88%B1%E5%BA%B7%E5%AE%A0%E7%89%A9%E5%8C%BB%E9%99%A2%28%E9%9D%92%E9%98%B3%E9%99%A2%29&src=vetmap&coordinate=gaode&callnative=1","route_id":"r1","route_name":"第1段"},{"name":"凌峰宠物","address":"青阳街道青华社区和平中路359-361号","phone":"18006038060","category":"医疗保健服务;动物医疗场所;宠物诊所","area":"","lng":118.589882,"lat":24.815611,"amap_id":"B0JG97C9MK","order":15,"prev_distance_km":0.486,"cumulative_distance_km":12.243,"amap_marker_url":"https://uri.amap.com/marker?position=118.589882,24.815611&name=%E5%87%8C%E5%B3%B0%E5%AE%A0%E7%89%A9&src=vetmap&coordinate=gaode&callnative=1","route_id":"r1","route_name":"第1段"},{"name":"星宏宠物医院(福隆分院)","address":"泉安中路569-2-571-1号","phone":"0595-85637080;13850726600","category":"医疗保健服务;动物医疗场所;宠物诊所","area":"梅岭","lng":118.58415,"lat":24.810603,"amap_id":"B0H0ODY11A","order":16,"prev_distance_km":0.803,"cumulative_distance_km":13.046,"amap_marker_url":"https://uri.amap.com/marker?position=118.584150,24.810603&name=%E6%98%9F%E5%AE%8F%E5%AE%A0%E7%89%A9%E5%8C%BB%E9%99%A2%28%E7%A6%8F%E9%9A%86%E5%88%86%E9%99%A2%29&src=vetmap&coordinate=gaode&callnative=1","route_id":"r1","route_name":"第1段"},{"name":"多多宠物店(翰林路店)","address":"东岩苑北门西南110米","phone":"13960442899","category":"医疗保健服务;动物医疗场所;动物医疗场所","area":"梅岭","lng":118.58338,"lat":24.813181,"amap_id":"B0FFH5XNZS","order":17,"prev_distance_km":0.297,"cumulative_distance_km":13.343,"amap_marker_url":"https://uri.amap.com/marker?position=118.583380,24.813181&name=%E5%A4%9A%E5%A4%9A%E5%AE%A0%E7%89%A9%E5%BA%97%28%E7%BF%B0%E6%9E%97%E8%B7%AF%E5%BA%97%29&src=vetmap&coordinate=gaode&callnative=1","route_id":"r1","route_name":"第1段"},{"name":"心宠物护理中心","address":"翠山苑11栋4号店","phone":"13760397473;15160397473","category":"医疗保健服务;动物医疗场所;宠物诊所","area":"梅岭","lng":118.582719,"lat":24.815395,"amap_id":"B0FFF03NRP","order":18,"prev_distance_km":0.255,"cumulative_distance_km":13.598,"amap_marker_url":"https://uri.amap.com/marker?position=118.582719,24.815395&name=%E5%BF%83%E5%AE%A0%E7%89%A9%E6%8A%A4%E7%90%86%E4%B8%AD%E5%BF%83&src=vetmap&coordinate=gaode&callnative=1","route_id":"r1","route_name":"第1段"},{"name":"阳阳宠物医院(湖光路店)","address":"湖光路502号","phone":"13636908060;13905955800","category":"医疗保健服务;动物医疗场所;宠物诊所","area":"梅岭","lng":118.583969,"lat":24.817442,"amap_id":"B0253047N2","order":19,"prev_distance_km":0.26,"cumulative_distance_km":13.859,"amap_marker_url":"https://uri.amap.com/marker?position=118.583969,24.817442&name=%E9%98%B3%E9%98%B3%E5%AE%A0%E7%89%A9%E5%8C%BB%E9%99%A2%28%E6%B9%96%E5%85%89%E8%B7%AF%E5%BA%97%29&src=vetmap&coordinate=gaode&callnative=1","route_id":"r1","route_name":"第1段"},{"name":"乔志宠物医院","address":"石鼓路487号","phone":"13394021009","category":"医疗保健服务;动物医疗场所;宠物诊所","area":"梅岭","lng":118.575407,"lat":24.819985,"amap_id":"B0FFKM9RMF","order":20,"prev_distance_km":0.909,"cumulative_distance_km":14.768,"amap_marker_url":"https://uri.amap.com/marker?position=118.575407,24.819985&name=%E4%B9%94%E5%BF%97%E5%AE%A0%E7%89%A9%E5%8C%BB%E9%99%A2&src=vetmap&coordinate=gaode&callnative=1","route_id":"r1","route_name":"第1段"},{"name":"景康宠物医院·骨科中心·犬猫全科","address":"万达华府C区北门西150米","phone":"17359996697","category":"医疗保健服务;动物医疗场所;宠物诊所","area":"梅岭","lng":118.575085,"lat":24.819949,"amap_id":"B0J3D4IFMH","order":21,"prev_distance_km":0.033,"cumulative_distance_km":14.8,"amap_marker_url":"https://uri.amap.com/marker?position=118.575085,24.819949&name=%E6%99%AF%E5%BA%B7%E5%AE%A0%E7%89%A9%E5%8C%BB%E9%99%A2%C2%B7%E9%AA%A8%E7%A7%91%E4%B8%AD%E5%BF%83%C2%B7%E7%8A%AC%E7%8C%AB%E5%85%A8%E7%A7%91&src=vetmap&coordinate=gaode&callnative=1","route_id":"r1","route_name":"第1段"},{"name":"十六号宠物医院(万达分店)","address":"梅岭街道桂山社区石鼓路578号(百宏御景天下)","phone":"18105071747","category":"医疗保健服务;动物医疗场所;宠物诊所","area":"梅岭","lng":118.574833,"lat":24.82062,"amap_id":"B0H2BSKASG","order":22,"prev_distance_km":0.079,"cumulative_distance_km":14.879,"amap_marker_url":"https://uri.amap.com/marker?position=118.574833,24.820620&name=%E5%8D%81%E5%85%AD%E5%8F%B7%E5%AE%A0%E7%89%A9%E5%8C%BB%E9%99%A2%28%E4%B8%87%E8%BE%BE%E5%88%86%E5%BA%97%29&src=vetmap&coordinate=gaode&callnative=1","route_id":"r1","route_name":"第1段"},{"name":"贝恩宠物诊所(宝龙店)","address":"宝龙金色家园西南1门旁","phone":"13110748881;13305075776","category":"医疗保健服务;动物医疗场所;宠物诊所","area":"梅岭","lng":118.579373,"lat":24.829225,"amap_id":"B0FFHJT46F","order":23,"prev_distance_km":1.061,"cumulative_distance_km":15.94,"amap_marker_url":"https://uri.amap.com/marker?position=118.579373,24.829225&name=%E8%B4%9D%E6%81%A9%E5%AE%A0%E7%89%A9%E8%AF%8A%E6%89%80%28%E5%AE%9D%E9%BE%99%E5%BA%97%29&src=vetmap&coordinate=gaode&callnative=1","route_id":"r1","route_name":"第1段"},{"name":"瑞辰悠乐宠物医院(爱康悠乐院)","address":"梅岭街道竹园社区双龙西路3133号店","phone":"0595-88185066;17750768896","category":"医疗保健服务;动物医疗场所;宠物诊所","area":"梅岭","lng":118.577175,"lat":24.830475,"amap_id":"B0FFHJM9T7","order":24,"prev_distance_km":0.262,"cumulative_distance_km":16.202,"amap_marker_url":"https://uri.amap.com/marker?position=118.577175,24.830475&name=%E7%91%9E%E8%BE%B0%E6%82%A0%E4%B9%90%E5%AE%A0%E7%89%A9%E5%8C%BB%E9%99%A2%28%E7%88%B1%E5%BA%B7%E6%82%A0%E4%B9%90%E9%99%A2%29&src=vetmap&coordinate=gaode&callnative=1","route_id":"r1","route_name":"第1段"},{"name":"悠理宠物(西园店)","address":"湖璟·天城东北门旁","phone":"","category":"购物服务;专卖店;宠物用品店|医疗保健服务;动物医疗场所;动物医疗场所","area":"西园","lng":118.558975,"lat":24.829775,"amap_id":"B0LU96A8QT","order":25,"prev_distance_km":1.838,"cumulative_distance_km":18.04,"amap_marker_url":"https://uri.amap.com/marker?position=118.558975,24.829775&name=%E6%82%A0%E7%90%86%E5%AE%A0%E7%89%A9%28%E8%A5%BF%E5%9B%AD%E5%BA%97%29&src=vetmap&coordinate=gaode&callnative=1","route_id":"r1","route_name":"第1段"},{"name":"瑞鹏宠物医院(长兴路分院)","address":"许厝社区长兴路788号融泉花都23幢连体店面","phone":"0595-88018071","category":"医疗保健服务;动物医疗场所;宠物诊所","area":"梅岭","lng":118.561345,"lat":24.805097,"amap_id":"B0HRCSK536","order":26,"prev_distance_km":2.754,"cumulative_distance_km":20.795,"amap_marker_url":"https://uri.amap.com/marker?position=118.561345,24.805097&name=%E7%91%9E%E9%B9%8F%E5%AE%A0%E7%89%A9%E5%8C%BB%E9%99%A2%28%E9%95%BF%E5%85%B4%E8%B7%AF%E5%88%86%E9%99%A2%29&src=vetmap&coordinate=gaode&callnative=1","route_id":"r1","route_name":"第1段"},{"name":"晋江市宠文鑫宠物医院(晋江分院)","address":"迎宾路345号","phone":"","category":"医疗保健服务;动物医疗场所;宠物诊所","area":"梅岭","lng":118.565361,"lat":24.806078,"amap_id":"B0L6DUX5H2","order":27,"prev_distance_km":0.42,"cumulative_distance_km":21.215,"amap_marker_url":"https://uri.amap.com/marker?position=118.565361,24.806078&name=%E6%99%8B%E6%B1%9F%E5%B8%82%E5%AE%A0%E6%96%87%E9%91%AB%E5%AE%A0%E7%89%A9%E5%8C%BB%E9%99%A2%28%E6%99%8B%E6%B1%9F%E5%88%86%E9%99%A2%29&src=vetmap&coordinate=gaode&callnative=1","route_id":"r1","route_name":"第1段"},{"name":"欧可宠物医院·心脏影像中心·犬猫全科","address":"迎宾路与世纪大道交叉口西140米","phone":"","category":"医疗保健服务;动物医疗场所;宠物诊所","area":"梅岭","lng":118.565407,"lat":24.806026,"amap_id":"B0L61ASSFR","order":28,"prev_distance_km":0.007,"cumulative_distance_km":21.222,"amap_marker_url":"https://uri.amap.com/marker?position=118.565407,24.806026&name=%E6%AC%A7%E5%8F%AF%E5%AE%A0%E7%89%A9%E5%8C%BB%E9%99%A2%C2%B7%E5%BF%83%E8%84%8F%E5%BD%B1%E5%83%8F%E4%B8%AD%E5%BF%83%C2%B7%E7%8A%AC%E7%8C%AB%E5%85%A8%E7%A7%91&src=vetmap&coordinate=gaode&callnative=1","route_id":"r1","route_name":"第1段"},{"name":"宠和宠医·犬猫专科(晋江分院)","address":"迎宾路345号","phone":"18016635223","category":"医疗保健服务;动物医疗场所;宠物诊所","area":"梅岭","lng":118.565472,"lat":24.80598,"amap_id":"B0L6M7XQOA","order":29,"prev_distance_km":0.008,"cumulative_distance_km":21.23,"amap_marker_url":"https://uri.amap.com/marker?position=118.565472,24.805980&name=%E5%AE%A0%E5%92%8C%E5%AE%A0%E5%8C%BB%C2%B7%E7%8A%AC%E7%8C%AB%E4%B8%93%E7%A7%91%28%E6%99%8B%E6%B1%9F%E5%88%86%E9%99%A2%29&src=vetmap&coordinate=gaode&callnative=1","route_id":"r1","route_name":"第1段"},{"name":"嘟嘟宠物医疗诊所(晋江分院)","address":"世纪大道520号","phone":"17359977582","category":"医疗保健服务;动物医疗场所;宠物诊所","area":"梅岭","lng":118.566768,"lat":24.803878,"amap_id":"B0JG1HEA3L","order":30,"prev_distance_km":0.268,"cumulative_distance_km":21.498,"amap_marker_url":"https://uri.amap.com/marker?position=118.566768,24.803878&name=%E5%98%9F%E5%98%9F%E5%AE%A0%E7%89%A9%E5%8C%BB%E7%96%97%E8%AF%8A%E6%89%80%28%E6%99%8B%E6%B1%9F%E5%88%86%E9%99%A2%29&src=vetmap&coordinate=gaode&callnative=1","route_id":"r1","route_name":"第1段"},{"name":"爱心宠物医院","address":"曾井小区永泰路29号","phone":"0595-88103408;13055327897","category":"医疗保健服务;动物医疗场所;宠物诊所","area":"梅岭","lng":118.575073,"lat":24.802504,"amap_id":"B02530Q10Z","order":31,"prev_distance_km":0.852,"cumulative_distance_km":22.35,"amap_marker_url":"https://uri.amap.com/marker?position=118.575073,24.802504&name=%E7%88%B1%E5%BF%83%E5%AE%A0%E7%89%A9%E5%8C%BB%E9%99%A2&src=vetmap&coordinate=gaode&callnative=1","route_id":"r1","route_name":"第1段"},{"name":"瑞佳宠物医院","address":"福兴东路罗山段683-9号(华泰)","phone":"18559531103","category":"医疗保健服务;动物医疗场所;宠物诊所","area":"罗山","lng":118.566493,"lat":24.776038,"amap_id":"B0KD1HCSRZ","order":32,"prev_distance_km":3.068,"cumulative_distance_km":25.418,"amap_marker_url":"https://uri.amap.com/marker?position=118.566493,24.776038&name=%E7%91%9E%E4%BD%B3%E5%AE%A0%E7%89%A9%E5%8C%BB%E9%99%A2&src=vetmap&coordinate=gaode&callnative=1","route_id":"r1","route_name":"第1段"},{"name":"晋江市医院动物致伤防治中心","address":"灵里路与兴山路交叉口东60米","phone":"","category":"医疗保健服务;动物医疗场所;动物医疗场所","area":"","lng":118.565681,"lat":24.765655,"amap_id":"B0LGFOU0HN","order":33,"prev_distance_km":1.157,"cumulative_distance_km":26.575,"amap_marker_url":"https://uri.amap.com/marker?position=118.565681,24.765655&name=%E6%99%8B%E6%B1%9F%E5%B8%82%E5%8C%BB%E9%99%A2%E5%8A%A8%E7%89%A9%E8%87%B4%E4%BC%A4%E9%98%B2%E6%B2%BB%E4%B8%AD%E5%BF%83&src=vetmap&coordinate=gaode&callnative=1","route_id":"r1","route_name":"第1段"},{"name":"好狗命宠物诊所(磁灶店)","address":"磁灶镇海西星城1栋28号","phone":"15959865932","category":"医疗保健服务;动物医疗场所;宠物诊所","area":"","lng":118.493858,"lat":24.817375,"amap_id":"B0G25MTBUF","order":34,"prev_distance_km":9.254,"cumulative_distance_km":35.83,"amap_marker_url":"https://uri.amap.com/marker?position=118.493858,24.817375&name=%E5%A5%BD%E7%8B%97%E5%91%BD%E5%AE%A0%E7%89%A9%E8%AF%8A%E6%89%80%28%E7%A3%81%E7%81%B6%E5%BA%97%29&src=vetmap&coordinate=gaode&callnative=1","route_id":"r1","route_name":"第1段"},{"name":"内坑镇动物检疫申报点","address":"蓝侨街与东街交叉口东南280米","phone":"","category":"医疗保健服务;动物医疗场所;动物医疗场所","area":"","lng":118.442738,"lat":24.806679,"amap_id":"B0HGTOBP1U","order":35,"prev_distance_km":5.295,"cumulative_distance_km":41.125,"amap_marker_url":"https://uri.amap.com/marker?position=118.442738,24.806679&name=%E5%86%85%E5%9D%91%E9%95%87%E5%8A%A8%E7%89%A9%E6%A3%80%E7%96%AB%E7%94%B3%E6%8A%A5%E7%82%B9&src=vetmap&coordinate=gaode&callnative=1","route_id":"r1","route_name":"第1段"},{"name":"安心宠乐宠物诊所(恒安路店)","address":"安海镇恒安路7号","phone":"13799450461","category":"医疗保健服务;动物医疗场所;宠物诊所","area":"","lng":118.478392,"lat":24.713046,"amap_id":"B0IR1SURMD","order":36,"prev_distance_km":11.016,"cumulative_distance_km":52.141,"amap_marker_url":"https://uri.amap.com/marker?position=118.478392,24.713046&name=%E5%AE%89%E5%BF%83%E5%AE%A0%E4%B9%90%E5%AE%A0%E7%89%A9%E8%AF%8A%E6%89%80%28%E6%81%92%E5%AE%89%E8%B7%AF%E5%BA%97%29&src=vetmap&coordinate=gaode&callnative=1","route_id":"r1","route_name":"第1段"},{"name":"灵宠宠物医院(优爱贝晋江店)","address":"安海镇桥工街宝辉大厦","phone":"13788854309","category":"医疗保健服务;动物医疗场所;宠物诊所","area":"","lng":118.476723,"lat":24.712501,"amap_id":"B0JKJSH1LU","order":37,"prev_distance_km":0.179,"cumulative_distance_km":52.32,"amap_marker_url":"https://uri.amap.com/marker?position=118.476723,24.712501&name=%E7%81%B5%E5%AE%A0%E5%AE%A0%E7%89%A9%E5%8C%BB%E9%99%A2%28%E4%BC%98%E7%88%B1%E8%B4%9D%E6%99%8B%E6%B1%9F%E5%BA%97%29&src=vetmap&coordinate=gaode&callnative=1","route_id":"r1","route_name":"第1段"},{"name":"利德机械","address":"安平开发区安海镇安平工业区嘉世路45号","phone":"15959876544","category":"医疗保健服务;动物医疗场所;宠物诊所","area":"","lng":118.44934,"lat":24.69457,"amap_id":"B0FFKF7VNV","order":38,"prev_distance_km":3.41,"cumulative_distance_km":55.73,"amap_marker_url":"https://uri.amap.com/marker?position=118.449340,24.694570&name=%E5%88%A9%E5%BE%B7%E6%9C%BA%E6%A2%B0&src=vetmap&coordinate=gaode&callnative=1","route_id":"r1","route_name":"第1段"},{"name":"东石畜牧兽医站","address":"南天路与侨声东路交叉口东北240米","phone":"","category":"医疗保健服务;动物医疗场所;兽医站","area":"","lng":118.466958,"lat":24.66132,"amap_id":"B0FFHBNOBO","order":39,"prev_distance_km":4.103,"cumulative_distance_km":59.833,"amap_marker_url":"https://uri.amap.com/marker?position=118.466958,24.661320&name=%E4%B8%9C%E7%9F%B3%E7%95%9C%E7%89%A7%E5%85%BD%E5%8C%BB%E7%AB%99&src=vetmap&coordinate=gaode&callnative=1","route_id":"r1","route_name":"第1段"},{"name":"调皮狗宠物诊所","address":"福建省泉州市晋江市东石镇仁和东路156号","phone":"18876548385","category":"医疗保健服务;动物医疗场所;宠物诊所","area":"","lng":118.466069,"lat":24.656907,"amap_id":"B0FFL213BD","order":40,"prev_distance_km":0.499,"cumulative_distance_km":60.332,"amap_marker_url":"https://uri.amap.com/marker?position=118.466069,24.656907&name=%E8%B0%83%E7%9A%AE%E7%8B%97%E5%AE%A0%E7%89%A9%E8%AF%8A%E6%89%80&src=vetmap&coordinate=gaode&callnative=1","route_id":"r1","route_name":"第1段"},{"name":"新益宝贝宠物诊所(英山路店)","address":"英山路526-528号","phone":"18358758870","category":"医疗保健服务;动物医疗场所;宠物诊所","area":"","lng":118.580125,"lat":24.626859,"amap_id":"B0H6MMECL5","order":41,"prev_distance_km":12.002,"cumulative_distance_km":72.334,"amap_marker_url":"https://uri.amap.com/marker?position=118.580125,24.626859&name=%E6%96%B0%E7%9B%8A%E5%AE%9D%E8%B4%9D%E5%AE%A0%E7%89%A9%E8%AF%8A%E6%89%80%28%E8%8B%B1%E5%B1%B1%E8%B7%AF%E5%BA%97%29&src=vetmap&coordinate=gaode&callnative=1","route_id":"r1","route_name":"第1段"},{"name":"顺康宠物诊所(英山路店)","address":"英林镇英山路279号-281号","phone":"15859730120","category":"医疗保健服务;动物医疗场所;宠物诊所","area":"","lng":118.580567,"lat":24.624983,"amap_id":"B0G0KZSUYS","order":42,"prev_distance_km":0.213,"cumulative_distance_km":72.548,"amap_marker_url":"https://uri.amap.com/marker?position=118.580567,24.624983&name=%E9%A1%BA%E5%BA%B7%E5%AE%A0%E7%89%A9%E8%AF%8A%E6%89%80%28%E8%8B%B1%E5%B1%B1%E8%B7%AF%E5%BA%97%29&src=vetmap&coordinate=gaode&callnative=1","route_id":"r1","route_name":"第1段"},{"name":"得泰宠物诊所","address":"中兴路455号","phone":"17201302120;19310402105","category":"医疗保健服务;动物医疗场所;宠物诊所","area":"","lng":118.602508,"lat":24.569739,"amap_id":"B0K1GZ0PQK","order":43,"prev_distance_km":6.531,"cumulative_distance_km":79.079,"amap_marker_url":"https://uri.amap.com/marker?position=118.602508,24.569739&name=%E5%BE%97%E6%B3%B0%E5%AE%A0%E7%89%A9%E8%AF%8A%E6%89%80&src=vetmap&coordinate=gaode&callnative=1","route_id":"r1","route_name":"第1段"}]}],"rows":[{"name":"十六号宠物医院·桥南总店·骨科中心","address":"池峰路新加坡城1期7栋19-20门店","phone":"17750561116","category":"医疗保健服务;动物医疗场所;宠物诊所","area":"","lng":118.566908,"lat":24.881563,"amap_id":"B0FFJ8A1UY","order":1,"prev_distance_km":0.0,"cumulative_distance_km":0.0,"amap_marker_url":"https://uri.amap.com/marker?position=118.566908,24.881563&name=%E5%8D%81%E5%85%AD%E5%8F%B7%E5%AE%A0%E7%89%A9%E5%8C%BB%E9%99%A2%C2%B7%E6%A1%A5%E5%8D%97%E6%80%BB%E5%BA%97%C2%B7%E9%AA%A8%E7%A7%91%E4%B8%AD%E5%BF%83&src=vetmap&coordinate=gaode&callnative=1","route_id":"r1","route_name":"第1段","global_order":1},{"name":"瑞鹏宠物医院(望江路店)","address":"望江路79号(百捷中央公园A区11栋110店面)","phone":"0595-22881751","category":"医疗保健服务;动物医疗场所;宠物诊所","area":"","lng":118.569346,"lat":24.882569,"amap_id":"B0HDGUN9H8","order":2,"prev_distance_km":0.27,"cumulative_distance_km":0.27,"amap_marker_url":"https://uri.amap.com/marker?position=118.569346,24.882569&name=%E7%91%9E%E9%B9%8F%E5%AE%A0%E7%89%A9%E5%8C%BB%E9%99%A2%28%E6%9C%9B%E6%B1%9F%E8%B7%AF%E5%BA%97%29&src=vetmap&coordinate=gaode&callnative=1","route_id":"r1","route_name":"第1段","global_order":2},{"name":"问心宠物医院","address":"池店镇望江路158号","phone":"13799872982","category":"医疗保健服务;动物医疗场所;宠物诊所","area":"","lng":118.572601,"lat":24.884367,"amap_id":"B0M6KZBQYV","order":3,"prev_distance_km":0.384,"cumulative_distance_km":0.655,"amap_marker_url":"https://uri.amap.com/marker?position=118.572601,24.884367&name=%E9%97%AE%E5%BF%83%E5%AE%A0%E7%89%A9%E5%8C%BB%E9%99%A2&src=vetmap&coordinate=gaode&callnative=1","route_id":"r1","route_name":"第1段","global_order":3},{"name":"宠先生呗恩宠物诊所(桥南店)","address":"中骏·蓝湾半岛11栋16号","phone":"18705003530","category":"医疗保健服务;动物医疗场所;宠物诊所","area":"","lng":118.574468,"lat":24.886682,"amap_id":"B0FFJ890IG","order":4,"prev_distance_km":0.319,"cumulative_distance_km":0.974,"amap_marker_url":"https://uri.amap.com/marker?position=118.574468,24.886682&name=%E5%AE%A0%E5%85%88%E7%94%9F%E5%91%97%E6%81%A9%E5%AE%A0%E7%89%A9%E8%AF%8A%E6%89%80%28%E6%A1%A5%E5%8D%97%E5%BA%97%29&src=vetmap&coordinate=gaode&callnative=1","route_id":"r1","route_name":"第1段","global_order":4},{"name":"启爱宠物医院","address":"中骏·四季花城1期西北1门东北160米","phone":"18259540009","category":"医疗保健服务;动物医疗场所;宠物诊所","area":"","lng":118.596505,"lat":24.863812,"amap_id":"B0KG2KS057","order":5,"prev_distance_km":3.378,"cumulative_distance_km":4.351,"amap_marker_url":"https://uri.amap.com/marker?position=118.596505,24.863812&name=%E5%90%AF%E7%88%B1%E5%AE%A0%E7%89%A9%E5%8C%BB%E9%99%A2&src=vetmap&coordinate=gaode&callnative=1","route_id":"r1","route_name":"第1段","global_order":5},{"name":"宠缘宠物医院","address":"陈埭镇涵口村双龙嘉园1892号","phone":"15959881380","category":"医疗保健服务;动物医疗场所;宠物诊所","area":"","lng":118.602392,"lat":24.834256,"amap_id":"B0FFLHY90F","order":6,"prev_distance_km":3.34,"cumulative_distance_km":7.691,"amap_marker_url":"https://uri.amap.com/marker?position=118.602392,24.834256&name=%E5%AE%A0%E7%BC%98%E5%AE%A0%E7%89%A9%E5%8C%BB%E9%99%A2&src=vetmap&coordinate=gaode&callnative=1","route_id":"r1","route_name":"第1段","global_order":6},{"name":"康隆动物(和平中路店)","address":"梅岭街道和平北路91-93号","phone":"18120636295","category":"医疗保健服务;动物医疗场所;宠物诊所","area":"梅岭","lng":118.588936,"lat":24.821841,"amap_id":"B0FFFNPOKA","order":7,"prev_distance_km":1.936,"cumulative_distance_km":9.627,"amap_marker_url":"https://uri.amap.com/marker?position=118.588936,24.821841&name=%E5%BA%B7%E9%9A%86%E5%8A%A8%E7%89%A9%28%E5%92%8C%E5%B9%B3%E4%B8%AD%E8%B7%AF%E5%BA%97%29&src=vetmap&coordinate=gaode&callnative=1","route_id":"r1","route_name":"第1段","global_order":7},{"name":"晋江市动物检疫申报点","address":"和平北路33号附近","phone":"","category":"医疗保健服务;动物医疗场所;动物医疗场所","area":"梅岭","lng":118.588981,"lat":24.821361,"amap_id":"B0FFHXLFHU","order":8,"prev_distance_km":0.054,"cumulative_distance_km":9.681,"amap_marker_url":"https://uri.amap.com/marker?position=118.588981,24.821361&name=%E6%99%8B%E6%B1%9F%E5%B8%82%E5%8A%A8%E7%89%A9%E6%A3%80%E7%96%AB%E7%94%B3%E6%8A%A5%E7%82%B9&src=vetmap&coordinate=gaode&callnative=1","route_id":"r1","route_name":"第1段","global_order":8},{"name":"吉米医院24h","address":"和平中路425-463号","phone":"18120636295","category":"医疗保健服务;动物医疗场所;宠物诊所","area":"","lng":118.589698,"lat":24.817648,"amap_id":"B0L6BBUT55","order":9,"prev_distance_km":0.419,"cumulative_distance_km":10.1,"amap_marker_url":"https://uri.amap.com/marker?position=118.589698,24.817648&name=%E5%90%89%E7%B1%B3%E5%8C%BB%E9%99%A224h&src=vetmap&coordinate=gaode&callnative=1","route_id":"r1","route_name":"第1段","global_order":9},{"name":"吉米宠物医院(和平中路店)","address":"和平中路449-451号","phone":"","category":"医疗保健服务;动物医疗场所;宠物诊所","area":"","lng":118.589775,"lat":24.817575,"amap_id":"B0K0VLBI4Y","order":10,"prev_distance_km":0.011,"cumulative_distance_km":10.111,"amap_marker_url":"https://uri.amap.com/marker?position=118.589775,24.817575&name=%E5%90%89%E7%B1%B3%E5%AE%A0%E7%89%A9%E5%8C%BB%E9%99%A2%28%E5%92%8C%E5%B9%B3%E4%B8%AD%E8%B7%AF%E5%BA%97%29&src=vetmap&coordinate=gaode&callnative=1","route_id":"r1","route_name":"第1段","global_order":10},{"name":"爱特宠物诊所","address":"湖光路232号","phone":"17859806188","category":"医疗保健服务;动物医疗场所;宠物诊所","area":"","lng":118.59211,"lat":24.818606,"amap_id":"B0FFKXUEHD","order":11,"prev_distance_km":0.262,"cumulative_distance_km":10.373,"amap_marker_url":"https://uri.amap.com/marker?position=118.592110,24.818606&name=%E7%88%B1%E7%89%B9%E5%AE%A0%E7%89%A9%E8%AF%8A%E6%89%80&src=vetmap&coordinate=gaode&callnative=1","route_id":"r1","route_name":"第1段","global_order":11},{"name":"爱多茂宠物诊所","address":"盛亚楼西门旁","phone":"18359887699","category":"医疗保健服务;动物医疗场所;宠物诊所","area":"","lng":118.59595,"lat":24.813207,"amap_id":"B0K0CDAYJG","order":12,"prev_distance_km":0.715,"cumulative_distance_km":11.088,"amap_marker_url":"https://uri.amap.com/marker?position=118.595950,24.813207&name=%E7%88%B1%E5%A4%9A%E8%8C%82%E5%AE%A0%E7%89%A9%E8%AF%8A%E6%89%80&src=vetmap&coordinate=gaode&callnative=1","route_id":"r1","route_name":"第1段","global_order":12},{"name":"星宠宠物诊所(时代分院)","address":"金溪路陈段5号第5-6间店面","phone":"17350783996","category":"医疗保健服务;动物医疗场所;宠物诊所","area":"","lng":118.597734,"lat":24.811712,"amap_id":"B0J1JZOIVW","order":13,"prev_distance_km":0.245,"cumulative_distance_km":11.333,"amap_marker_url":"https://uri.amap.com/marker?position=118.597734,24.811712&name=%E6%98%9F%E5%AE%A0%E5%AE%A0%E7%89%A9%E8%AF%8A%E6%89%80%28%E6%97%B6%E4%BB%A3%E5%88%86%E9%99%A2%29&src=vetmap&coordinate=gaode&callnative=1","route_id":"r1","route_name":"第1段","global_order":13},{"name":"瑞辰爱康宠物医院(青阳院)","address":"青阳街道阳光路20-22号","phone":"0595-85027000;17750517900","category":"医疗保健服务;动物医疗场所;宠物诊所","area":"","lng":118.593818,"lat":24.813089,"amap_id":"B0FFGGC5MF","order":14,"prev_distance_km":0.424,"cumulative_distance_km":11.757,"amap_marker_url":"https://uri.amap.com/marker?position=118.593818,24.813089&name=%E7%91%9E%E8%BE%B0%E7%88%B1%E5%BA%B7%E5%AE%A0%E7%89%A9%E5%8C%BB%E9%99%A2%28%E9%9D%92%E9%98%B3%E9%99%A2%29&src=vetmap&coordinate=gaode&callnative=1","route_id":"r1","route_name":"第1段","global_order":14},{"name":"凌峰宠物","address":"青阳街道青华社区和平中路359-361号","phone":"18006038060","category":"医疗保健服务;动物医疗场所;宠物诊所","area":"","lng":118.589882,"lat":24.815611,"amap_id":"B0JG97C9MK","order":15,"prev_distance_km":0.486,"cumulative_distance_km":12.243,"amap_marker_url":"https://uri.amap.com/marker?position=118.589882,24.815611&name=%E5%87%8C%E5%B3%B0%E5%AE%A0%E7%89%A9&src=vetmap&coordinate=gaode&callnative=1","route_id":"r1","route_name":"第1段","global_order":15},{"name":"星宏宠物医院(福隆分院)","address":"泉安中路569-2-571-1号","phone":"0595-85637080;13850726600","category":"医疗保健服务;动物医疗场所;宠物诊所","area":"梅岭","lng":118.58415,"lat":24.810603,"amap_id":"B0H0ODY11A","order":16,"prev_distance_km":0.803,"cumulative_distance_km":13.046,"amap_marker_url":"https://uri.amap.com/marker?position=118.584150,24.810603&name=%E6%98%9F%E5%AE%8F%E5%AE%A0%E7%89%A9%E5%8C%BB%E9%99%A2%28%E7%A6%8F%E9%9A%86%E5%88%86%E9%99%A2%29&src=vetmap&coordinate=gaode&callnative=1","route_id":"r1","route_name":"第1段","global_order":16},{"name":"多多宠物店(翰林路店)","address":"东岩苑北门西南110米","phone":"13960442899","category":"医疗保健服务;动物医疗场所;动物医疗场所","area":"梅岭","lng":118.58338,"lat":24.813181,"amap_id":"B0FFH5XNZS","order":17,"prev_distance_km":0.297,"cumulative_distance_km":13.343,"amap_marker_url":"https://uri.amap.com/marker?position=118.583380,24.813181&name=%E5%A4%9A%E5%A4%9A%E5%AE%A0%E7%89%A9%E5%BA%97%28%E7%BF%B0%E6%9E%97%E8%B7%AF%E5%BA%97%29&src=vetmap&coordinate=gaode&callnative=1","route_id":"r1","route_name":"第1段","global_order":17},{"name":"心宠物护理中心","address":"翠山苑11栋4号店","phone":"13760397473;15160397473","category":"医疗保健服务;动物医疗场所;宠物诊所","area":"梅岭","lng":118.582719,"lat":24.815395,"amap_id":"B0FFF03NRP","order":18,"prev_distance_km":0.255,"cumulative_distance_km":13.598,"amap_marker_url":"https://uri.amap.com/marker?position=118.582719,24.815395&name=%E5%BF%83%E5%AE%A0%E7%89%A9%E6%8A%A4%E7%90%86%E4%B8%AD%E5%BF%83&src=vetmap&coordinate=gaode&callnative=1","route_id":"r1","route_name":"第1段","global_order":18},{"name":"阳阳宠物医院(湖光路店)","address":"湖光路502号","phone":"13636908060;13905955800","category":"医疗保健服务;动物医疗场所;宠物诊所","area":"梅岭","lng":118.583969,"lat":24.817442,"amap_id":"B0253047N2","order":19,"prev_distance_km":0.26,"cumulative_distance_km":13.859,"amap_marker_url":"https://uri.amap.com/marker?position=118.583969,24.817442&name=%E9%98%B3%E9%98%B3%E5%AE%A0%E7%89%A9%E5%8C%BB%E9%99%A2%28%E6%B9%96%E5%85%89%E8%B7%AF%E5%BA%97%29&src=vetmap&coordinate=gaode&callnative=1","route_id":"r1","route_name":"第1段","global_order":19},{"name":"乔志宠物医院","address":"石鼓路487号","phone":"13394021009","category":"医疗保健服务;动物医疗场所;宠物诊所","area":"梅岭","lng":118.575407,"lat":24.819985,"amap_id":"B0FFKM9RMF","order":20,"prev_distance_km":0.909,"cumulative_distance_km":14.768,"amap_marker_url":"https://uri.amap.com/marker?position=118.575407,24.819985&name=%E4%B9%94%E5%BF%97%E5%AE%A0%E7%89%A9%E5%8C%BB%E9%99%A2&src=vetmap&coordinate=gaode&callnative=1","route_id":"r1","route_name":"第1段","global_order":20},{"name":"景康宠物医院·骨科中心·犬猫全科","address":"万达华府C区北门西150米","phone":"17359996697","category":"医疗保健服务;动物医疗场所;宠物诊所","area":"梅岭","lng":118.575085,"lat":24.819949,"amap_id":"B0J3D4IFMH","order":21,"prev_distance_km":0.033,"cumulative_distance_km":14.8,"amap_marker_url":"https://uri.amap.com/marker?position=118.575085,24.819949&name=%E6%99%AF%E5%BA%B7%E5%AE%A0%E7%89%A9%E5%8C%BB%E9%99%A2%C2%B7%E9%AA%A8%E7%A7%91%E4%B8%AD%E5%BF%83%C2%B7%E7%8A%AC%E7%8C%AB%E5%85%A8%E7%A7%91&src=vetmap&coordinate=gaode&callnative=1","route_id":"r1","route_name":"第1段","global_order":21},{"name":"十六号宠物医院(万达分店)","address":"梅岭街道桂山社区石鼓路578号(百宏御景天下)","phone":"18105071747","category":"医疗保健服务;动物医疗场所;宠物诊所","area":"梅岭","lng":118.574833,"lat":24.82062,"amap_id":"B0H2BSKASG","order":22,"prev_distance_km":0.079,"cumulative_distance_km":14.879,"amap_marker_url":"https://uri.amap.com/marker?position=118.574833,24.820620&name=%E5%8D%81%E5%85%AD%E5%8F%B7%E5%AE%A0%E7%89%A9%E5%8C%BB%E9%99%A2%28%E4%B8%87%E8%BE%BE%E5%88%86%E5%BA%97%29&src=vetmap&coordinate=gaode&callnative=1","route_id":"r1","route_name":"第1段","global_order":22},{"name":"贝恩宠物诊所(宝龙店)","address":"宝龙金色家园西南1门旁","phone":"13110748881;13305075776","category":"医疗保健服务;动物医疗场所;宠物诊所","area":"梅岭","lng":118.579373,"lat":24.829225,"amap_id":"B0FFHJT46F","order":23,"prev_distance_km":1.061,"cumulative_distance_km":15.94,"amap_marker_url":"https://uri.amap.com/marker?position=118.579373,24.829225&name=%E8%B4%9D%E6%81%A9%E5%AE%A0%E7%89%A9%E8%AF%8A%E6%89%80%28%E5%AE%9D%E9%BE%99%E5%BA%97%29&src=vetmap&coordinate=gaode&callnative=1","route_id":"r1","route_name":"第1段","global_order":23},{"name":"瑞辰悠乐宠物医院(爱康悠乐院)","address":"梅岭街道竹园社区双龙西路3133号店","phone":"0595-88185066;17750768896","category":"医疗保健服务;动物医疗场所;宠物诊所","area":"梅岭","lng":118.577175,"lat":24.830475,"amap_id":"B0FFHJM9T7","order":24,"prev_distance_km":0.262,"cumulative_distance_km":16.202,"amap_marker_url":"https://uri.amap.com/marker?position=118.577175,24.830475&name=%E7%91%9E%E8%BE%B0%E6%82%A0%E4%B9%90%E5%AE%A0%E7%89%A9%E5%8C%BB%E9%99%A2%28%E7%88%B1%E5%BA%B7%E6%82%A0%E4%B9%90%E9%99%A2%29&src=vetmap&coordinate=gaode&callnative=1","route_id":"r1","route_name":"第1段","global_order":24},{"name":"悠理宠物(西园店)","address":"湖璟·天城东北门旁","phone":"","category":"购物服务;专卖店;宠物用品店|医疗保健服务;动物医疗场所;动物医疗场所","area":"西园","lng":118.558975,"lat":24.829775,"amap_id":"B0LU96A8QT","order":25,"prev_distance_km":1.838,"cumulative_distance_km":18.04,"amap_marker_url":"https://uri.amap.com/marker?position=118.558975,24.829775&name=%E6%82%A0%E7%90%86%E5%AE%A0%E7%89%A9%28%E8%A5%BF%E5%9B%AD%E5%BA%97%29&src=vetmap&coordinate=gaode&callnative=1","route_id":"r1","route_name":"第1段","global_order":25},{"name":"瑞鹏宠物医院(长兴路分院)","address":"许厝社区长兴路788号融泉花都23幢连体店面","phone":"0595-88018071","category":"医疗保健服务;动物医疗场所;宠物诊所","area":"梅岭","lng":118.561345,"lat":24.805097,"amap_id":"B0HRCSK536","order":26,"prev_distance_km":2.754,"cumulative_distance_km":20.795,"amap_marker_url":"https://uri.amap.com/marker?position=118.561345,24.805097&name=%E7%91%9E%E9%B9%8F%E5%AE%A0%E7%89%A9%E5%8C%BB%E9%99%A2%28%E9%95%BF%E5%85%B4%E8%B7%AF%E5%88%86%E9%99%A2%29&src=vetmap&coordinate=gaode&callnative=1","route_id":"r1","route_name":"第1段","global_order":26},{"name":"晋江市宠文鑫宠物医院(晋江分院)","address":"迎宾路345号","phone":"","category":"医疗保健服务;动物医疗场所;宠物诊所","area":"梅岭","lng":118.565361,"lat":24.806078,"amap_id":"B0L6DUX5H2","order":27,"prev_distance_km":0.42,"cumulative_distance_km":21.215,"amap_marker_url":"https://uri.amap.com/marker?position=118.565361,24.806078&name=%E6%99%8B%E6%B1%9F%E5%B8%82%E5%AE%A0%E6%96%87%E9%91%AB%E5%AE%A0%E7%89%A9%E5%8C%BB%E9%99%A2%28%E6%99%8B%E6%B1%9F%E5%88%86%E9%99%A2%29&src=vetmap&coordinate=gaode&callnative=1","route_id":"r1","route_name":"第1段","global_order":27},{"name":"欧可宠物医院·心脏影像中心·犬猫全科","address":"迎宾路与世纪大道交叉口西140米","phone":"","category":"医疗保健服务;动物医疗场所;宠物诊所","area":"梅岭","lng":118.565407,"lat":24.806026,"amap_id":"B0L61ASSFR","order":28,"prev_distance_km":0.007,"cumulative_distance_km":21.222,"amap_marker_url":"https://uri.amap.com/marker?position=118.565407,24.806026&name=%E6%AC%A7%E5%8F%AF%E5%AE%A0%E7%89%A9%E5%8C%BB%E9%99%A2%C2%B7%E5%BF%83%E8%84%8F%E5%BD%B1%E5%83%8F%E4%B8%AD%E5%BF%83%C2%B7%E7%8A%AC%E7%8C%AB%E5%85%A8%E7%A7%91&src=vetmap&coordinate=gaode&callnative=1","route_id":"r1","route_name":"第1段","global_order":28},{"name":"宠和宠医·犬猫专科(晋江分院)","address":"迎宾路345号","phone":"18016635223","category":"医疗保健服务;动物医疗场所;宠物诊所","area":"梅岭","lng":118.565472,"lat":24.80598,"amap_id":"B0L6M7XQOA","order":29,"prev_distance_km":0.008,"cumulative_distance_km":21.23,"amap_marker_url":"https://uri.amap.com/marker?position=118.565472,24.805980&name=%E5%AE%A0%E5%92%8C%E5%AE%A0%E5%8C%BB%C2%B7%E7%8A%AC%E7%8C%AB%E4%B8%93%E7%A7%91%28%E6%99%8B%E6%B1%9F%E5%88%86%E9%99%A2%29&src=vetmap&coordinate=gaode&callnative=1","route_id":"r1","route_name":"第1段","global_order":29},{"name":"嘟嘟宠物医疗诊所(晋江分院)","address":"世纪大道520号","phone":"17359977582","category":"医疗保健服务;动物医疗场所;宠物诊所","area":"梅岭","lng":118.566768,"lat":24.803878,"amap_id":"B0JG1HEA3L","order":30,"prev_distance_km":0.268,"cumulative_distance_km":21.498,"amap_marker_url":"https://uri.amap.com/marker?position=118.566768,24.803878&name=%E5%98%9F%E5%98%9F%E5%AE%A0%E7%89%A9%E5%8C%BB%E7%96%97%E8%AF%8A%E6%89%80%28%E6%99%8B%E6%B1%9F%E5%88%86%E9%99%A2%29&src=vetmap&coordinate=gaode&callnative=1","route_id":"r1","route_name":"第1段","global_order":30},{"name":"爱心宠物医院","address":"曾井小区永泰路29号","phone":"0595-88103408;13055327897","category":"医疗保健服务;动物医疗场所;宠物诊所","area":"梅岭","lng":118.575073,"lat":24.802504,"amap_id":"B02530Q10Z","order":31,"prev_distance_km":0.852,"cumulative_distance_km":22.35,"amap_marker_url":"https://uri.amap.com/marker?position=118.575073,24.802504&name=%E7%88%B1%E5%BF%83%E5%AE%A0%E7%89%A9%E5%8C%BB%E9%99%A2&src=vetmap&coordinate=gaode&callnative=1","route_id":"r1","route_name":"第1段","global_order":31},{"name":"瑞佳宠物医院","address":"福兴东路罗山段683-9号(华泰)","phone":"18559531103","category":"医疗保健服务;动物医疗场所;宠物诊所","area":"罗山","lng":118.566493,"lat":24.776038,"amap_id":"B0KD1HCSRZ","order":32,"prev_distance_km":3.068,"cumulative_distance_km":25.418,"amap_marker_url":"https://uri.amap.com/marker?position=118.566493,24.776038&name=%E7%91%9E%E4%BD%B3%E5%AE%A0%E7%89%A9%E5%8C%BB%E9%99%A2&src=vetmap&coordinate=gaode&callnative=1","route_id":"r1","route_name":"第1段","global_order":32},{"name":"晋江市医院动物致伤防治中心","address":"灵里路与兴山路交叉口东60米","phone":"","category":"医疗保健服务;动物医疗场所;动物医疗场所","area":"","lng":118.565681,"lat":24.765655,"amap_id":"B0LGFOU0HN","order":33,"prev_distance_km":1.157,"cumulative_distance_km":26.575,"amap_marker_url":"https://uri.amap.com/marker?position=118.565681,24.765655&name=%E6%99%8B%E6%B1%9F%E5%B8%82%E5%8C%BB%E9%99%A2%E5%8A%A8%E7%89%A9%E8%87%B4%E4%BC%A4%E9%98%B2%E6%B2%BB%E4%B8%AD%E5%BF%83&src=vetmap&coordinate=gaode&callnative=1","route_id":"r1","route_name":"第1段","global_order":33},{"name":"好狗命宠物诊所(磁灶店)","address":"磁灶镇海西星城1栋28号","phone":"15959865932","category":"医疗保健服务;动物医疗场所;宠物诊所","area":"","lng":118.493858,"lat":24.817375,"amap_id":"B0G25MTBUF","order":34,"prev_distance_km":9.254,"cumulative_distance_km":35.83,"amap_marker_url":"https://uri.amap.com/marker?position=118.493858,24.817375&name=%E5%A5%BD%E7%8B%97%E5%91%BD%E5%AE%A0%E7%89%A9%E8%AF%8A%E6%89%80%28%E7%A3%81%E7%81%B6%E5%BA%97%29&src=vetmap&coordinate=gaode&callnative=1","route_id":"r1","route_name":"第1段","global_order":34},{"name":"内坑镇动物检疫申报点","address":"蓝侨街与东街交叉口东南280米","phone":"","category":"医疗保健服务;动物医疗场所;动物医疗场所","area":"","lng":118.442738,"lat":24.806679,"amap_id":"B0HGTOBP1U","order":35,"prev_distance_km":5.295,"cumulative_distance_km":41.125,"amap_marker_url":"https://uri.amap.com/marker?position=118.442738,24.806679&name=%E5%86%85%E5%9D%91%E9%95%87%E5%8A%A8%E7%89%A9%E6%A3%80%E7%96%AB%E7%94%B3%E6%8A%A5%E7%82%B9&src=vetmap&coordinate=gaode&callnative=1","route_id":"r1","route_name":"第1段","global_order":35},{"name":"安心宠乐宠物诊所(恒安路店)","address":"安海镇恒安路7号","phone":"13799450461","category":"医疗保健服务;动物医疗场所;宠物诊所","area":"","lng":118.478392,"lat":24.713046,"amap_id":"B0IR1SURMD","order":36,"prev_distance_km":11.016,"cumulative_distance_km":52.141,"amap_marker_url":"https://uri.amap.com/marker?position=118.478392,24.713046&name=%E5%AE%89%E5%BF%83%E5%AE%A0%E4%B9%90%E5%AE%A0%E7%89%A9%E8%AF%8A%E6%89%80%28%E6%81%92%E5%AE%89%E8%B7%AF%E5%BA%97%29&src=vetmap&coordinate=gaode&callnative=1","route_id":"r1","route_name":"第1段","global_order":36},{"name":"灵宠宠物医院(优爱贝晋江店)","address":"安海镇桥工街宝辉大厦","phone":"13788854309","category":"医疗保健服务;动物医疗场所;宠物诊所","area":"","lng":118.476723,"lat":24.712501,"amap_id":"B0JKJSH1LU","order":37,"prev_distance_km":0.179,"cumulative_distance_km":52.32,"amap_marker_url":"https://uri.amap.com/marker?position=118.476723,24.712501&name=%E7%81%B5%E5%AE%A0%E5%AE%A0%E7%89%A9%E5%8C%BB%E9%99%A2%28%E4%BC%98%E7%88%B1%E8%B4%9D%E6%99%8B%E6%B1%9F%E5%BA%97%29&src=vetmap&coordinate=gaode&callnative=1","route_id":"r1","route_name":"第1段","global_order":37},{"name":"利德机械","address":"安平开发区安海镇安平工业区嘉世路45号","phone":"15959876544","category":"医疗保健服务;动物医疗场所;宠物诊所","area":"","lng":118.44934,"lat":24.69457,"amap_id":"B0FFKF7VNV","order":38,"prev_distance_km":3.41,"cumulative_distance_km":55.73,"amap_marker_url":"https://uri.amap.com/marker?position=118.449340,24.694570&name=%E5%88%A9%E5%BE%B7%E6%9C%BA%E6%A2%B0&src=vetmap&coordinate=gaode&callnative=1","route_id":"r1","route_name":"第1段","global_order":38},{"name":"东石畜牧兽医站","address":"南天路与侨声东路交叉口东北240米","phone":"","category":"医疗保健服务;动物医疗场所;兽医站","area":"","lng":118.466958,"lat":24.66132,"amap_id":"B0FFHBNOBO","order":39,"prev_distance_km":4.103,"cumulative_distance_km":59.833,"amap_marker_url":"https://uri.amap.com/marker?position=118.466958,24.661320&name=%E4%B8%9C%E7%9F%B3%E7%95%9C%E7%89%A7%E5%85%BD%E5%8C%BB%E7%AB%99&src=vetmap&coordinate=gaode&callnative=1","route_id":"r1","route_name":"第1段","global_order":39},{"name":"调皮狗宠物诊所","address":"福建省泉州市晋江市东石镇仁和东路156号","phone":"18876548385","category":"医疗保健服务;动物医疗场所;宠物诊所","area":"","lng":118.466069,"lat":24.656907,"amap_id":"B0FFL213BD","order":40,"prev_distance_km":0.499,"cumulative_distance_km":60.332,"amap_marker_url":"https://uri.amap.com/marker?position=118.466069,24.656907&name=%E8%B0%83%E7%9A%AE%E7%8B%97%E5%AE%A0%E7%89%A9%E8%AF%8A%E6%89%80&src=vetmap&coordinate=gaode&callnative=1","route_id":"r1","route_name":"第1段","global_order":40},{"name":"新益宝贝宠物诊所(英山路店)","address":"英山路526-528号","phone":"18358758870","category":"医疗保健服务;动物医疗场所;宠物诊所","area":"","lng":118.580125,"lat":24.626859,"amap_id":"B0H6MMECL5","order":41,"prev_distance_km":12.002,"cumulative_distance_km":72.334,"amap_marker_url":"https://uri.amap.com/marker?position=118.580125,24.626859&name=%E6%96%B0%E7%9B%8A%E5%AE%9D%E8%B4%9D%E5%AE%A0%E7%89%A9%E8%AF%8A%E6%89%80%28%E8%8B%B1%E5%B1%B1%E8%B7%AF%E5%BA%97%29&src=vetmap&coordinate=gaode&callnative=1","route_id":"r1","route_name":"第1段","global_order":41},{"name":"顺康宠物诊所(英山路店)","address":"英林镇英山路279号-281号","phone":"15859730120","category":"医疗保健服务;动物医疗场所;宠物诊所","area":"","lng":118.580567,"lat":24.624983,"amap_id":"B0G0KZSUYS","order":42,"prev_distance_km":0.213,"cumulative_distance_km":72.548,"amap_marker_url":"https://uri.amap.com/marker?position=118.580567,24.624983&name=%E9%A1%BA%E5%BA%B7%E5%AE%A0%E7%89%A9%E8%AF%8A%E6%89%80%28%E8%8B%B1%E5%B1%B1%E8%B7%AF%E5%BA%97%29&src=vetmap&coordinate=gaode&callnative=1","route_id":"r1","route_name":"第1段","global_order":42},{"name":"得泰宠物诊所","address":"中兴路455号","phone":"17201302120;19310402105","category":"医疗保健服务;动物医疗场所;宠物诊所","area":"","lng":118.602508,"lat":24.569739,"amap_id":"B0K1GZ0PQK","order":43,"prev_distance_km":6.531,"cumulative_distance_km":79.079,"amap_marker_url":"https://uri.amap.com/marker?position=118.602508,24.569739&name=%E5%BE%97%E6%B3%B0%E5%AE%A0%E7%89%A9%E8%AF%8A%E6%89%80&src=vetmap&coordinate=gaode&callnative=1","route_id":"r1","route_name":"第1段","global_order":43}]}