{"summary":{"id":"d01678","province":"辽宁省","city":"丹东市","district":"东港市","count":18,"route_count":1,"max_route_clinics":18,"total_distance_km":84.235,"coordinate_system":"GCJ-02 / Amap","generated_at":"2026-05-07 21:30:38"},"routes":[{"id":"r1","name":"第1段","count":18,"total_distance_km":84.235,"rows":[{"name":"东港市前阳兽医院","address":"安阳大街与拥军路交叉口西100米","phone":"13364281268","category":"医疗保健服务;动物医疗场所;兽医站","area":"","lng":124.210172,"lat":39.960844,"amap_id":"B0FFF3PJMI","order":1,"prev_distance_km":0.0,"cumulative_distance_km":0.0,"amap_marker_url":"https://uri.amap.com/marker?position=124.210172,39.960844&name=%E4%B8%9C%E6%B8%AF%E5%B8%82%E5%89%8D%E9%98%B3%E5%85%BD%E5%8C%BB%E9%99%A2&src=vetmap&coordinate=gaode&callnative=1","route_id":"r1","route_name":"第1段"},{"name":"诚鑫宠物","address":"新兴家园东南门西70米","phone":"13394156586","category":"医疗保健服务;动物医疗场所;动物医疗场所","area":"东港","lng":124.173632,"lat":39.887173,"amap_id":"B0LK9A97OY","order":2,"prev_distance_km":8.764,"cumulative_distance_km":8.764,"amap_marker_url":"https://uri.amap.com/marker?position=124.173632,39.887173&name=%E8%AF%9A%E9%91%AB%E5%AE%A0%E7%89%A9&src=vetmap&coordinate=gaode&callnative=1","route_id":"r1","route_name":"第1段"},{"name":"新华动物诊所","address":"友好路99号1-4","phone":"0415-7102400","category":"医疗保健服务;动物医疗场所;宠物诊所","area":"东港","lng":124.173317,"lat":39.887139,"amap_id":"B019F00S8B","order":3,"prev_distance_km":0.027,"cumulative_distance_km":8.792,"amap_marker_url":"https://uri.amap.com/marker?position=124.173317,39.887139&name=%E6%96%B0%E5%8D%8E%E5%8A%A8%E7%89%A9%E8%AF%8A%E6%89%80&src=vetmap&coordinate=gaode&callnative=1","route_id":"r1","route_name":"第1段"},{"name":"宠伴动物诊所","address":"新兴街道桥南开发区仁达华府三号楼底商","phone":"15941570635","category":"医疗保健服务;动物医疗场所;宠物诊所","area":"东港","lng":124.165137,"lat":39.869074,"amap_id":"B0FFL1BRF0","order":4,"prev_distance_km":2.127,"cumulative_distance_km":10.918,"amap_marker_url":"https://uri.amap.com/marker?position=124.165137,39.869074&name=%E5%AE%A0%E4%BC%B4%E5%8A%A8%E7%89%A9%E8%AF%8A%E6%89%80&src=vetmap&coordinate=gaode&callnative=1","route_id":"r1","route_name":"第1段"},{"name":"东港市美仑宠物门诊","address":"云顶家园北侧门市丹东银行对面","phone":"13050353977;13188354678","category":"医疗保健服务;动物医疗场所;宠物诊所","area":"东港","lng":124.160429,"lat":39.865825,"amap_id":"B0FFKRQS44","order":5,"prev_distance_km":0.54,"cumulative_distance_km":11.458,"amap_marker_url":"https://uri.amap.com/marker?position=124.160429,39.865825&name=%E4%B8%9C%E6%B8%AF%E5%B8%82%E7%BE%8E%E4%BB%91%E5%AE%A0%E7%89%A9%E9%97%A8%E8%AF%8A&src=vetmap&coordinate=gaode&callnative=1","route_id":"r1","route_name":"第1段"},{"name":"成一果动物医院","address":"临园西街3号","phone":"18841556635","category":"医疗保健服务;动物医疗场所;宠物诊所","area":"东港","lng":124.151249,"lat":39.869756,"amap_id":"B0K0RAOGWT","order":6,"prev_distance_km":0.897,"cumulative_distance_km":12.356,"amap_marker_url":"https://uri.amap.com/marker?position=124.151249,39.869756&name=%E6%88%90%E4%B8%80%E6%9E%9C%E5%8A%A8%E7%89%A9%E5%8C%BB%E9%99%A2&src=vetmap&coordinate=gaode&callnative=1","route_id":"r1","route_name":"第1段"},{"name":"佑佳动物诊所","address":"吉安小区2号楼(大东街南)","phone":"18840517976","category":"医疗保健服务;动物医疗场所;宠物诊所","area":"东港","lng":124.141129,"lat":39.874047,"amap_id":"B0FFF3PHKV","order":7,"prev_distance_km":0.987,"cumulative_distance_km":13.342,"amap_marker_url":"https://uri.amap.com/marker?position=124.141129,39.874047&name=%E4%BD%91%E4%BD%B3%E5%8A%A8%E7%89%A9%E8%AF%8A%E6%89%80&src=vetmap&coordinate=gaode&callnative=1","route_id":"r1","route_name":"第1段"},{"name":"辛成动物诊所","address":"富兴小区5号楼","phone":"0415-7875678;13470045588","category":"医疗保健服务;动物医疗场所;兽医站","area":"黄海大街","lng":124.148588,"lat":39.876499,"amap_id":"B0FFFY1DAP","order":8,"prev_distance_km":0.692,"cumulative_distance_km":14.035,"amap_marker_url":"https://uri.amap.com/marker?position=124.148588,39.876499&name=%E8%BE%9B%E6%88%90%E5%8A%A8%E7%89%A9%E8%AF%8A%E6%89%80&src=vetmap&coordinate=gaode&callnative=1","route_id":"r1","route_name":"第1段"},{"name":"东港市佳佳动物门诊","address":"滨河路66号","phone":"13942521956","category":"医疗保健服务;动物医疗场所;宠物诊所","area":"东港","lng":124.153493,"lat":39.881539,"amap_id":"B0FFF3PJJI","order":9,"prev_distance_km":0.699,"cumulative_distance_km":14.734,"amap_marker_url":"https://uri.amap.com/marker?position=124.153493,39.881539&name=%E4%B8%9C%E6%B8%AF%E5%B8%82%E4%BD%B3%E4%BD%B3%E5%8A%A8%E7%89%A9%E9%97%A8%E8%AF%8A&src=vetmap&coordinate=gaode&callnative=1","route_id":"r1","route_name":"第1段"},{"name":"灿利动物门诊","address":"新兴小区21号楼","phone":"13204157257","category":"医疗保健服务;动物医疗场所;宠物诊所","area":"东港","lng":124.151943,"lat":39.8825,"amap_id":"B0FFKEPEK5","order":10,"prev_distance_km":0.17,"cumulative_distance_km":14.904,"amap_marker_url":"https://uri.amap.com/marker?position=124.151943,39.882500&name=%E7%81%BF%E5%88%A9%E5%8A%A8%E7%89%A9%E9%97%A8%E8%AF%8A&src=vetmap&coordinate=gaode&callnative=1","route_id":"r1","route_name":"第1段"},{"name":"老车站动物诊所","address":"黄海大街107号","phone":"13188359468;13604956233","category":"医疗保健服务;动物医疗场所;宠物诊所","area":"东港","lng":124.141605,"lat":39.881694,"amap_id":"B0FFHXXJ7H","order":11,"prev_distance_km":0.887,"cumulative_distance_km":15.791,"amap_marker_url":"https://uri.amap.com/marker?position=124.141605,39.881694&name=%E8%80%81%E8%BD%A6%E7%AB%99%E5%8A%A8%E7%89%A9%E8%AF%8A%E6%89%80&src=vetmap&coordinate=gaode&callnative=1","route_id":"r1","route_name":"第1段"},{"name":"圚桉动物诊所","address":"新兴路与向阳街交叉口北240米","phone":"","category":"医疗保健服务;动物医疗场所;宠物诊所","area":"东港","lng":124.144349,"lat":39.885954,"amap_id":"B0JRYKBFR0","order":12,"prev_distance_km":0.528,"cumulative_distance_km":16.319,"amap_marker_url":"https://uri.amap.com/marker?position=124.144349,39.885954&name=%E5%9C%9A%E6%A1%89%E5%8A%A8%E7%89%A9%E8%AF%8A%E6%89%80&src=vetmap&coordinate=gaode&callnative=1","route_id":"r1","route_name":"第1段"},{"name":"惠安动物医院","address":"新兴路与向阳街交叉口北240米","phone":"15842589899","category":"医疗保健服务;动物医疗场所;宠物诊所","area":"新兴路","lng":124.144403,"lat":39.886018,"amap_id":"B0HD9YY87S","order":13,"prev_distance_km":0.008,"cumulative_distance_km":16.328,"amap_marker_url":"https://uri.amap.com/marker?position=124.144403,39.886018&name=%E6%83%A0%E5%AE%89%E5%8A%A8%E7%89%A9%E5%8C%BB%E9%99%A2&src=vetmap&coordinate=gaode&callnative=1","route_id":"r1","route_name":"第1段"},{"name":"东港市动物检疫申报中心","address":"东港北路123号","phone":"","category":"医疗保健服务;动物医疗场所;动物医疗场所","area":"东港","lng":124.140893,"lat":39.891303,"amap_id":"B0JB1YACMS","order":14,"prev_distance_km":0.66,"cumulative_distance_km":16.987,"amap_marker_url":"https://uri.amap.com/marker?position=124.140893,39.891303&name=%E4%B8%9C%E6%B8%AF%E5%B8%82%E5%8A%A8%E7%89%A9%E6%A3%80%E7%96%AB%E7%94%B3%E6%8A%A5%E4%B8%AD%E5%BF%83&src=vetmap&coordinate=gaode&callnative=1","route_id":"r1","route_name":"第1段"},{"name":"合隆兽药店","address":"黄龙线与集龙线交叉口南100米","phone":"","category":"医疗保健服务;动物医疗场所;动物医疗场所","area":"","lng":123.976703,"lat":40.028495,"amap_id":"B0FFM6BAB9","order":15,"prev_distance_km":20.701,"cumulative_distance_km":37.689,"amap_marker_url":"https://uri.amap.com/marker?position=123.976703,40.028495&name=%E5%90%88%E9%9A%86%E5%85%BD%E8%8D%AF%E5%BA%97&src=vetmap&coordinate=gaode&callnative=1","route_id":"r1","route_name":"第1段"},{"name":"小张兽药店","address":"北井子镇车站北行一百米","phone":"","category":"医疗保健服务;动物医疗场所;动物医疗场所","area":"","lng":123.90107,"lat":39.867731,"amap_id":"B0FFHJ7CEV","order":16,"prev_distance_km":19.003,"cumulative_distance_km":56.692,"amap_marker_url":"https://uri.amap.com/marker?position=123.901070,39.867731&name=%E5%B0%8F%E5%BC%A0%E5%85%BD%E8%8D%AF%E5%BA%97&src=vetmap&coordinate=gaode&callnative=1","route_id":"r1","route_name":"第1段"},{"name":"嘉和动物门诊部","address":"中大街与孤山大街交叉口西北方向70米左右","phone":"13674158811","category":"医疗保健服务;动物医疗场所;宠物诊所","area":"","lng":123.603661,"lat":39.893324,"amap_id":"B0FFJBT9UU","order":17,"prev_distance_km":25.537,"cumulative_distance_km":82.229,"amap_marker_url":"https://uri.amap.com/marker?position=123.603661,39.893324&name=%E5%98%89%E5%92%8C%E5%8A%A8%E7%89%A9%E9%97%A8%E8%AF%8A%E9%83%A8&src=vetmap&coordinate=gaode&callnative=1","route_id":"r1","route_name":"第1段"},{"name":"惠康动物门诊","address":"孤山镇老车站","phone":"13130504844","category":"医疗保健服务;动物医疗场所;宠物诊所","area":"","lng":123.582785,"lat":39.901627,"amap_id":"B0IKOC5C1D","order":18,"prev_distance_km":2.006,"cumulative_distance_km":84.235,"amap_marker_url":"https://uri.amap.com/marker?position=123.582785,39.901627&name=%E6%83%A0%E5%BA%B7%E5%8A%A8%E7%89%A9%E9%97%A8%E8%AF%8A&src=vetmap&coordinate=gaode&callnative=1","route_id":"r1","route_name":"第1段"}]}],"rows":[{"name":"东港市前阳兽医院","address":"安阳大街与拥军路交叉口西100米","phone":"13364281268","category":"医疗保健服务;动物医疗场所;兽医站","area":"","lng":124.210172,"lat":39.960844,"amap_id":"B0FFF3PJMI","order":1,"prev_distance_km":0.0,"cumulative_distance_km":0.0,"amap_marker_url":"https://uri.amap.com/marker?position=124.210172,39.960844&name=%E4%B8%9C%E6%B8%AF%E5%B8%82%E5%89%8D%E9%98%B3%E5%85%BD%E5%8C%BB%E9%99%A2&src=vetmap&coordinate=gaode&callnative=1","route_id":"r1","route_name":"第1段","global_order":1},{"name":"诚鑫宠物","address":"新兴家园东南门西70米","phone":"13394156586","category":"医疗保健服务;动物医疗场所;动物医疗场所","area":"东港","lng":124.173632,"lat":39.887173,"amap_id":"B0LK9A97OY","order":2,"prev_distance_km":8.764,"cumulative_distance_km":8.764,"amap_marker_url":"https://uri.amap.com/marker?position=124.173632,39.887173&name=%E8%AF%9A%E9%91%AB%E5%AE%A0%E7%89%A9&src=vetmap&coordinate=gaode&callnative=1","route_id":"r1","route_name":"第1段","global_order":2},{"name":"新华动物诊所","address":"友好路99号1-4","phone":"0415-7102400","category":"医疗保健服务;动物医疗场所;宠物诊所","area":"东港","lng":124.173317,"lat":39.887139,"amap_id":"B019F00S8B","order":3,"prev_distance_km":0.027,"cumulative_distance_km":8.792,"amap_marker_url":"https://uri.amap.com/marker?position=124.173317,39.887139&name=%E6%96%B0%E5%8D%8E%E5%8A%A8%E7%89%A9%E8%AF%8A%E6%89%80&src=vetmap&coordinate=gaode&callnative=1","route_id":"r1","route_name":"第1段","global_order":3},{"name":"宠伴动物诊所","address":"新兴街道桥南开发区仁达华府三号楼底商","phone":"15941570635","category":"医疗保健服务;动物医疗场所;宠物诊所","area":"东港","lng":124.165137,"lat":39.869074,"amap_id":"B0FFL1BRF0","order":4,"prev_distance_km":2.127,"cumulative_distance_km":10.918,"amap_marker_url":"https://uri.amap.com/marker?position=124.165137,39.869074&name=%E5%AE%A0%E4%BC%B4%E5%8A%A8%E7%89%A9%E8%AF%8A%E6%89%80&src=vetmap&coordinate=gaode&callnative=1","route_id":"r1","route_name":"第1段","global_order":4},{"name":"东港市美仑宠物门诊","address":"云顶家园北侧门市丹东银行对面","phone":"13050353977;13188354678","category":"医疗保健服务;动物医疗场所;宠物诊所","area":"东港","lng":124.160429,"lat":39.865825,"amap_id":"B0FFKRQS44","order":5,"prev_distance_km":0.54,"cumulative_distance_km":11.458,"amap_marker_url":"https://uri.amap.com/marker?position=124.160429,39.865825&name=%E4%B8%9C%E6%B8%AF%E5%B8%82%E7%BE%8E%E4%BB%91%E5%AE%A0%E7%89%A9%E9%97%A8%E8%AF%8A&src=vetmap&coordinate=gaode&callnative=1","route_id":"r1","route_name":"第1段","global_order":5},{"name":"成一果动物医院","address":"临园西街3号","phone":"18841556635","category":"医疗保健服务;动物医疗场所;宠物诊所","area":"东港","lng":124.151249,"lat":39.869756,"amap_id":"B0K0RAOGWT","order":6,"prev_distance_km":0.897,"cumulative_distance_km":12.356,"amap_marker_url":"https://uri.amap.com/marker?position=124.151249,39.869756&name=%E6%88%90%E4%B8%80%E6%9E%9C%E5%8A%A8%E7%89%A9%E5%8C%BB%E9%99%A2&src=vetmap&coordinate=gaode&callnative=1","route_id":"r1","route_name":"第1段","global_order":6},{"name":"佑佳动物诊所","address":"吉安小区2号楼(大东街南)","phone":"18840517976","category":"医疗保健服务;动物医疗场所;宠物诊所","area":"东港","lng":124.141129,"lat":39.874047,"amap_id":"B0FFF3PHKV","order":7,"prev_distance_km":0.987,"cumulative_distance_km":13.342,"amap_marker_url":"https://uri.amap.com/marker?position=124.141129,39.874047&name=%E4%BD%91%E4%BD%B3%E5%8A%A8%E7%89%A9%E8%AF%8A%E6%89%80&src=vetmap&coordinate=gaode&callnative=1","route_id":"r1","route_name":"第1段","global_order":7},{"name":"辛成动物诊所","address":"富兴小区5号楼","phone":"0415-7875678;13470045588","category":"医疗保健服务;动物医疗场所;兽医站","area":"黄海大街","lng":124.148588,"lat":39.876499,"amap_id":"B0FFFY1DAP","order":8,"prev_distance_km":0.692,"cumulative_distance_km":14.035,"amap_marker_url":"https://uri.amap.com/marker?position=124.148588,39.876499&name=%E8%BE%9B%E6%88%90%E5%8A%A8%E7%89%A9%E8%AF%8A%E6%89%80&src=vetmap&coordinate=gaode&callnative=1","route_id":"r1","route_name":"第1段","global_order":8},{"name":"东港市佳佳动物门诊","address":"滨河路66号","phone":"13942521956","category":"医疗保健服务;动物医疗场所;宠物诊所","area":"东港","lng":124.153493,"lat":39.881539,"amap_id":"B0FFF3PJJI","order":9,"prev_distance_km":0.699,"cumulative_distance_km":14.734,"amap_marker_url":"https://uri.amap.com/marker?position=124.153493,39.881539&name=%E4%B8%9C%E6%B8%AF%E5%B8%82%E4%BD%B3%E4%BD%B3%E5%8A%A8%E7%89%A9%E9%97%A8%E8%AF%8A&src=vetmap&coordinate=gaode&callnative=1","route_id":"r1","route_name":"第1段","global_order":9},{"name":"灿利动物门诊","address":"新兴小区21号楼","phone":"13204157257","category":"医疗保健服务;动物医疗场所;宠物诊所","area":"东港","lng":124.151943,"lat":39.8825,"amap_id":"B0FFKEPEK5","order":10,"prev_distance_km":0.17,"cumulative_distance_km":14.904,"amap_marker_url":"https://uri.amap.com/marker?position=124.151943,39.882500&name=%E7%81%BF%E5%88%A9%E5%8A%A8%E7%89%A9%E9%97%A8%E8%AF%8A&src=vetmap&coordinate=gaode&callnative=1","route_id":"r1","route_name":"第1段","global_order":10},{"name":"老车站动物诊所","address":"黄海大街107号","phone":"13188359468;13604956233","category":"医疗保健服务;动物医疗场所;宠物诊所","area":"东港","lng":124.141605,"lat":39.881694,"amap_id":"B0FFHXXJ7H","order":11,"prev_distance_km":0.887,"cumulative_distance_km":15.791,"amap_marker_url":"https://uri.amap.com/marker?position=124.141605,39.881694&name=%E8%80%81%E8%BD%A6%E7%AB%99%E5%8A%A8%E7%89%A9%E8%AF%8A%E6%89%80&src=vetmap&coordinate=gaode&callnative=1","route_id":"r1","route_name":"第1段","global_order":11},{"name":"圚桉动物诊所","address":"新兴路与向阳街交叉口北240米","phone":"","category":"医疗保健服务;动物医疗场所;宠物诊所","area":"东港","lng":124.144349,"lat":39.885954,"amap_id":"B0JRYKBFR0","order":12,"prev_distance_km":0.528,"cumulative_distance_km":16.319,"amap_marker_url":"https://uri.amap.com/marker?position=124.144349,39.885954&name=%E5%9C%9A%E6%A1%89%E5%8A%A8%E7%89%A9%E8%AF%8A%E6%89%80&src=vetmap&coordinate=gaode&callnative=1","route_id":"r1","route_name":"第1段","global_order":12},{"name":"惠安动物医院","address":"新兴路与向阳街交叉口北240米","phone":"15842589899","category":"医疗保健服务;动物医疗场所;宠物诊所","area":"新兴路","lng":124.144403,"lat":39.886018,"amap_id":"B0HD9YY87S","order":13,"prev_distance_km":0.008,"cumulative_distance_km":16.328,"amap_marker_url":"https://uri.amap.com/marker?position=124.144403,39.886018&name=%E6%83%A0%E5%AE%89%E5%8A%A8%E7%89%A9%E5%8C%BB%E9%99%A2&src=vetmap&coordinate=gaode&callnative=1","route_id":"r1","route_name":"第1段","global_order":13},{"name":"东港市动物检疫申报中心","address":"东港北路123号","phone":"","category":"医疗保健服务;动物医疗场所;动物医疗场所","area":"东港","lng":124.140893,"lat":39.891303,"amap_id":"B0JB1YACMS","order":14,"prev_distance_km":0.66,"cumulative_distance_km":16.987,"amap_marker_url":"https://uri.amap.com/marker?position=124.140893,39.891303&name=%E4%B8%9C%E6%B8%AF%E5%B8%82%E5%8A%A8%E7%89%A9%E6%A3%80%E7%96%AB%E7%94%B3%E6%8A%A5%E4%B8%AD%E5%BF%83&src=vetmap&coordinate=gaode&callnative=1","route_id":"r1","route_name":"第1段","global_order":14},{"name":"合隆兽药店","address":"黄龙线与集龙线交叉口南100米","phone":"","category":"医疗保健服务;动物医疗场所;动物医疗场所","area":"","lng":123.976703,"lat":40.028495,"amap_id":"B0FFM6BAB9","order":15,"prev_distance_km":20.701,"cumulative_distance_km":37.689,"amap_marker_url":"https://uri.amap.com/marker?position=123.976703,40.028495&name=%E5%90%88%E9%9A%86%E5%85%BD%E8%8D%AF%E5%BA%97&src=vetmap&coordinate=gaode&callnative=1","route_id":"r1","route_name":"第1段","global_order":15},{"name":"小张兽药店","address":"北井子镇车站北行一百米","phone":"","category":"医疗保健服务;动物医疗场所;动物医疗场所","area":"","lng":123.90107,"lat":39.867731,"amap_id":"B0FFHJ7CEV","order":16,"prev_distance_km":19.003,"cumulative_distance_km":56.692,"amap_marker_url":"https://uri.amap.com/marker?position=123.901070,39.867731&name=%E5%B0%8F%E5%BC%A0%E5%85%BD%E8%8D%AF%E5%BA%97&src=vetmap&coordinate=gaode&callnative=1","route_id":"r1","route_name":"第1段","global_order":16},{"name":"嘉和动物门诊部","address":"中大街与孤山大街交叉口西北方向70米左右","phone":"13674158811","category":"医疗保健服务;动物医疗场所;宠物诊所","area":"","lng":123.603661,"lat":39.893324,"amap_id":"B0FFJBT9UU","order":17,"prev_distance_km":25.537,"cumulative_distance_km":82.229,"amap_marker_url":"https://uri.amap.com/marker?position=123.603661,39.893324&name=%E5%98%89%E5%92%8C%E5%8A%A8%E7%89%A9%E9%97%A8%E8%AF%8A%E9%83%A8&src=vetmap&coordinate=gaode&callnative=1","route_id":"r1","route_name":"第1段","global_order":17},{"name":"惠康动物门诊","address":"孤山镇老车站","phone":"13130504844","category":"医疗保健服务;动物医疗场所;宠物诊所","area":"","lng":123.582785,"lat":39.901627,"amap_id":"B0IKOC5C1D","order":18,"prev_distance_km":2.006,"cumulative_distance_km":84.235,"amap_marker_url":"https://uri.amap.com/marker?position=123.582785,39.901627&name=%E6%83%A0%E5%BA%B7%E5%8A%A8%E7%89%A9%E9%97%A8%E8%AF%8A&src=vetmap&coordinate=gaode&callnative=1","route_id":"r1","route_name":"第1段","global_order":18}]}