{"summary":{"id":"d01708","province":"辽宁省","city":"本溪市","district":"平山区","count":7,"route_count":1,"max_route_clinics":7,"total_distance_km":14.104,"coordinate_system":"GCJ-02 / Amap","generated_at":"2026-05-07 21:30:43"},"routes":[{"id":"r1","name":"第1段","count":7,"total_distance_km":14.104,"rows":[{"name":"佳信动物医院","address":"紫金路8号","phone":"024-42818120;13470500432","category":"医疗保健服务;动物医疗场所;宠物诊所","area":"","lng":123.777413,"lat":41.296645,"amap_id":"B0FFH97O8T","order":1,"prev_distance_km":0.0,"cumulative_distance_km":0.0,"amap_marker_url":"https://uri.amap.com/marker?position=123.777413,41.296645&name=%E4%BD%B3%E4%BF%A1%E5%8A%A8%E7%89%A9%E5%8C%BB%E9%99%A2&src=vetmap&coordinate=gaode&callnative=1","route_id":"r1","route_name":"第1段"},{"name":"本溪市平山动物医院","address":"平山路81号","phone":"024-42800120;13050280120","category":"医疗保健服务;动物医疗场所;宠物诊所","area":"","lng":123.777861,"lat":41.28941,"amap_id":"B019E01OY1","order":2,"prev_distance_km":0.805,"cumulative_distance_km":0.805,"amap_marker_url":"https://uri.amap.com/marker?position=123.777861,41.289410&name=%E6%9C%AC%E6%BA%AA%E5%B8%82%E5%B9%B3%E5%B1%B1%E5%8A%A8%E7%89%A9%E5%8C%BB%E9%99%A2&src=vetmap&coordinate=gaode&callnative=1","route_id":"r1","route_name":"第1段"},{"name":"范氏动物医院","address":"第五中学西(解放南路)","phone":"18904947758","category":"医疗保健服务;动物医疗场所;宠物诊所","area":"","lng":123.758675,"lat":41.287025,"amap_id":"B0FFJ4KF7U","order":3,"prev_distance_km":1.625,"cumulative_distance_km":2.43,"amap_marker_url":"https://uri.amap.com/marker?position=123.758675,41.287025&name=%E8%8C%83%E6%B0%8F%E5%8A%A8%E7%89%A9%E5%8C%BB%E9%99%A2&src=vetmap&coordinate=gaode&callnative=1","route_id":"r1","route_name":"第1段"},{"name":"宠爱动物医院","address":"解放南路新源街2栋一层","phone":"13188220282","category":"医疗保健服务;动物医疗场所;宠物诊所","area":"","lng":123.758122,"lat":41.284812,"amap_id":"B0HD27DTH9","order":4,"prev_distance_km":0.25,"cumulative_distance_km":2.681,"amap_marker_url":"https://uri.amap.com/marker?position=123.758122,41.284812&name=%E5%AE%A0%E7%88%B1%E5%8A%A8%E7%89%A9%E5%8C%BB%E9%99%A2&src=vetmap&coordinate=gaode&callnative=1","route_id":"r1","route_name":"第1段"},{"name":"康达宠物医院","address":"解放路135栋1层3号","phone":"13841435223","category":"医疗保健服务;动物医疗场所;宠物诊所","area":"","lng":123.755428,"lat":41.280448,"amap_id":"B0HG77LZXT","order":5,"prev_distance_km":0.535,"cumulative_distance_km":3.215,"amap_marker_url":"https://uri.amap.com/marker?position=123.755428,41.280448&name=%E5%BA%B7%E8%BE%BE%E5%AE%A0%E7%89%A9%E5%8C%BB%E9%99%A2&src=vetmap&coordinate=gaode&callnative=1","route_id":"r1","route_name":"第1段"},{"name":"靓宝宠物美容","address":"中兴路与中兴二路交叉口东北100米","phone":"","category":"医疗保健服务;动物医疗场所;宠物诊所","area":"","lng":123.660153,"lat":41.230783,"amap_id":"B0J2YLT5LZ","order":6,"prev_distance_km":9.692,"cumulative_distance_km":12.907,"amap_marker_url":"https://uri.amap.com/marker?position=123.660153,41.230783&name=%E9%9D%93%E5%AE%9D%E5%AE%A0%E7%89%A9%E7%BE%8E%E5%AE%B9&src=vetmap&coordinate=gaode&callnative=1","route_id":"r1","route_name":"第1段"},{"name":"宠福康宠物诊所","address":"堡子9号楼门市房","phone":"13842436462","category":"医疗保健服务;动物医疗场所;宠物诊所","area":"","lng":123.647433,"lat":41.225845,"amap_id":"B0JKOUI7AP","order":7,"prev_distance_km":1.197,"cumulative_distance_km":14.104,"amap_marker_url":"https://uri.amap.com/marker?position=123.647433,41.225845&name=%E5%AE%A0%E7%A6%8F%E5%BA%B7%E5%AE%A0%E7%89%A9%E8%AF%8A%E6%89%80&src=vetmap&coordinate=gaode&callnative=1","route_id":"r1","route_name":"第1段"}]}],"rows":[{"name":"佳信动物医院","address":"紫金路8号","phone":"024-42818120;13470500432","category":"医疗保健服务;动物医疗场所;宠物诊所","area":"","lng":123.777413,"lat":41.296645,"amap_id":"B0FFH97O8T","order":1,"prev_distance_km":0.0,"cumulative_distance_km":0.0,"amap_marker_url":"https://uri.amap.com/marker?position=123.777413,41.296645&name=%E4%BD%B3%E4%BF%A1%E5%8A%A8%E7%89%A9%E5%8C%BB%E9%99%A2&src=vetmap&coordinate=gaode&callnative=1","route_id":"r1","route_name":"第1段","global_order":1},{"name":"本溪市平山动物医院","address":"平山路81号","phone":"024-42800120;13050280120","category":"医疗保健服务;动物医疗场所;宠物诊所","area":"","lng":123.777861,"lat":41.28941,"amap_id":"B019E01OY1","order":2,"prev_distance_km":0.805,"cumulative_distance_km":0.805,"amap_marker_url":"https://uri.amap.com/marker?position=123.777861,41.289410&name=%E6%9C%AC%E6%BA%AA%E5%B8%82%E5%B9%B3%E5%B1%B1%E5%8A%A8%E7%89%A9%E5%8C%BB%E9%99%A2&src=vetmap&coordinate=gaode&callnative=1","route_id":"r1","route_name":"第1段","global_order":2},{"name":"范氏动物医院","address":"第五中学西(解放南路)","phone":"18904947758","category":"医疗保健服务;动物医疗场所;宠物诊所","area":"","lng":123.758675,"lat":41.287025,"amap_id":"B0FFJ4KF7U","order":3,"prev_distance_km":1.625,"cumulative_distance_km":2.43,"amap_marker_url":"https://uri.amap.com/marker?position=123.758675,41.287025&name=%E8%8C%83%E6%B0%8F%E5%8A%A8%E7%89%A9%E5%8C%BB%E9%99%A2&src=vetmap&coordinate=gaode&callnative=1","route_id":"r1","route_name":"第1段","global_order":3},{"name":"宠爱动物医院","address":"解放南路新源街2栋一层","phone":"13188220282","category":"医疗保健服务;动物医疗场所;宠物诊所","area":"","lng":123.758122,"lat":41.284812,"amap_id":"B0HD27DTH9","order":4,"prev_distance_km":0.25,"cumulative_distance_km":2.681,"amap_marker_url":"https://uri.amap.com/marker?position=123.758122,41.284812&name=%E5%AE%A0%E7%88%B1%E5%8A%A8%E7%89%A9%E5%8C%BB%E9%99%A2&src=vetmap&coordinate=gaode&callnative=1","route_id":"r1","route_name":"第1段","global_order":4},{"name":"康达宠物医院","address":"解放路135栋1层3号","phone":"13841435223","category":"医疗保健服务;动物医疗场所;宠物诊所","area":"","lng":123.755428,"lat":41.280448,"amap_id":"B0HG77LZXT","order":5,"prev_distance_km":0.535,"cumulative_distance_km":3.215,"amap_marker_url":"https://uri.amap.com/marker?position=123.755428,41.280448&name=%E5%BA%B7%E8%BE%BE%E5%AE%A0%E7%89%A9%E5%8C%BB%E9%99%A2&src=vetmap&coordinate=gaode&callnative=1","route_id":"r1","route_name":"第1段","global_order":5},{"name":"靓宝宠物美容","address":"中兴路与中兴二路交叉口东北100米","phone":"","category":"医疗保健服务;动物医疗场所;宠物诊所","area":"","lng":123.660153,"lat":41.230783,"amap_id":"B0J2YLT5LZ","order":6,"prev_distance_km":9.692,"cumulative_distance_km":12.907,"amap_marker_url":"https://uri.amap.com/marker?position=123.660153,41.230783&name=%E9%9D%93%E5%AE%9D%E5%AE%A0%E7%89%A9%E7%BE%8E%E5%AE%B9&src=vetmap&coordinate=gaode&callnative=1","route_id":"r1","route_name":"第1段","global_order":6},{"name":"宠福康宠物诊所","address":"堡子9号楼门市房","phone":"13842436462","category":"医疗保健服务;动物医疗场所;宠物诊所","area":"","lng":123.647433,"lat":41.225845,"amap_id":"B0JKOUI7AP","order":7,"prev_distance_km":1.197,"cumulative_distance_km":14.104,"amap_marker_url":"https://uri.amap.com/marker?position=123.647433,41.225845&name=%E5%AE%A0%E7%A6%8F%E5%BA%B7%E5%AE%A0%E7%89%A9%E8%AF%8A%E6%89%80&src=vetmap&coordinate=gaode&callnative=1","route_id":"r1","route_name":"第1段","global_order":7}]}