{"summary":{"id":"d01725","province":"辽宁省","city":"沈阳市","district":"铁西区","count":81,"total_distance_km":57.587,"coordinate_system":"GCJ-02 / Amap","generated_at":"2026-05-07 19:58:28"},"rows":[{"name":"大潘畜牧兽医站","address":"同发渔具西侧90米","phone":"","category":"医疗保健服务;动物医疗场所;兽医站","area":"","lng":123.131745,"lat":41.689834,"amap_id":"B00180CZ0I","order":1,"prev_distance_km":0.0,"cumulative_distance_km":0.0,"amap_marker_url":"https://uri.amap.com/marker?position=123.131745,41.689834&name=%E5%A4%A7%E6%BD%98%E7%95%9C%E7%89%A7%E5%85%BD%E5%8C%BB%E7%AB%99&src=vetmap&coordinate=gaode&callnative=1"},{"name":"顺康宠物诊所","address":"102国道与小潘南四街交叉口西南40米","phone":"","category":"医疗保健服务;动物医疗场所;宠物诊所","area":"","lng":123.140716,"lat":41.691339,"amap_id":"B0L0M597NT","order":2,"prev_distance_km":0.763,"cumulative_distance_km":0.763,"amap_marker_url":"https://uri.amap.com/marker?position=123.140716,41.691339&name=%E9%A1%BA%E5%BA%B7%E5%AE%A0%E7%89%A9%E8%AF%8A%E6%89%80&src=vetmap&coordinate=gaode&callnative=1"},{"name":"丽丽宠物美容","address":"沈辽路弘泽国际","phone":"13304017776","category":"医疗保健服务;动物医疗场所;宠物诊所","area":"","lng":123.161617,"lat":41.699099,"amap_id":"B0GUKDCDCW","order":3,"prev_distance_km":1.938,"cumulative_distance_km":2.702,"amap_marker_url":"https://uri.amap.com/marker?position=123.161617,41.699099&name=%E4%B8%BD%E4%B8%BD%E5%AE%A0%E7%89%A9%E7%BE%8E%E5%AE%B9&src=vetmap&coordinate=gaode&callnative=1"},{"name":"愈安动物门诊","address":"翟家路融创城2期183-1-14","phone":"15710557510","category":"医疗保健服务;动物医疗场所;宠物诊所","area":"","lng":123.225954,"lat":41.72551,"amap_id":"B0LU9HCSBK","order":4,"prev_distance_km":6.095,"cumulative_distance_km":8.796,"amap_marker_url":"https://uri.amap.com/marker?position=123.225954,41.725510&name=%E6%84%88%E5%AE%89%E5%8A%A8%E7%89%A9%E9%97%A8%E8%AF%8A&src=vetmap&coordinate=gaode&callnative=1"},{"name":"灰鲸动物诊所(宠物医院犬猫手术绝育体检超声检查)","address":"经济技术开发区十三号街67-4号锦绣天地5期西门商铺","phone":"18502473566","category":"医疗保健服务;动物医疗场所;宠物诊所","area":"","lng":123.225847,"lat":41.739808,"amap_id":"B0KDYMVK6A","order":5,"prev_distance_km":1.59,"cumulative_distance_km":10.386,"amap_marker_url":"https://uri.amap.com/marker?position=123.225847,41.739808&name=%E7%81%B0%E9%B2%B8%E5%8A%A8%E7%89%A9%E8%AF%8A%E6%89%80%28%E5%AE%A0%E7%89%A9%E5%8C%BB%E9%99%A2%E7%8A%AC%E7%8C%AB%E6%89%8B%E6%9C%AF%E7%BB%9D%E8%82%B2%E4%BD%93%E6%A3%80%E8%B6%85%E5%A3%B0%E6%A3%80%E6%9F%A5%29&src=vetmap&coordinate=gaode&callnative=1"},{"name":"阳佳宠物","address":"十四号街29-30,3门","phone":"","category":"医疗保健服务;动物医疗场所;动物医疗场所","area":"","lng":123.221529,"lat":41.74623,"amap_id":"B0L0NSRLGN","order":6,"prev_distance_km":0.799,"cumulative_distance_km":11.185,"amap_marker_url":"https://uri.amap.com/marker?position=123.221529,41.746230&name=%E9%98%B3%E4%BD%B3%E5%AE%A0%E7%89%A9&src=vetmap&coordinate=gaode&callnative=1"},{"name":"乐萌宠动物院","address":"十四号路20-3号网点7门","phone":"18704038878;18704308878","category":"医疗保健服务;动物医疗场所;宠物诊所","area":"财富广场","lng":123.242715,"lat":41.745161,"amap_id":"B0FFIBIB3V","order":7,"prev_distance_km":1.762,"cumulative_distance_km":12.947,"amap_marker_url":"https://uri.amap.com/marker?position=123.242715,41.745161&name=%E4%B9%90%E8%90%8C%E5%AE%A0%E5%8A%A8%E7%89%A9%E9%99%A2&src=vetmap&coordinate=gaode&callnative=1"},{"name":"鑫博诚动物医院·骨科·内科·犬猫·24小时(医保)","address":"铁西经济技术开发区十四号路23号-3","phone":"18624068973","category":"医疗保健服务;动物医疗场所;宠物诊所","area":"","lng":123.245398,"lat":41.744412,"amap_id":"B0LDO50G52","order":8,"prev_distance_km":0.238,"cumulative_distance_km":13.184,"amap_marker_url":"https://uri.amap.com/marker?position=123.245398,41.744412&name=%E9%91%AB%E5%8D%9A%E8%AF%9A%E5%8A%A8%E7%89%A9%E5%8C%BB%E9%99%A2%C2%B7%E9%AA%A8%E7%A7%91%C2%B7%E5%86%85%E7%A7%91%C2%B7%E7%8A%AC%E7%8C%AB%C2%B724%E5%B0%8F%E6%97%B6%28%E5%8C%BB%E4%BF%9D%29&src=vetmap&coordinate=gaode&callnative=1"},{"name":"盛爱康24小时宠物医院","address":"中央大街29-1-8门","phone":"18104026950","category":"医疗保健服务;动物医疗场所;宠物诊所","area":"财富广场","lng":123.251265,"lat":41.744544,"amap_id":"B0GU1UX72I","order":9,"prev_distance_km":0.487,"cumulative_distance_km":13.671,"amap_marker_url":"https://uri.amap.com/marker?position=123.251265,41.744544&name=%E7%9B%9B%E7%88%B1%E5%BA%B724%E5%B0%8F%E6%97%B6%E5%AE%A0%E7%89%A9%E5%8C%BB%E9%99%A2&src=vetmap&coordinate=gaode&callnative=1"},{"name":"盛爱康宠物门诊","address":"荣盛·幸福大道东南2门西南60米","phone":"13804030574","category":"医疗保健服务;动物医疗场所;宠物诊所","area":"财富广场","lng":123.251273,"lat":41.74453,"amap_id":"B0FFIZYZH0","order":10,"prev_distance_km":0.002,"cumulative_distance_km":13.673,"amap_marker_url":"https://uri.amap.com/marker?position=123.251273,41.744530&name=%E7%9B%9B%E7%88%B1%E5%BA%B7%E5%AE%A0%E7%89%A9%E9%97%A8%E8%AF%8A&src=vetmap&coordinate=gaode&callnative=1"},{"name":"德铭动物诊所","address":"中央大街25-37网点5门","phone":"13516007390","category":"医疗保健服务;动物医疗场所;宠物诊所","area":"财富广场","lng":123.246757,"lat":41.749925,"amap_id":"B0I1TA3FBZ","order":11,"prev_distance_km":0.707,"cumulative_distance_km":14.38,"amap_marker_url":"https://uri.amap.com/marker?position=123.246757,41.749925&name=%E5%BE%B7%E9%93%AD%E5%8A%A8%E7%89%A9%E8%AF%8A%E6%89%80&src=vetmap&coordinate=gaode&callnative=1"},{"name":"风洛宠物","address":"中央大街27甲21号3门","phone":"13236659712","category":"医疗保健服务;动物医疗场所;动物医疗场所","area":"","lng":123.251425,"lat":41.752829,"amap_id":"B0L3XR1YQ1","order":12,"prev_distance_km":0.504,"cumulative_distance_km":14.884,"amap_marker_url":"https://uri.amap.com/marker?position=123.251425,41.752829&name=%E9%A3%8E%E6%B4%9B%E5%AE%A0%E7%89%A9&src=vetmap&coordinate=gaode&callnative=1"},{"name":"嘉贝爱宠动物医院(宁官小区店)","address":"开发十八号路21-13号1门","phone":"024-25290121;13082447901","category":"医疗保健服务;动物医疗场所;宠物诊所","area":"财富广场","lng":123.270079,"lat":41.742194,"amap_id":"B0HUA7CJTX","order":13,"prev_distance_km":1.948,"cumulative_distance_km":16.832,"amap_marker_url":"https://uri.amap.com/marker?position=123.270079,41.742194&name=%E5%98%89%E8%B4%9D%E7%88%B1%E5%AE%A0%E5%8A%A8%E7%89%A9%E5%8C%BB%E9%99%A2%28%E5%AE%81%E5%AE%98%E5%B0%8F%E5%8C%BA%E5%BA%97%29&src=vetmap&coordinate=gaode&callnative=1"},{"name":"圣恩宠物诊疗中心","address":"沧海路11-8号10门(张士地铁站D口步行110米)","phone":"15710520880","category":"医疗保健服务;动物医疗场所;宠物诊所","area":"","lng":123.29571,"lat":41.7728,"amap_id":"B0HDU5IOT4","order":14,"prev_distance_km":4.013,"cumulative_distance_km":20.845,"amap_marker_url":"https://uri.amap.com/marker?position=123.295710,41.772800&name=%E5%9C%A3%E6%81%A9%E5%AE%A0%E7%89%A9%E8%AF%8A%E7%96%97%E4%B8%AD%E5%BF%83&src=vetmap&coordinate=gaode&callnative=1"},{"name":"宠瑞康动物医院","address":"燕塞湖街27-26号","phone":"024-25100558","category":"医疗保健服务;动物医疗场所;宠物诊所","area":"张士开发区","lng":123.305772,"lat":41.771745,"amap_id":"B0I0P54I6V","order":15,"prev_distance_km":0.843,"cumulative_distance_km":21.688,"amap_marker_url":"https://uri.amap.com/marker?position=123.305772,41.771745&name=%E5%AE%A0%E7%91%9E%E5%BA%B7%E5%8A%A8%E7%89%A9%E5%8C%BB%E9%99%A2&src=vetmap&coordinate=gaode&callnative=1"},{"name":"博诚宠物","address":"堰塞湖街澳海西湖印象B32号","phone":"15645650467","category":"医疗保健服务;动物医疗场所;宠物诊所","area":"","lng":123.306539,"lat":41.771183,"amap_id":"B0LG0S38WR","order":16,"prev_distance_km":0.089,"cumulative_distance_km":21.777,"amap_marker_url":"https://uri.amap.com/marker?position=123.306539,41.771183&name=%E5%8D%9A%E8%AF%9A%E5%AE%A0%E7%89%A9&src=vetmap&coordinate=gaode&callnative=1"},{"name":"元木动物诊所","address":"龙江湖街益格名邸34号3门","phone":"15140063339","category":"医疗保健服务;动物医疗场所;宠物诊所","area":"","lng":123.319873,"lat":41.771311,"amap_id":"B0FFM9FLWP","order":17,"prev_distance_km":1.106,"cumulative_distance_km":22.883,"amap_marker_url":"https://uri.amap.com/marker?position=123.319873,41.771311&name=%E5%85%83%E6%9C%A8%E5%8A%A8%E7%89%A9%E8%AF%8A%E6%89%80&src=vetmap&coordinate=gaode&callnative=1"},{"name":"大然24小时宠物医院·夜诊·产科·传染病·寄养","address":"揽军路42Z号","phone":"17642021168","category":"医疗保健服务;动物医疗场所;宠物诊所","area":"盛京商场","lng":123.330157,"lat":41.776485,"amap_id":"B0JAFRG21Y","order":18,"prev_distance_km":1.029,"cumulative_distance_km":23.911,"amap_marker_url":"https://uri.amap.com/marker?position=123.330157,41.776485&name=%E5%A4%A7%E7%84%B624%E5%B0%8F%E6%97%B6%E5%AE%A0%E7%89%A9%E5%8C%BB%E9%99%A2%C2%B7%E5%A4%9C%E8%AF%8A%C2%B7%E4%BA%A7%E7%A7%91%C2%B7%E4%BC%A0%E6%9F%93%E7%97%85%C2%B7%E5%AF%84%E5%85%BB&src=vetmap&coordinate=gaode&callnative=1"},{"name":"多多爱宠物美容会馆(肇工南街71号楼店)","address":"肇工南街71号9-17门","phone":"13674188891","category":"医疗保健服务;动物医疗场所;动物医疗场所","area":"工人村","lng":123.335431,"lat":41.782384,"amap_id":"B0FFG7RFVM","order":19,"prev_distance_km":0.788,"cumulative_distance_km":24.7,"amap_marker_url":"https://uri.amap.com/marker?position=123.335431,41.782384&name=%E5%A4%9A%E5%A4%9A%E7%88%B1%E5%AE%A0%E7%89%A9%E7%BE%8E%E5%AE%B9%E4%BC%9A%E9%A6%86%28%E8%82%87%E5%B7%A5%E5%8D%97%E8%A1%9771%E5%8F%B7%E6%A5%BC%E5%BA%97%29&src=vetmap&coordinate=gaode&callnative=1"},{"name":"晶迪宠物门诊","address":"勋业三路9-12号附近","phone":"13252818886","category":"医疗保健服务;动物医疗场所;宠物诊所","area":"卫工","lng":123.335721,"lat":41.782432,"amap_id":"B00180JIFH","order":20,"prev_distance_km":0.025,"cumulative_distance_km":24.724,"amap_marker_url":"https://uri.amap.com/marker?position=123.335721,41.782432&name=%E6%99%B6%E8%BF%AA%E5%AE%A0%E7%89%A9%E9%97%A8%E8%AF%8A&src=vetmap&coordinate=gaode&callnative=1"},{"name":"鑫天旺高级宠物门诊","address":"勋业三路9号-9门","phone":"024-25760465;13555882718","category":"医疗保健服务;动物医疗场所;宠物诊所","area":"卫工","lng":123.336115,"lat":41.782339,"amap_id":"B00180IBPB","order":21,"prev_distance_km":0.034,"cumulative_distance_km":24.759,"amap_marker_url":"https://uri.amap.com/marker?position=123.336115,41.782339&name=%E9%91%AB%E5%A4%A9%E6%97%BA%E9%AB%98%E7%BA%A7%E5%AE%A0%E7%89%A9%E9%97%A8%E8%AF%8A&src=vetmap&coordinate=gaode&callnative=1"},{"name":"欣欣维康宠物门诊","address":"肇工街劳动公园南门","phone":"13998834303","category":"医疗保健服务;动物医疗场所;宠物诊所","area":"卫工","lng":123.336286,"lat":41.782299,"amap_id":"B00181ER0S","order":22,"prev_distance_km":0.015,"cumulative_distance_km":24.773,"amap_marker_url":"https://uri.amap.com/marker?position=123.336286,41.782299&name=%E6%AC%A3%E6%AC%A3%E7%BB%B4%E5%BA%B7%E5%AE%A0%E7%89%A9%E9%97%A8%E8%AF%8A&src=vetmap&coordinate=gaode&callnative=1"},{"name":"快乐宝贝宠物医院","address":"勋业三路9-5门","phone":"15040239971","category":"医疗保健服务;动物医疗场所;宠物诊所","area":"卫工","lng":123.336361,"lat":41.782281,"amap_id":"B00180JIFI","order":23,"prev_distance_km":0.007,"cumulative_distance_km":24.78,"amap_marker_url":"https://uri.amap.com/marker?position=123.336361,41.782281&name=%E5%BF%AB%E4%B9%90%E5%AE%9D%E8%B4%9D%E5%AE%A0%E7%89%A9%E5%8C%BB%E9%99%A2&src=vetmap&coordinate=gaode&callnative=1"},{"name":"天缘宠物","address":"经济技术开发区管理委员会肇工南街勋业三路","phone":"13478204428","category":"医疗保健服务;动物医疗场所;动物医疗场所","area":"卫工","lng":123.336956,"lat":41.782091,"amap_id":"B0FFG2CJS1","order":24,"prev_distance_km":0.054,"cumulative_distance_km":24.834,"amap_marker_url":"https://uri.amap.com/marker?position=123.336956,41.782091&name=%E5%A4%A9%E7%BC%98%E5%AE%A0%E7%89%A9&src=vetmap&coordinate=gaode&callnative=1"},{"name":"凯撒猫苑","address":"勋业三路3号","phone":"15524147890","category":"医疗保健服务;动物医疗场所;动物医疗场所","area":"卫工","lng":123.337163,"lat":41.782084,"amap_id":"B0FFHCKHWA","order":25,"prev_distance_km":0.017,"cumulative_distance_km":24.851,"amap_marker_url":"https://uri.amap.com/marker?position=123.337163,41.782084&name=%E5%87%AF%E6%92%92%E7%8C%AB%E8%8B%91&src=vetmap&coordinate=gaode&callnative=1"},{"name":"望康动物医院(沈辽路分院)","address":"保工南街125号5门培英中学对面","phone":"13214244563","category":"医疗保健服务;动物医疗场所;宠物诊所","area":"保工街","lng":123.343481,"lat":41.781623,"amap_id":"B0KDM7CW1Q","order":26,"prev_distance_km":0.526,"cumulative_distance_km":25.377,"amap_marker_url":"https://uri.amap.com/marker?position=123.343481,41.781623&name=%E6%9C%9B%E5%BA%B7%E5%8A%A8%E7%89%A9%E5%8C%BB%E9%99%A2%28%E6%B2%88%E8%BE%BD%E8%B7%AF%E5%88%86%E9%99%A2%29&src=vetmap&coordinate=gaode&callnative=1"},{"name":"泰来动物医院·犬猫全科·内科·软外科","address":"保工街123甲3门","phone":"13130273058","category":"医疗保健服务;动物医疗场所;宠物诊所","area":"保工","lng":123.343775,"lat":41.782375,"amap_id":"B0LRXSZ5LA","order":27,"prev_distance_km":0.087,"cumulative_distance_km":25.464,"amap_marker_url":"https://uri.amap.com/marker?position=123.343775,41.782375&name=%E6%B3%B0%E6%9D%A5%E5%8A%A8%E7%89%A9%E5%8C%BB%E9%99%A2%C2%B7%E7%8A%AC%E7%8C%AB%E5%85%A8%E7%A7%91%C2%B7%E5%86%85%E7%A7%91%C2%B7%E8%BD%AF%E5%A4%96%E7%A7%91&src=vetmap&coordinate=gaode&callnative=1"},{"name":"派美特宠物医院保工店","address":"保工南街145号5门","phone":"024-85717480;15330800875","category":"医疗保健服务;动物医疗场所;宠物诊所","area":"保工","lng":123.342411,"lat":41.77911,"amap_id":"B0FFH8WMPN","order":28,"prev_distance_km":0.38,"cumulative_distance_km":25.845,"amap_marker_url":"https://uri.amap.com/marker?position=123.342411,41.779110&name=%E6%B4%BE%E7%BE%8E%E7%89%B9%E5%AE%A0%E7%89%A9%E5%8C%BB%E9%99%A2%E4%BF%9D%E5%B7%A5%E5%BA%97&src=vetmap&coordinate=gaode&callnative=1"},{"name":"万嘉24小时宠物医院·心脏·异宠","address":"艳粉街1号4门","phone":"13889148229","category":"医疗保健服务;动物医疗场所;宠物诊所","area":"艳粉","lng":123.351991,"lat":41.779298,"amap_id":"B0HG6ZCT4L","order":29,"prev_distance_km":0.795,"cumulative_distance_km":26.639,"amap_marker_url":"https://uri.amap.com/marker?position=123.351991,41.779298&name=%E4%B8%87%E5%98%8924%E5%B0%8F%E6%97%B6%E5%AE%A0%E7%89%A9%E5%8C%BB%E9%99%A2%C2%B7%E5%BF%83%E8%84%8F%C2%B7%E5%BC%82%E5%AE%A0&src=vetmap&coordinate=gaode&callnative=1"},{"name":"锐力宠物门诊","address":"兴华南街58-22号(12门)","phone":"18640293898","category":"医疗保健服务;动物医疗场所;宠物诊所","area":"兴华","lng":123.354672,"lat":41.780778,"amap_id":"B0G23YABHO","order":30,"prev_distance_km":0.277,"cumulative_distance_km":26.916,"amap_marker_url":"https://uri.amap.com/marker?position=123.354672,41.780778&name=%E9%94%90%E5%8A%9B%E5%AE%A0%E7%89%A9%E9%97%A8%E8%AF%8A&src=vetmap&coordinate=gaode&callnative=1"},{"name":"美联众合动物医院(沈辽路分院)","address":"沈辽中路5号11门","phone":"024-31178088;18240001400","category":"医疗保健服务;动物医疗场所;宠物诊所","area":"艳粉","lng":123.357221,"lat":41.780218,"amap_id":"B0H2YAW8D2","order":31,"prev_distance_km":0.22,"cumulative_distance_km":27.136,"amap_marker_url":"https://uri.amap.com/marker?position=123.357221,41.780218&name=%E7%BE%8E%E8%81%94%E4%BC%97%E5%90%88%E5%8A%A8%E7%89%A9%E5%8C%BB%E9%99%A2%28%E6%B2%88%E8%BE%BD%E8%B7%AF%E5%88%86%E9%99%A2%29&src=vetmap&coordinate=gaode&callnative=1"},{"name":"乐洋宠物","address":"艳粉街57巷与艳粉街交叉口东北80米","phone":"","category":"医疗保健服务;动物医疗场所;动物医疗场所|购物服务;专卖店;宠物用品店","area":"艳粉","lng":123.355425,"lat":41.774075,"amap_id":"B0LBLLRFTH","order":32,"prev_distance_km":0.699,"cumulative_distance_km":27.835,"amap_marker_url":"https://uri.amap.com/marker?position=123.355425,41.774075&name=%E4%B9%90%E6%B4%8B%E5%AE%A0%E7%89%A9&src=vetmap&coordinate=gaode&callnative=1"},{"name":"壹萌动物医院犬猫异宠","address":"乐泰亮甲保工服务中心保工街南十二路23号5门旁","phone":"13304005237;18041359268","category":"医疗保健服务;动物医疗场所;宠物诊所","area":"兴华","lng":123.348901,"lat":41.785844,"amap_id":"B0K3ZAGKDD","order":33,"prev_distance_km":1.416,"cumulative_distance_km":29.251,"amap_marker_url":"https://uri.amap.com/marker?position=123.348901,41.785844&name=%E5%A3%B9%E8%90%8C%E5%8A%A8%E7%89%A9%E5%8C%BB%E9%99%A2%E7%8A%AC%E7%8C%AB%E5%BC%82%E5%AE%A0&src=vetmap&coordinate=gaode&callnative=1"},{"name":"瑞派宠物医院住院部(保工南街店)","address":"富海云天东门西南60米","phone":"024-25449136;13252828518","category":"医疗保健服务;动物医疗场所;宠物诊所","area":"保工","lng":123.346642,"lat":41.788398,"amap_id":"B0L2DY8L6I","order":34,"prev_distance_km":0.34,"cumulative_distance_km":29.591,"amap_marker_url":"https://uri.amap.com/marker?position=123.346642,41.788398&name=%E7%91%9E%E6%B4%BE%E5%AE%A0%E7%89%A9%E5%8C%BB%E9%99%A2%E4%BD%8F%E9%99%A2%E9%83%A8%28%E4%BF%9D%E5%B7%A5%E5%8D%97%E8%A1%97%E5%BA%97%29&src=vetmap&coordinate=gaode&callnative=1"},{"name":"瑞派永康24小时宠物医院·CT核磁神经外科眼科","address":"保工南街62号3门","phone":"024-25449136;13252828518","category":"医疗保健服务;动物医疗场所;宠物诊所","area":"保工","lng":123.346628,"lat":41.788422,"amap_id":"B0J1CDA5SJ","order":35,"prev_distance_km":0.003,"cumulative_distance_km":29.594,"amap_marker_url":"https://uri.amap.com/marker?position=123.346628,41.788422&name=%E7%91%9E%E6%B4%BE%E6%B0%B8%E5%BA%B724%E5%B0%8F%E6%97%B6%E5%AE%A0%E7%89%A9%E5%8C%BB%E9%99%A2%C2%B7CT%E6%A0%B8%E7%A3%81%E7%A5%9E%E7%BB%8F%E5%A4%96%E7%A7%91%E7%9C%BC%E7%A7%91&src=vetmap&coordinate=gaode&callnative=1"},{"name":"忠意宠物门诊","address":"南十中路51号","phone":"13080821558","category":"医疗保健服务;动物医疗场所;宠物诊所","area":"齐贤","lng":123.347976,"lat":41.791186,"amap_id":"B00180IJPW","order":36,"prev_distance_km":0.327,"cumulative_distance_km":29.921,"amap_marker_url":"https://uri.amap.com/marker?position=123.347976,41.791186&name=%E5%BF%A0%E6%84%8F%E5%AE%A0%E7%89%A9%E9%97%A8%E8%AF%8A&src=vetmap&coordinate=gaode&callnative=1"},{"name":"皮妞宠物(德工店)","address":"德工街10马路56号","phone":"13904048941","category":"医疗保健服务;动物医疗场所;动物医疗场所","area":"保工","lng":123.347076,"lat":41.791752,"amap_id":"B0JA2ZI9DQ","order":37,"prev_distance_km":0.098,"cumulative_distance_km":30.019,"amap_marker_url":"https://uri.amap.com/marker?position=123.347076,41.791752&name=%E7%9A%AE%E5%A6%9E%E5%AE%A0%E7%89%A9%28%E5%BE%B7%E5%B7%A5%E5%BA%97%29&src=vetmap&coordinate=gaode&callnative=1"},{"name":"瑞派道格凯特宠物医院","address":"卫工南街40-1号5-6门","phone":"024-31264120;18604048541","category":"医疗保健服务;动物医疗场所;宠物诊所","area":"卫工","lng":123.344289,"lat":41.793641,"amap_id":"B0HAPZS9PN","order":38,"prev_distance_km":0.312,"cumulative_distance_km":30.331,"amap_marker_url":"https://uri.amap.com/marker?position=123.344289,41.793641&name=%E7%91%9E%E6%B4%BE%E9%81%93%E6%A0%BC%E5%87%AF%E7%89%B9%E5%AE%A0%E7%89%A9%E5%8C%BB%E9%99%A2&src=vetmap&coordinate=gaode&callnative=1"},{"name":"丁丁宠物健康会所","address":"马壮街南十一西路13号15门","phone":"024-25730422;13236664772","category":"医疗保健服务;动物医疗场所;宠物诊所","area":"卫工","lng":123.338558,"lat":41.792013,"amap_id":"B00180JME9","order":39,"prev_distance_km":0.508,"cumulative_distance_km":30.84,"amap_marker_url":"https://uri.amap.com/marker?position=123.338558,41.792013&name=%E4%B8%81%E4%B8%81%E5%AE%A0%E7%89%A9%E5%81%A5%E5%BA%B7%E4%BC%9A%E6%89%80&src=vetmap&coordinate=gaode&callnative=1"},{"name":"宏宇宠物门诊","address":"重工街南十西路十字路口西北角第一家","phone":"13889802196","category":"医疗保健服务;动物医疗场所;宠物诊所","area":"重工","lng":123.32629,"lat":41.794459,"amap_id":"B0IRV5Q2R6","order":40,"prev_distance_km":1.053,"cumulative_distance_km":31.893,"amap_marker_url":"https://uri.amap.com/marker?position=123.326290,41.794459&name=%E5%AE%8F%E5%AE%87%E5%AE%A0%E7%89%A9%E9%97%A8%E8%AF%8A&src=vetmap&coordinate=gaode&callnative=1"},{"name":"香和宠物医院(铁西区)","address":"南十一西路61-9门","phone":"13840073127","category":"医疗保健服务;动物医疗场所;宠物诊所","area":"工人村","lng":123.325571,"lat":41.792621,"amap_id":"B0FFH626I3","order":41,"prev_distance_km":0.213,"cumulative_distance_km":32.105,"amap_marker_url":"https://uri.amap.com/marker?position=123.325571,41.792621&name=%E9%A6%99%E5%92%8C%E5%AE%A0%E7%89%A9%E5%8C%BB%E9%99%A2%28%E9%93%81%E8%A5%BF%E5%8C%BA%29&src=vetmap&coordinate=gaode&callnative=1"},{"name":"宠爱有家(沈阳铁西区)","address":"重工南街82巷-3号212","phone":"13889811449;13940071528","category":"医疗保健服务;动物医疗场所;动物医疗场所","area":"重工","lng":123.323443,"lat":41.788435,"amap_id":"B0FFGIWMS8","order":42,"prev_distance_km":0.498,"cumulative_distance_km":32.603,"amap_marker_url":"https://uri.amap.com/marker?position=123.323443,41.788435&name=%E5%AE%A0%E7%88%B1%E6%9C%89%E5%AE%B6%28%E6%B2%88%E9%98%B3%E9%93%81%E8%A5%BF%E5%8C%BA%29&src=vetmap&coordinate=gaode&callnative=1"},{"name":"宝贝佳宠物医院","address":"重工街道北四西路15-13门","phone":"13904252136;18698245997","category":"医疗保健服务;动物医疗场所;宠物诊所","area":"重工","lng":123.331253,"lat":41.811601,"amap_id":"B0FFHDPII7","order":43,"prev_distance_km":2.656,"cumulative_distance_km":35.259,"amap_marker_url":"https://uri.amap.com/marker?position=123.331253,41.811601&name=%E5%AE%9D%E8%B4%9D%E4%BD%B3%E5%AE%A0%E7%89%A9%E5%8C%BB%E9%99%A2&src=vetmap&coordinate=gaode&callnative=1"},{"name":"宠康宠物门诊","address":"熊家岗路6-1号","phone":"18809882422","category":"医疗保健服务;动物医疗场所;宠物诊所","area":"重工","lng":123.327766,"lat":41.815727,"amap_id":"B0L1KRVQ41","order":44,"prev_distance_km":0.542,"cumulative_distance_km":35.801,"amap_marker_url":"https://uri.amap.com/marker?position=123.327766,41.815727&name=%E5%AE%A0%E5%BA%B7%E5%AE%A0%E7%89%A9%E9%97%A8%E8%AF%8A&src=vetmap&coordinate=gaode&callnative=1"},{"name":"ngkc宠物护理与美容","address":"坤谦家园北门旁","phone":"","category":"医疗保健服务;动物医疗场所;宠物诊所","area":"重工","lng":123.332118,"lat":41.820243,"amap_id":"B0L3XC17Y2","order":45,"prev_distance_km":0.618,"cumulative_distance_km":36.42,"amap_marker_url":"https://uri.amap.com/marker?position=123.332118,41.820243&name=ngkc%E5%AE%A0%E7%89%A9%E6%8A%A4%E7%90%86%E4%B8%8E%E7%BE%8E%E5%AE%B9&src=vetmap&coordinate=gaode&callnative=1"},{"name":"德仁宠物诊所","address":"重工北街32-28号假日普罗旺斯北区西门","phone":"18940130390","category":"医疗保健服务;动物医疗场所;宠物诊所","area":"重工","lng":123.330802,"lat":41.826176,"amap_id":"B0IDY5WTX7","order":46,"prev_distance_km":0.669,"cumulative_distance_km":37.088,"amap_marker_url":"https://uri.amap.com/marker?position=123.330802,41.826176&name=%E5%BE%B7%E4%BB%81%E5%AE%A0%E7%89%A9%E8%AF%8A%E6%89%80&src=vetmap&coordinate=gaode&callnative=1"},{"name":"派美特宠物医院贝宠生活馆","address":"重工北街22号101","phone":"024-25401919;15142509466","category":"医疗保健服务;动物医疗场所;宠物诊所","area":"重工街","lng":123.333776,"lat":41.828057,"amap_id":"B0J2RZNLY5","order":47,"prev_distance_km":0.323,"cumulative_distance_km":37.412,"amap_marker_url":"https://uri.amap.com/marker?position=123.333776,41.828057&name=%E6%B4%BE%E7%BE%8E%E7%89%B9%E5%AE%A0%E7%89%A9%E5%8C%BB%E9%99%A2%E8%B4%9D%E5%AE%A0%E7%94%9F%E6%B4%BB%E9%A6%86&src=vetmap&coordinate=gaode&callnative=1"},{"name":"望康动物医院(铁西分院)","address":"保工北街16-1号2门","phone":"13555866622","category":"医疗保健服务;动物医疗场所;宠物诊所","area":"保工","lng":123.367206,"lat":41.815786,"amap_id":"B0ID1SAFF0","order":48,"prev_distance_km":3.088,"cumulative_distance_km":40.5,"amap_marker_url":"https://uri.amap.com/marker?position=123.367206,41.815786&name=%E6%9C%9B%E5%BA%B7%E5%8A%A8%E7%89%A9%E5%8C%BB%E9%99%A2%28%E9%93%81%E8%A5%BF%E5%88%86%E9%99%A2%29&src=vetmap&coordinate=gaode&callnative=1"},{"name":"我宠我爱动物医院(保工24小时店)","address":"保工北街3甲1号3门","phone":"15524157320","category":"医疗保健服务;动物医疗场所;宠物诊所","area":"笃工","lng":123.367525,"lat":41.814175,"amap_id":"B0FFHCUCC2","order":49,"prev_distance_km":0.181,"cumulative_distance_km":40.681,"amap_marker_url":"https://uri.amap.com/marker?position=123.367525,41.814175&name=%E6%88%91%E5%AE%A0%E6%88%91%E7%88%B1%E5%8A%A8%E7%89%A9%E5%8C%BB%E9%99%A2%28%E4%BF%9D%E5%B7%A524%E5%B0%8F%E6%97%B6%E5%BA%97%29&src=vetmap&coordinate=gaode&callnative=1"},{"name":"宠卫士动物医院犬猫综合诊疗中心","address":"保工北街32-2号3门","phone":"18840669120","category":"医疗保健服务;动物医疗场所;宠物诊所","area":"保工","lng":123.362646,"lat":41.809769,"amap_id":"B0FFL7CH62","order":50,"prev_distance_km":0.635,"cumulative_distance_km":41.316,"amap_marker_url":"https://uri.amap.com/marker?position=123.362646,41.809769&name=%E5%AE%A0%E5%8D%AB%E5%A3%AB%E5%8A%A8%E7%89%A9%E5%8C%BB%E9%99%A2%E7%8A%AC%E7%8C%AB%E7%BB%BC%E5%90%88%E8%AF%8A%E7%96%97%E4%B8%AD%E5%BF%83&src=vetmap&coordinate=gaode&callnative=1"},{"name":"好好宠物医院铁西店","address":"保工北街38-1号4门","phone":"17341006361","category":"医疗保健服务;动物医疗场所;宠物诊所","area":"保工","lng":123.361402,"lat":41.80811,"amap_id":"B0LATS3HQF","order":51,"prev_distance_km":0.211,"cumulative_distance_km":41.527,"amap_marker_url":"https://uri.amap.com/marker?position=123.361402,41.808110&name=%E5%A5%BD%E5%A5%BD%E5%AE%A0%E7%89%A9%E5%8C%BB%E9%99%A2%E9%93%81%E8%A5%BF%E5%BA%97&src=vetmap&coordinate=gaode&callnative=1"},{"name":"愈界大兽医动物诊疗中心","address":"保工北街42-1号3门","phone":"13516040202;17704243248","category":"医疗保健服务;动物医疗场所;动物医疗场所","area":"保工街","lng":123.360396,"lat":41.806755,"amap_id":"B0K06D3P0D","order":52,"prev_distance_km":0.172,"cumulative_distance_km":41.699,"amap_marker_url":"https://uri.amap.com/marker?position=123.360396,41.806755&name=%E6%84%88%E7%95%8C%E5%A4%A7%E5%85%BD%E5%8C%BB%E5%8A%A8%E7%89%A9%E8%AF%8A%E7%96%97%E4%B8%AD%E5%BF%83&src=vetmap&coordinate=gaode&callnative=1"},{"name":"沈阳尚益动物医院","address":"齐贤北街与小北三中路交叉口南40米","phone":"15804095089","category":"医疗保健服务;动物医疗场所;宠物诊所","area":"保工街","lng":123.3647,"lat":41.805138,"amap_id":"B0L3AST66R","order":53,"prev_distance_km":0.399,"cumulative_distance_km":42.099,"amap_marker_url":"https://uri.amap.com/marker?position=123.364700,41.805138&name=%E6%B2%88%E9%98%B3%E5%B0%9A%E7%9B%8A%E5%8A%A8%E7%89%A9%E5%8C%BB%E9%99%A2&src=vetmap&coordinate=gaode&callnative=1"},{"name":"宠物自助洗护","address":"君临天下三期南门西80米","phone":"","category":"医疗保健服务;动物医疗场所;动物医疗场所","area":"兴华","lng":123.370962,"lat":41.803077,"amap_id":"B0L0D7NURN","order":54,"prev_distance_km":0.567,"cumulative_distance_km":42.666,"amap_marker_url":"https://uri.amap.com/marker?position=123.370962,41.803077&name=%E5%AE%A0%E7%89%A9%E8%87%AA%E5%8A%A9%E6%B4%97%E6%8A%A4&src=vetmap&coordinate=gaode&callnative=1"},{"name":"爱佳动物门诊(24小时门诊)","address":"北三中路5门7号","phone":"15124298187","category":"医疗保健服务;动物医疗场所;宠物诊所","area":"贵和","lng":123.371926,"lat":41.804021,"amap_id":"B0IR3ZJU1P","order":55,"prev_distance_km":0.132,"cumulative_distance_km":42.798,"amap_marker_url":"https://uri.amap.com/marker?position=123.371926,41.804021&name=%E7%88%B1%E4%BD%B3%E5%8A%A8%E7%89%A9%E9%97%A8%E8%AF%8A%2824%E5%B0%8F%E6%97%B6%E9%97%A8%E8%AF%8A%29&src=vetmap&coordinate=gaode&callnative=1"},{"name":"歪歪动物医院","address":"贵和街4号1门","phone":"18686713044","category":"医疗保健服务;动物医疗场所;宠物诊所","area":"贵和","lng":123.373123,"lat":41.801589,"amap_id":"B0FFIUOCBV","order":56,"prev_distance_km":0.288,"cumulative_distance_km":43.086,"amap_marker_url":"https://uri.amap.com/marker?position=123.373123,41.801589&name=%E6%AD%AA%E6%AD%AA%E5%8A%A8%E7%89%A9%E5%8C%BB%E9%99%A2&src=vetmap&coordinate=gaode&callnative=1"},{"name":"沈阳市辰星宠物门诊","address":"北三东路15甲2门","phone":"15545652060","category":"医疗保健服务;动物医疗场所;宠物诊所","area":"兴华","lng":123.380903,"lat":41.800286,"amap_id":"B0FFIF1DKL","order":57,"prev_distance_km":0.661,"cumulative_distance_km":43.747,"amap_marker_url":"https://uri.amap.com/marker?position=123.380903,41.800286&name=%E6%B2%88%E9%98%B3%E5%B8%82%E8%BE%B0%E6%98%9F%E5%AE%A0%E7%89%A9%E9%97%A8%E8%AF%8A&src=vetmap&coordinate=gaode&callnative=1"},{"name":"爱娃宠物诊所","address":"北三东路9-7号1门(云峰北街地铁站D口步行370米)","phone":"024-25673732;13238811681","category":"医疗保健服务;动物医疗场所;宠物诊所","area":"兴工","lng":123.383947,"lat":41.797666,"amap_id":"B0FFJX89OV","order":58,"prev_distance_km":0.385,"cumulative_distance_km":44.133,"amap_marker_url":"https://uri.amap.com/marker?position=123.383947,41.797666&name=%E7%88%B1%E5%A8%83%E5%AE%A0%E7%89%A9%E8%AF%8A%E6%89%80&src=vetmap&coordinate=gaode&callnative=1"},{"name":"玉康动物医院(春城小院店)","address":"爱工北街24-1号15门","phone":"024-25680413;15998299900","category":"医疗保健服务;动物医疗场所;宠物诊所","area":"兴工","lng":123.382327,"lat":41.794971,"amap_id":"B00181695B","order":59,"prev_distance_km":0.328,"cumulative_distance_km":44.461,"amap_marker_url":"https://uri.amap.com/marker?position=123.382327,41.794971&name=%E7%8E%89%E5%BA%B7%E5%8A%A8%E7%89%A9%E5%8C%BB%E9%99%A2%28%E6%98%A5%E5%9F%8E%E5%B0%8F%E9%99%A2%E5%BA%97%29&src=vetmap&coordinate=gaode&callnative=1"},{"name":"东清宠物医院-CT核磁-产科-转诊中心24小时","address":"建设东路43号和谐大厦F1层","phone":"15640106269","category":"医疗保健服务;动物医疗场所;宠物诊所","area":"兴工","lng":123.379155,"lat":41.790332,"amap_id":"B0FFIT05EF","order":60,"prev_distance_km":0.579,"cumulative_distance_km":45.04,"amap_marker_url":"https://uri.amap.com/marker?position=123.379155,41.790332&name=%E4%B8%9C%E6%B8%85%E5%AE%A0%E7%89%A9%E5%8C%BB%E9%99%A2-CT%E6%A0%B8%E7%A3%81-%E4%BA%A7%E7%A7%91-%E8%BD%AC%E8%AF%8A%E4%B8%AD%E5%BF%8324%E5%B0%8F%E6%97%B6&src=vetmap&coordinate=gaode&callnative=1"},{"name":"康康的宠物店(和谐大厦店)","address":"小五路与爱工南街交叉口东北50米","phone":"15104030009","category":"医疗保健服务;动物医疗场所;宠物诊所","area":"兴工","lng":123.378911,"lat":41.789877,"amap_id":"B0FFFA93SY","order":61,"prev_distance_km":0.054,"cumulative_distance_km":45.095,"amap_marker_url":"https://uri.amap.com/marker?position=123.378911,41.789877&name=%E5%BA%B7%E5%BA%B7%E7%9A%84%E5%AE%A0%E7%89%A9%E5%BA%97%28%E5%92%8C%E8%B0%90%E5%A4%A7%E5%8E%A6%E5%BA%97%29&src=vetmap&coordinate=gaode&callnative=1"},{"name":"安格斯动物医院·异宠·猫友好·微创转诊中心","address":"建设东路49号1门","phone":"13284265120","category":"医疗保健服务;动物医疗场所;宠物诊所","area":"兴工","lng":123.377899,"lat":41.790635,"amap_id":"B0IU7PGJIV","order":62,"prev_distance_km":0.119,"cumulative_distance_km":45.213,"amap_marker_url":"https://uri.amap.com/marker?position=123.377899,41.790635&name=%E5%AE%89%E6%A0%BC%E6%96%AF%E5%8A%A8%E7%89%A9%E5%8C%BB%E9%99%A2%C2%B7%E5%BC%82%E5%AE%A0%C2%B7%E7%8C%AB%E5%8F%8B%E5%A5%BD%C2%B7%E5%BE%AE%E5%88%9B%E8%BD%AC%E8%AF%8A%E4%B8%AD%E5%BF%83&src=vetmap&coordinate=gaode&callnative=1"},{"name":"菲雅宠物医院·24小时·夜诊·急重症","address":"南六东路17号1门","phone":"13889270986","category":"医疗保健服务;动物医疗场所;宠物诊所","area":"兴工","lng":123.376153,"lat":41.789331,"amap_id":"B0LGNLWP54","order":63,"prev_distance_km":0.205,"cumulative_distance_km":45.418,"amap_marker_url":"https://uri.amap.com/marker?position=123.376153,41.789331&name=%E8%8F%B2%E9%9B%85%E5%AE%A0%E7%89%A9%E5%8C%BB%E9%99%A2%C2%B724%E5%B0%8F%E6%97%B6%C2%B7%E5%A4%9C%E8%AF%8A%C2%B7%E6%80%A5%E9%87%8D%E7%97%87&src=vetmap&coordinate=gaode&callnative=1"},{"name":"康达宠物诊所","address":"化工南里东门旁","phone":"18202484003","category":"医疗保健服务;动物医疗场所;宠物诊所","area":"兴工","lng":123.380145,"lat":41.786793,"amap_id":"B0KGNDZJL1","order":64,"prev_distance_km":0.435,"cumulative_distance_km":45.853,"amap_marker_url":"https://uri.amap.com/marker?position=123.380145,41.786793&name=%E5%BA%B7%E8%BE%BE%E5%AE%A0%E7%89%A9%E8%AF%8A%E6%89%80&src=vetmap&coordinate=gaode&callnative=1"},{"name":"宠颐生动物医院·24小时转诊中心·CT核磁·医保(沈阳中心)","address":"建设东路58甲号3门4门","phone":"024-31506091;024-31506092","category":"医疗保健服务;动物医疗场所;宠物诊所","area":"兴工","lng":123.38212,"lat":41.789725,"amap_id":"B0IGNMXR7N","order":65,"prev_distance_km":0.365,"cumulative_distance_km":46.218,"amap_marker_url":"https://uri.amap.com/marker?position=123.382120,41.789725&name=%E5%AE%A0%E9%A2%90%E7%94%9F%E5%8A%A8%E7%89%A9%E5%8C%BB%E9%99%A2%C2%B724%E5%B0%8F%E6%97%B6%E8%BD%AC%E8%AF%8A%E4%B8%AD%E5%BF%83%C2%B7CT%E6%A0%B8%E7%A3%81%C2%B7%E5%8C%BB%E4%BF%9D%28%E6%B2%88%E9%98%B3%E4%B8%AD%E5%BF%83%29&src=vetmap&coordinate=gaode&callnative=1"},{"name":"小爪爪动物医院","address":"应昌街9-2号6门(铁西广场地铁站C口步行360米)","phone":"15541932054","category":"医疗保健服务;动物医疗场所;宠物诊所","area":"兴华","lng":123.374337,"lat":41.794557,"amap_id":"B0K0ZZZ2UU","order":66,"prev_distance_km":0.84,"cumulative_distance_km":47.058,"amap_marker_url":"https://uri.amap.com/marker?position=123.374337,41.794557&name=%E5%B0%8F%E7%88%AA%E7%88%AA%E5%8A%A8%E7%89%A9%E5%8C%BB%E9%99%A2&src=vetmap&coordinate=gaode&callnative=1"},{"name":"赛铭宠业","address":"南九东路17-号楼(兴华公园地铁站B口步行160米)","phone":"15640402166","category":"医疗保健服务;动物医疗场所;动物医疗场所","area":"兴华","lng":123.365471,"lat":41.786109,"amap_id":"B0LKHDQDUS","order":67,"prev_distance_km":1.193,"cumulative_distance_km":48.251,"amap_marker_url":"https://uri.amap.com/marker?position=123.365471,41.786109&name=%E8%B5%9B%E9%93%AD%E5%AE%A0%E4%B8%9A&src=vetmap&coordinate=gaode&callnative=1"},{"name":"宠源动物医院·眼科·微创外科·疑难内科","address":"都城大厦B座东南门旁(兴华公园地铁站口步行250米)","phone":"024-82254166","category":"医疗保健服务;动物医疗场所;宠物诊所","area":"兴华","lng":123.36377,"lat":41.785348,"amap_id":"B0IRASW5FP","order":68,"prev_distance_km":0.164,"cumulative_distance_km":48.415,"amap_marker_url":"https://uri.amap.com/marker?position=123.363770,41.785348&name=%E5%AE%A0%E6%BA%90%E5%8A%A8%E7%89%A9%E5%8C%BB%E9%99%A2%C2%B7%E7%9C%BC%E7%A7%91%C2%B7%E5%BE%AE%E5%88%9B%E5%A4%96%E7%A7%91%C2%B7%E7%96%91%E9%9A%BE%E5%86%85%E7%A7%91&src=vetmap&coordinate=gaode&callnative=1"},{"name":"瑞派宠物医院·沈阳铁西店","address":"沈辽东路47-1号","phone":"024-25913737;18524244403","category":"医疗保健服务;动物医疗场所;宠物诊所","area":"沈辽路万达","lng":123.371005,"lat":41.78186,"amap_id":"B0IULUR62W","order":69,"prev_distance_km":0.714,"cumulative_distance_km":49.129,"amap_marker_url":"https://uri.amap.com/marker?position=123.371005,41.781860&name=%E7%91%9E%E6%B4%BE%E5%AE%A0%E7%89%A9%E5%8C%BB%E9%99%A2%C2%B7%E6%B2%88%E9%98%B3%E9%93%81%E8%A5%BF%E5%BA%97&src=vetmap&coordinate=gaode&callnative=1"},{"name":"曼特滔博宠物洗护专门店","address":"凌空二街2号诗波特生活园","phone":"15502448760","category":"医疗保健服务;动物医疗场所;动物医疗场所","area":"凌空","lng":123.378235,"lat":41.779398,"amap_id":"B0FFKV9OB4","order":70,"prev_distance_km":0.659,"cumulative_distance_km":49.788,"amap_marker_url":"https://uri.amap.com/marker?position=123.378235,41.779398&name=%E6%9B%BC%E7%89%B9%E6%BB%94%E5%8D%9A%E5%AE%A0%E7%89%A9%E6%B4%97%E6%8A%A4%E4%B8%93%E9%97%A8%E5%BA%97&src=vetmap&coordinate=gaode&callnative=1"},{"name":"贵和宠物医院","address":"建设中路55号15-17(保工街地铁站A口步行490米)","phone":"024-25607806;13644044560","category":"医疗保健服务;动物医疗场所;宠物诊所","area":"兴华","lng":123.36042,"lat":41.798225,"amap_id":"B0FFHTO8CA","order":71,"prev_distance_km":2.562,"cumulative_distance_km":52.35,"amap_marker_url":"https://uri.amap.com/marker?position=123.360420,41.798225&name=%E8%B4%B5%E5%92%8C%E5%AE%A0%E7%89%A9%E5%8C%BB%E9%99%A2&src=vetmap&coordinate=gaode&callnative=1"},{"name":"猫科中心","address":"浅草绿阁六期西门东北100米","phone":"","category":"医疗保健服务;动物医疗场所;宠物诊所","area":"兴华","lng":123.373082,"lat":41.80774,"amap_id":"B0I25RIJYX","order":72,"prev_distance_km":1.49,"cumulative_distance_km":53.841,"amap_marker_url":"https://uri.amap.com/marker?position=123.373082,41.807740&name=%E7%8C%AB%E7%A7%91%E4%B8%AD%E5%BF%83&src=vetmap&coordinate=gaode&callnative=1"},{"name":"手心喵动物医院","address":"北二中路7号甲1号","phone":"024-22923120;15640488120","category":"医疗保健服务;动物医疗场所;宠物诊所","area":"兴华","lng":123.373122,"lat":41.80775,"amap_id":"B0IUC71OPA","order":73,"prev_distance_km":0.003,"cumulative_distance_km":53.844,"amap_marker_url":"https://uri.amap.com/marker?position=123.373122,41.807750&name=%E6%89%8B%E5%BF%83%E5%96%B5%E5%8A%A8%E7%89%A9%E5%8C%BB%E9%99%A2&src=vetmap&coordinate=gaode&callnative=1"},{"name":"美加宠美工作室","address":"小北二东路与应昌街交叉口东140米","phone":"","category":"医疗保健服务;动物医疗场所;动物医疗场所","area":"兴华","lng":123.382225,"lat":41.803625,"amap_id":"B0M61HHXZY","order":74,"prev_distance_km":0.883,"cumulative_distance_km":54.727,"amap_marker_url":"https://uri.amap.com/marker?position=123.382225,41.803625&name=%E7%BE%8E%E5%8A%A0%E5%AE%A0%E7%BE%8E%E5%B7%A5%E4%BD%9C%E5%AE%A4&src=vetmap&coordinate=gaode&callnative=1"},{"name":"昕安宠物医院(鑫丰国际店)","address":"云峰北街2-2号4门","phone":"13840229428","category":"医疗保健服务;动物医疗场所;宠物诊所","area":"兴华","lng":123.386225,"lat":41.804475,"amap_id":"B0L1H1YFJT","order":75,"prev_distance_km":0.345,"cumulative_distance_km":55.072,"amap_marker_url":"https://uri.amap.com/marker?position=123.386225,41.804475&name=%E6%98%95%E5%AE%89%E5%AE%A0%E7%89%A9%E5%8C%BB%E9%99%A2%28%E9%91%AB%E4%B8%B0%E5%9B%BD%E9%99%85%E5%BA%97%29&src=vetmap&coordinate=gaode&callnative=1"},{"name":"怡合动物(新湖中国印象店)","address":"虹桥路34-8号6门","phone":"024-31338388;13358889596;15566118155;18040025453","category":"医疗保健服务;动物医疗场所;宠物诊所","area":"兴华","lng":123.387112,"lat":41.807289,"amap_id":"B00181EP5S","order":76,"prev_distance_km":0.321,"cumulative_distance_km":55.393,"amap_marker_url":"https://uri.amap.com/marker?position=123.387112,41.807289&name=%E6%80%A1%E5%90%88%E5%8A%A8%E7%89%A9%28%E6%96%B0%E6%B9%96%E4%B8%AD%E5%9B%BD%E5%8D%B0%E8%B1%A1%E5%BA%97%29&src=vetmap&coordinate=gaode&callnative=1"},{"name":"望康动物医院有限公司(铁西分院)","address":"新湖中国印象东2门旁","phone":"","category":"医疗保健服务;动物医疗场所;宠物诊所","area":"兴华","lng":123.387149,"lat":41.807938,"amap_id":"B0LDLNIDCQ","order":77,"prev_distance_km":0.072,"cumulative_distance_km":55.466,"amap_marker_url":"https://uri.amap.com/marker?position=123.387149,41.807938&name=%E6%9C%9B%E5%BA%B7%E5%8A%A8%E7%89%A9%E5%8C%BB%E9%99%A2%E6%9C%89%E9%99%90%E5%85%AC%E5%8F%B8%28%E9%93%81%E8%A5%BF%E5%88%86%E9%99%A2%29&src=vetmap&coordinate=gaode&callnative=1"},{"name":"北京全心全意·沈阳分院","address":"云峰北街虹桥路34-125门","phone":"17074036969","category":"医疗保健服务;动物医疗场所;宠物诊所","area":"兴华","lng":123.38714,"lat":41.807973,"amap_id":"B0FFK2JPKD","order":78,"prev_distance_km":0.004,"cumulative_distance_km":55.47,"amap_marker_url":"https://uri.amap.com/marker?position=123.387140,41.807973&name=%E5%8C%97%E4%BA%AC%E5%85%A8%E5%BF%83%E5%85%A8%E6%84%8F%C2%B7%E6%B2%88%E9%98%B3%E5%88%86%E9%99%A2&src=vetmap&coordinate=gaode&callnative=1"},{"name":"宠颐生24H动物医院(星华分院)","address":"兴华北街5号4门(新湖明珠城西门旁)","phone":"024-81309823;18640426406","category":"医疗保健服务;动物医疗场所;宠物诊所","area":"霁虹","lng":123.38424,"lat":41.811136,"amap_id":"B0J63A2I8L","order":79,"prev_distance_km":0.426,"cumulative_distance_km":55.896,"amap_marker_url":"https://uri.amap.com/marker?position=123.384240,41.811136&name=%E5%AE%A0%E9%A2%90%E7%94%9F24H%E5%8A%A8%E7%89%A9%E5%8C%BB%E9%99%A2%28%E6%98%9F%E5%8D%8E%E5%88%86%E9%99%A2%29&src=vetmap&coordinate=gaode&callnative=1"},{"name":"金蟾宠美","address":"爱工北街9-1号17门(金蟾宠美)","phone":"15204057132","category":"医疗保健服务;动物医疗场所;宠物诊所","area":"霁虹","lng":123.390407,"lat":41.802707,"amap_id":"B0JA7CZOFY","order":80,"prev_distance_km":1.068,"cumulative_distance_km":56.963,"amap_marker_url":"https://uri.amap.com/marker?position=123.390407,41.802707&name=%E9%87%91%E8%9F%BE%E5%AE%A0%E7%BE%8E&src=vetmap&coordinate=gaode&callnative=1"},{"name":"宝娃宠物(铁西店)","address":"晋斯华庭东南1门旁","phone":"13516041288","category":"医疗保健服务;动物医疗场所;动物医疗场所","area":"兴工","lng":123.39775,"lat":41.803931,"amap_id":"B0KDPR8FDA","order":81,"prev_distance_km":0.624,"cumulative_distance_km":57.587,"amap_marker_url":"https://uri.amap.com/marker?position=123.397750,41.803931&name=%E5%AE%9D%E5%A8%83%E5%AE%A0%E7%89%A9%28%E9%93%81%E8%A5%BF%E5%BA%97%29&src=vetmap&coordinate=gaode&callnative=1"}]}