{"summary":{"id":"d01719","province":"辽宁省","city":"沈阳市","district":"沈河区","count":37,"total_distance_km":27.058,"coordinate_system":"GCJ-02 / Amap","generated_at":"2026-05-07 19:58:27"},"rows":[{"name":"派美特沈农禾丰动物医院·神经外科·骨科·核磁·CT","address":"东陵路141号","phone":"024-88420305;15640458905","category":"医疗保健服务;动物医疗场所;宠物诊所","area":"","lng":123.565752,"lat":41.820772,"amap_id":"B0FFHD74OE","order":1,"prev_distance_km":0.0,"cumulative_distance_km":0.0,"amap_marker_url":"https://uri.amap.com/marker?position=123.565752,41.820772&name=%E6%B4%BE%E7%BE%8E%E7%89%B9%E6%B2%88%E5%86%9C%E7%A6%BE%E4%B8%B0%E5%8A%A8%E7%89%A9%E5%8C%BB%E9%99%A2%C2%B7%E7%A5%9E%E7%BB%8F%E5%A4%96%E7%A7%91%C2%B7%E9%AA%A8%E7%A7%91%C2%B7%E6%A0%B8%E7%A3%81%C2%B7CT&src=vetmap&coordinate=gaode&callnative=1"},{"name":"沈农禾丰动物医院住院部","address":"东陵路与神农路交叉口东南100米","phone":"","category":"医疗保健服务;动物医疗场所;宠物诊所","area":"","lng":123.565598,"lat":41.821018,"amap_id":"B0K1FNMI6V","order":2,"prev_distance_km":0.03,"cumulative_distance_km":0.03,"amap_marker_url":"https://uri.amap.com/marker?position=123.565598,41.821018&name=%E6%B2%88%E5%86%9C%E7%A6%BE%E4%B8%B0%E5%8A%A8%E7%89%A9%E5%8C%BB%E9%99%A2%E4%BD%8F%E9%99%A2%E9%83%A8&src=vetmap&coordinate=gaode&callnative=1"},{"name":"沈阳农业大学兽医院","address":"东陵路120号沈阳农业大学","phone":"","category":"医疗保健服务;动物医疗场所;兽医站","area":"","lng":123.565511,"lat":41.821022,"amap_id":"B0FFHKUGQ0","order":3,"prev_distance_km":0.007,"cumulative_distance_km":0.037,"amap_marker_url":"https://uri.amap.com/marker?position=123.565511,41.821022&name=%E6%B2%88%E9%98%B3%E5%86%9C%E4%B8%9A%E5%A4%A7%E5%AD%A6%E5%85%BD%E5%8C%BB%E9%99%A2&src=vetmap&coordinate=gaode&callnative=1"},{"name":"瑞派宠物医院(沈阳保利分院)","address":"新宁街5号8门(新宁街地铁站C2口步行160米)","phone":"13840040537;15840456857","category":"医疗保健服务;动物医疗场所;宠物诊所","area":"东陵路","lng":123.533505,"lat":41.812422,"amap_id":"B0IRD4GW2U","order":4,"prev_distance_km":2.82,"cumulative_distance_km":2.857,"amap_marker_url":"https://uri.amap.com/marker?position=123.533505,41.812422&name=%E7%91%9E%E6%B4%BE%E5%AE%A0%E7%89%A9%E5%8C%BB%E9%99%A2%28%E6%B2%88%E9%98%B3%E4%BF%9D%E5%88%A9%E5%88%86%E9%99%A2%29&src=vetmap&coordinate=gaode&callnative=1"},{"name":"安馨宠物医院","address":"东贸路77甲-2号6门","phone":"18241375548","category":"医疗保健服务;动物医疗场所;宠物诊所","area":"东陵路","lng":123.525908,"lat":41.82146,"amap_id":"B0JK5HCBA1","order":5,"prev_distance_km":1.186,"cumulative_distance_km":4.043,"amap_marker_url":"https://uri.amap.com/marker?position=123.525908,41.821460&name=%E5%AE%89%E9%A6%A8%E5%AE%A0%E7%89%A9%E5%8C%BB%E9%99%A2&src=vetmap&coordinate=gaode&callnative=1"},{"name":"嘉和宠物诊疗中心","address":"东陵路18甲103号8门","phone":"15640085765","category":"医疗保健服务;动物医疗场所;宠物诊所","area":"东陵路","lng":123.521158,"lat":41.820129,"amap_id":"B0J6ZAJ3GZ","order":6,"prev_distance_km":0.421,"cumulative_distance_km":4.463,"amap_marker_url":"https://uri.amap.com/marker?position=123.521158,41.820129&name=%E5%98%89%E5%92%8C%E5%AE%A0%E7%89%A9%E8%AF%8A%E7%96%97%E4%B8%AD%E5%BF%83&src=vetmap&coordinate=gaode&callnative=1"},{"name":"博瑞宠物诊所","address":"东陵路18甲-15号2门博瑞宠物诊所","phone":"15140069820","category":"医疗保健服务;动物医疗场所;宠物诊所","area":"东陵路","lng":123.525273,"lat":41.815394,"amap_id":"B0FFJ29J9D","order":7,"prev_distance_km":0.627,"cumulative_distance_km":5.091,"amap_marker_url":"https://uri.amap.com/marker?position=123.525273,41.815394&name=%E5%8D%9A%E7%91%9E%E5%AE%A0%E7%89%A9%E8%AF%8A%E6%89%80&src=vetmap&coordinate=gaode&callnative=1"},{"name":"宠颐生24小时动物医院(东贸分院)","address":"东陵路28-11号4门","phone":"024-22566661;17696617861","category":"医疗保健服务;动物医疗场所;宠物诊所","area":"东陵路","lng":123.526268,"lat":41.815664,"amap_id":"B0G3FUIUN5","order":8,"prev_distance_km":0.088,"cumulative_distance_km":5.178,"amap_marker_url":"https://uri.amap.com/marker?position=123.526268,41.815664&name=%E5%AE%A0%E9%A2%90%E7%94%9F24%E5%B0%8F%E6%97%B6%E5%8A%A8%E7%89%A9%E5%8C%BB%E9%99%A2%28%E4%B8%9C%E8%B4%B8%E5%88%86%E9%99%A2%29&src=vetmap&coordinate=gaode&callnative=1"},{"name":"华康宠物医院","address":"保利·海棠花园2期","phone":"18202443455","category":"医疗保健服务;动物医疗场所;宠物诊所","area":"东陵路","lng":123.527302,"lat":41.81163,"amap_id":"B0FFI7VAOR","order":9,"prev_distance_km":0.457,"cumulative_distance_km":5.635,"amap_marker_url":"https://uri.amap.com/marker?position=123.527302,41.811630&name=%E5%8D%8E%E5%BA%B7%E5%AE%A0%E7%89%A9%E5%8C%BB%E9%99%A2&src=vetmap&coordinate=gaode&callnative=1"},{"name":"沈阳佳宠动物诊疗中心","address":"东陵路3-25号4门","phone":"18640193600","category":"医疗保健服务;动物医疗场所;宠物诊所","area":"东陵路","lng":123.523572,"lat":41.809874,"amap_id":"B0GDHC1PW4","order":10,"prev_distance_km":0.366,"cumulative_distance_km":6.001,"amap_marker_url":"https://uri.amap.com/marker?position=123.523572,41.809874&name=%E6%B2%88%E9%98%B3%E4%BD%B3%E5%AE%A0%E5%8A%A8%E7%89%A9%E8%AF%8A%E7%96%97%E4%B8%AD%E5%BF%83&src=vetmap&coordinate=gaode&callnative=1"},{"name":"动物医院","address":"新惠街与新立堡西路交叉口南160米","phone":"","category":"医疗保健服务;动物医疗场所;宠物诊所","area":"东塔","lng":123.521018,"lat":41.808464,"amap_id":"B0I21AQEF4","order":11,"prev_distance_km":0.263,"cumulative_distance_km":6.264,"amap_marker_url":"https://uri.amap.com/marker?position=123.521018,41.808464&name=%E5%8A%A8%E7%89%A9%E5%8C%BB%E9%99%A2&src=vetmap&coordinate=gaode&callnative=1"},{"name":"派美特宠物医院农大附属店·牙科·皮肤科","address":"和睦路106-6号","phone":"15542200202","category":"医疗保健服务;动物医疗场所;宠物诊所","area":"东塔","lng":123.521045,"lat":41.808442,"amap_id":"B0HDFHI0XT","order":12,"prev_distance_km":0.003,"cumulative_distance_km":6.267,"amap_marker_url":"https://uri.amap.com/marker?position=123.521045,41.808442&name=%E6%B4%BE%E7%BE%8E%E7%89%B9%E5%AE%A0%E7%89%A9%E5%8C%BB%E9%99%A2%E5%86%9C%E5%A4%A7%E9%99%84%E5%B1%9E%E5%BA%97%C2%B7%E7%89%99%E7%A7%91%C2%B7%E7%9A%AE%E8%82%A4%E7%A7%91&src=vetmap&coordinate=gaode&callnative=1"},{"name":"Mercy Pet宠物美容工作室","address":"方圆街7号楼9门","phone":"15164222885","category":"医疗保健服务;动物医疗场所;动物医疗场所","area":"","lng":123.504864,"lat":41.78063,"amap_id":"B0LR5CAWBP","order":13,"prev_distance_km":3.371,"cumulative_distance_km":9.638,"amap_marker_url":"https://uri.amap.com/marker?position=123.504864,41.780630&name=Mercy%20Pet%E5%AE%A0%E7%89%A9%E7%BE%8E%E5%AE%B9%E5%B7%A5%E4%BD%9C%E5%AE%A4&src=vetmap&coordinate=gaode&callnative=1"},{"name":"凌零动物诊疗中心","address":"方家栏路与方圆街交叉口东180米","phone":"13555714895","category":"医疗保健服务;动物医疗场所;宠物诊所","area":"","lng":123.51155,"lat":41.775813,"amap_id":"B0H25ALLU1","order":14,"prev_distance_km":0.771,"cumulative_distance_km":10.409,"amap_marker_url":"https://uri.amap.com/marker?position=123.511550,41.775813&name=%E5%87%8C%E9%9B%B6%E5%8A%A8%E7%89%A9%E8%AF%8A%E7%96%97%E4%B8%AD%E5%BF%83&src=vetmap&coordinate=gaode&callnative=1"},{"name":"方清动物医院","address":"长清街道和泰东方家园149-12号5门","phone":"15712428086","category":"医疗保健服务;动物医疗场所;宠物诊所","area":"长青","lng":123.495002,"lat":41.763162,"amap_id":"B0LRPHRBT9","order":15,"prev_distance_km":1.965,"cumulative_distance_km":12.375,"amap_marker_url":"https://uri.amap.com/marker?position=123.495002,41.763162&name=%E6%96%B9%E6%B8%85%E5%8A%A8%E7%89%A9%E5%8C%BB%E9%99%A2&src=vetmap&coordinate=gaode&callnative=1"},{"name":"优湃宠物医院","address":"长青街149-12号3甲","phone":"024-82574845;13134241660","category":"医疗保健服务;动物医疗场所;宠物诊所","area":"长青","lng":123.494961,"lat":41.763346,"amap_id":"B0H0CZVJ6P","order":16,"prev_distance_km":0.021,"cumulative_distance_km":12.395,"amap_marker_url":"https://uri.amap.com/marker?position=123.494961,41.763346&name=%E4%BC%98%E6%B9%83%E5%AE%A0%E7%89%A9%E5%8C%BB%E9%99%A2&src=vetmap&coordinate=gaode&callnative=1"},{"name":"沈阳市东陵区兽医卫生站","address":"长青街109号(江东街地铁站A口步行220米)","phone":"","category":"医疗保健服务;动物医疗场所;兽医站","area":"长青","lng":123.485951,"lat":41.771449,"amap_id":"B0FFHI65NR","order":17,"prev_distance_km":1.171,"cumulative_distance_km":13.566,"amap_marker_url":"https://uri.amap.com/marker?position=123.485951,41.771449&name=%E6%B2%88%E9%98%B3%E5%B8%82%E4%B8%9C%E9%99%B5%E5%8C%BA%E5%85%BD%E5%8C%BB%E5%8D%AB%E7%94%9F%E7%AB%99&src=vetmap&coordinate=gaode&callnative=1"},{"name":"沈阳市浑南区兽医协会动物门诊","address":"爱民社区23、31号楼西门旁","phone":"024-24821697","category":"医疗保健服务;动物医疗场所;兽医站","area":"长青","lng":123.480358,"lat":41.770631,"amap_id":"B0G1JS6RMK","order":18,"prev_distance_km":0.473,"cumulative_distance_km":14.039,"amap_marker_url":"https://uri.amap.com/marker?position=123.480358,41.770631&name=%E6%B2%88%E9%98%B3%E5%B8%82%E6%B5%91%E5%8D%97%E5%8C%BA%E5%85%BD%E5%8C%BB%E5%8D%8F%E4%BC%9A%E5%8A%A8%E7%89%A9%E9%97%A8%E8%AF%8A&src=vetmap&coordinate=gaode&callnative=1"},{"name":"派美特宠物医院泉园店","address":"泉园二路14号3门","phone":"024-24221112","category":"医疗保健服务;动物医疗场所;宠物诊所","area":"长青","lng":123.47458,"lat":41.772101,"amap_id":"B0FFIPFZ9P","order":19,"prev_distance_km":0.506,"cumulative_distance_km":14.545,"amap_marker_url":"https://uri.amap.com/marker?position=123.474580,41.772101&name=%E6%B4%BE%E7%BE%8E%E7%89%B9%E5%AE%A0%E7%89%A9%E5%8C%BB%E9%99%A2%E6%B3%89%E5%9B%AD%E5%BA%97&src=vetmap&coordinate=gaode&callnative=1"},{"name":"哈宠盛世动物诊所","address":"南塔街道豪轩居","phone":"","category":"医疗保健服务;动物医疗场所;宠物诊所","area":"五三","lng":123.473619,"lat":41.765827,"amap_id":"B0L6FZED28","order":20,"prev_distance_km":0.702,"cumulative_distance_km":15.247,"amap_marker_url":"https://uri.amap.com/marker?position=123.473619,41.765827&name=%E5%93%88%E5%AE%A0%E7%9B%9B%E4%B8%96%E5%8A%A8%E7%89%A9%E8%AF%8A%E6%89%80&src=vetmap&coordinate=gaode&callnative=1"},{"name":"辽宁省动物疫病预防控制中心","address":"文富北路与万柳塘路辅路交叉口东20米","phone":"","category":"医疗保健服务;动物医疗场所;动物医疗场所","area":"泉园","lng":123.461535,"lat":41.773023,"amap_id":"B0K3UHWE5C","order":21,"prev_distance_km":1.282,"cumulative_distance_km":16.529,"amap_marker_url":"https://uri.amap.com/marker?position=123.461535,41.773023&name=%E8%BE%BD%E5%AE%81%E7%9C%81%E5%8A%A8%E7%89%A9%E7%96%AB%E7%97%85%E9%A2%84%E9%98%B2%E6%8E%A7%E5%88%B6%E4%B8%AD%E5%BF%83&src=vetmap&coordinate=gaode&callnative=1"},{"name":"宠康宠物医院","address":"南塔街64号","phone":"13898790043","category":"医疗保健服务;动物医疗场所;宠物诊所","area":"五三","lng":123.450863,"lat":41.767345,"amap_id":"B0M6XZOM5V","order":22,"prev_distance_km":1.087,"cumulative_distance_km":17.617,"amap_marker_url":"https://uri.amap.com/marker?position=123.450863,41.767345&name=%E5%AE%A0%E5%BA%B7%E5%AE%A0%E7%89%A9%E5%8C%BB%E9%99%A2&src=vetmap&coordinate=gaode&callnative=1"},{"name":"伴侣动物医院(文化路店)","address":"大南街429号9门","phone":"024-24138579;024-24147579","category":"医疗保健服务;动物医疗场所;宠物诊所","area":"五三","lng":123.455463,"lat":41.773511,"amap_id":"B0J66AX2GB","order":23,"prev_distance_km":0.785,"cumulative_distance_km":18.401,"amap_marker_url":"https://uri.amap.com/marker?position=123.455463,41.773511&name=%E4%BC%B4%E4%BE%A3%E5%8A%A8%E7%89%A9%E5%8C%BB%E9%99%A2%28%E6%96%87%E5%8C%96%E8%B7%AF%E5%BA%97%29&src=vetmap&coordinate=gaode&callnative=1"},{"name":"ThankU·谢谢你动物医院(省人民医院店)","address":"滨河街道大南街399号","phone":"024-22965584","category":"医疗保健服务;动物医疗场所;宠物诊所","area":"滨河","lng":123.455999,"lat":41.774839,"amap_id":"B0L65YB717","order":24,"prev_distance_km":0.154,"cumulative_distance_km":18.555,"amap_marker_url":"https://uri.amap.com/marker?position=123.455999,41.774839&name=ThankU%C2%B7%E8%B0%A2%E8%B0%A2%E4%BD%A0%E5%8A%A8%E7%89%A9%E5%8C%BB%E9%99%A2%28%E7%9C%81%E4%BA%BA%E6%B0%91%E5%8C%BB%E9%99%A2%E5%BA%97%29&src=vetmap&coordinate=gaode&callnative=1"},{"name":"久愿动物医院","address":"大南街(省医院东门斜对面)","phone":"18512486342;4000120121","category":"医疗保健服务;动物医疗场所;宠物诊所","area":"大南/大南街","lng":123.455948,"lat":41.774835,"amap_id":"B0I2GN02HQ","order":25,"prev_distance_km":0.004,"cumulative_distance_km":18.56,"amap_marker_url":"https://uri.amap.com/marker?position=123.455948,41.774835&name=%E4%B9%85%E6%84%BF%E5%8A%A8%E7%89%A9%E5%8C%BB%E9%99%A2&src=vetmap&coordinate=gaode&callnative=1"},{"name":"宠信动物诊所","address":"小南街271号甲3号","phone":"15802490670","category":"医疗保健服务;动物医疗场所;宠物诊所","area":"大南","lng":123.450361,"lat":41.779332,"amap_id":"B0FFIS0T87","order":26,"prev_distance_km":0.682,"cumulative_distance_km":19.241,"amap_marker_url":"https://uri.amap.com/marker?position=123.450361,41.779332&name=%E5%AE%A0%E4%BF%A1%E5%8A%A8%E7%89%A9%E8%AF%8A%E6%89%80&src=vetmap&coordinate=gaode&callnative=1"},{"name":"宠爱有家宠物诊所","address":"南关路40号","phone":"13252853648","category":"医疗保健服务;动物医疗场所;宠物诊所","area":"风雨坛","lng":123.448337,"lat":41.781638,"amap_id":"B0FFJCT443","order":27,"prev_distance_km":0.306,"cumulative_distance_km":19.548,"amap_marker_url":"https://uri.amap.com/marker?position=123.448337,41.781638&name=%E5%AE%A0%E7%88%B1%E6%9C%89%E5%AE%B6%E5%AE%A0%E7%89%A9%E8%AF%8A%E6%89%80&src=vetmap&coordinate=gaode&callnative=1"},{"name":"宠济安动物诊疗中心内科.猫科.外科","address":"十三纬路70号东侧","phone":"024-81020177;13130244896;18102439820","category":"医疗保健服务;动物医疗场所;宠物诊所","area":"沈阳金融商贸经济技术开发区","lng":123.428842,"lat":41.786334,"amap_id":"B0FFI12RQG","order":28,"prev_distance_km":1.699,"cumulative_distance_km":21.246,"amap_marker_url":"https://uri.amap.com/marker?position=123.428842,41.786334&name=%E5%AE%A0%E6%B5%8E%E5%AE%89%E5%8A%A8%E7%89%A9%E8%AF%8A%E7%96%97%E4%B8%AD%E5%BF%83%E5%86%85%E7%A7%91.%E7%8C%AB%E7%A7%91.%E5%A4%96%E7%A7%91&src=vetmap&coordinate=gaode&callnative=1"},{"name":"宠安朵动物医院(东纬路店)","address":"南二经街21号5门(青年大街地铁站C口步行430米)","phone":"13998824796","category":"医疗保健服务;动物医疗场所;宠物诊所","area":"沈阳金融商贸经济技术开发区","lng":123.428715,"lat":41.789818,"amap_id":"B0FFMGD34H","order":29,"prev_distance_km":0.388,"cumulative_distance_km":21.634,"amap_marker_url":"https://uri.amap.com/marker?position=123.428715,41.789818&name=%E5%AE%A0%E5%AE%89%E6%9C%B5%E5%8A%A8%E7%89%A9%E5%8C%BB%E9%99%A2%28%E4%B8%9C%E7%BA%AC%E8%B7%AF%E5%BA%97%29&src=vetmap&coordinate=gaode&callnative=1"},{"name":"田十三动物医院","address":"奉天街75号","phone":"024-22722813","category":"医疗保健服务;动物医疗场所;宠物诊所","area":"沈阳金融商贸经济技术开发区","lng":123.442105,"lat":41.790158,"amap_id":"B0J1PM0YKH","order":30,"prev_distance_km":1.111,"cumulative_distance_km":22.745,"amap_marker_url":"https://uri.amap.com/marker?position=123.442105,41.790158&name=%E7%94%B0%E5%8D%81%E4%B8%89%E5%8A%A8%E7%89%A9%E5%8C%BB%E9%99%A2&src=vetmap&coordinate=gaode&callnative=1"},{"name":"好好宠物医院(沈河店)•门前可停车","address":"奉天街103号","phone":"15640071888","category":"医疗保健服务;动物医疗场所;动物医疗场所","area":"沈阳金融商贸经济技术开发区","lng":123.441735,"lat":41.791806,"amap_id":"B0LDMZ1PL0","order":31,"prev_distance_km":0.186,"cumulative_distance_km":22.931,"amap_marker_url":"https://uri.amap.com/marker?position=123.441735,41.791806&name=%E5%A5%BD%E5%A5%BD%E5%AE%A0%E7%89%A9%E5%8C%BB%E9%99%A2%28%E6%B2%88%E6%B2%B3%E5%BA%97%29%E2%80%A2%E9%97%A8%E5%89%8D%E5%8F%AF%E5%81%9C%E8%BD%A6&src=vetmap&coordinate=gaode&callnative=1"},{"name":"吉米动物诊疗中心","address":"沈州路10号(怀远门地铁站B口步行500米)","phone":"18640164120","category":"医疗保健服务;动物医疗场所;宠物诊所","area":"沈阳金融商贸经济技术开发区","lng":123.447815,"lat":41.793284,"amap_id":"B0K0GU98VB","order":32,"prev_distance_km":0.53,"cumulative_distance_km":23.461,"amap_marker_url":"https://uri.amap.com/marker?position=123.447815,41.793284&name=%E5%90%89%E7%B1%B3%E5%8A%A8%E7%89%A9%E8%AF%8A%E7%96%97%E4%B8%AD%E5%BF%83&src=vetmap&coordinate=gaode&callnative=1"},{"name":"安格斯犬·猫·异宠动物医院-沈河店","address":"奉天街186号","phone":"17640249120","category":"医疗保健服务;动物医疗场所;宠物诊所","area":"沈阳金融商贸经济技术开发区","lng":123.440658,"lat":41.795041,"amap_id":"B0L6ZM1ICI","order":33,"prev_distance_km":0.625,"cumulative_distance_km":24.085,"amap_marker_url":"https://uri.amap.com/marker?position=123.440658,41.795041&name=%E5%AE%89%E6%A0%BC%E6%96%AF%E7%8A%AC%C2%B7%E7%8C%AB%C2%B7%E5%BC%82%E5%AE%A0%E5%8A%A8%E7%89%A9%E5%8C%BB%E9%99%A2-%E6%B2%88%E6%B2%B3%E5%BA%97&src=vetmap&coordinate=gaode&callnative=1"},{"name":"瑞派宠物医院·24小时·心脏·内分泌·外科(沈阳沈河分院)","address":"奉天街199甲1号(5-9轴)","phone":"024-22913455;18041376306","category":"医疗保健服务;动物医疗场所;宠物诊所","area":"沈阳金融商贸经济技术开发区","lng":123.440903,"lat":41.797661,"amap_id":"B0GK0PAJ1V","order":34,"prev_distance_km":0.292,"cumulative_distance_km":24.377,"amap_marker_url":"https://uri.amap.com/marker?position=123.440903,41.797661&name=%E7%91%9E%E6%B4%BE%E5%AE%A0%E7%89%A9%E5%8C%BB%E9%99%A2%C2%B724%E5%B0%8F%E6%97%B6%C2%B7%E5%BF%83%E8%84%8F%C2%B7%E5%86%85%E5%88%86%E6%B3%8C%C2%B7%E5%A4%96%E7%A7%91%28%E6%B2%88%E9%98%B3%E6%B2%88%E6%B2%B3%E5%88%86%E9%99%A2%29&src=vetmap&coordinate=gaode&callnative=1"},{"name":"芭比堂动物医院·眼科·内科·保险定点(奉天分院)","address":"奉天街419-5号甲8号","phone":"024-86622882;13066589341","category":"医疗保健服务;动物医疗场所;宠物诊所","area":"朱剪炉","lng":123.442812,"lat":41.808572,"amap_id":"B0FFI6JW1Q","order":35,"prev_distance_km":1.224,"cumulative_distance_km":25.601,"amap_marker_url":"https://uri.amap.com/marker?position=123.442812,41.808572&name=%E8%8A%AD%E6%AF%94%E5%A0%82%E5%8A%A8%E7%89%A9%E5%8C%BB%E9%99%A2%C2%B7%E7%9C%BC%E7%A7%91%C2%B7%E5%86%85%E7%A7%91%C2%B7%E4%BF%9D%E9%99%A9%E5%AE%9A%E7%82%B9%28%E5%A5%89%E5%A4%A9%E5%88%86%E9%99%A2%29&src=vetmap&coordinate=gaode&callnative=1"},{"name":"宜宠动物医院(友好街店)","address":"友好街94号(同泽中学大门东走100米)","phone":"13002408175","category":"医疗保健服务;动物医疗场所;宠物诊所","area":"市府","lng":123.446624,"lat":41.808579,"amap_id":"B0FFKPM77Y","order":36,"prev_distance_km":0.316,"cumulative_distance_km":25.917,"amap_marker_url":"https://uri.amap.com/marker?position=123.446624,41.808579&name=%E5%AE%9C%E5%AE%A0%E5%8A%A8%E7%89%A9%E5%8C%BB%E9%99%A2%28%E5%8F%8B%E5%A5%BD%E8%A1%97%E5%BA%97%29&src=vetmap&coordinate=gaode&callnative=1"},{"name":"沈阳佳鑫宠物服务中心","address":"小北关街与惠工街交叉口西北60米","phone":"","category":"医疗保健服务;动物医疗场所;宠物诊所","area":"沈阳金融商贸经济技术开发区","lng":123.451299,"lat":41.818233,"amap_id":"B0LG154TK6","order":37,"prev_distance_km":1.141,"cumulative_distance_km":27.058,"amap_marker_url":"https://uri.amap.com/marker?position=123.451299,41.818233&name=%E6%B2%88%E9%98%B3%E4%BD%B3%E9%91%AB%E5%AE%A0%E7%89%A9%E6%9C%8D%E5%8A%A1%E4%B8%AD%E5%BF%83&src=vetmap&coordinate=gaode&callnative=1"}]}