{"summary":{"id":"d01705","province":"辽宁省","city":"朝阳市","district":"朝阳县","count":5,"route_count":1,"max_route_clinics":5,"total_distance_km":55.412,"coordinate_system":"GCJ-02 / Amap","generated_at":"2026-05-08 19:48:48"},"routes":[{"id":"r1","name":"第1段","count":5,"total_distance_km":55.412,"rows":[{"name":"常磊兽药店","address":"锦赤线","phone":"","category":"医疗保健服务;动物医疗场所;动物医疗场所","area":"","lng":120.263262,"lat":41.688728,"amap_id":"B0K14HZMLK","order":1,"prev_distance_km":0.0,"cumulative_distance_km":0.0,"amap_marker_url":"https://uri.amap.com/marker?position=120.263262,41.688728&name=%E5%B8%B8%E7%A3%8A%E5%85%BD%E8%8D%AF%E5%BA%97&src=vetmap&coordinate=gaode&callnative=1","route_id":"r1","route_name":"第1段"},{"name":"小梁兽药饲料店","address":"台子镇三岔口村","phone":"17642177496","category":"医疗保健服务;动物医疗场所;动物医疗场所","area":"","lng":120.127805,"lat":41.400742,"amap_id":"B0K67DBM9A","order":2,"prev_distance_km":33.949,"cumulative_distance_km":33.949,"amap_marker_url":"https://uri.amap.com/marker?position=120.127805,41.400742&name=%E5%B0%8F%E6%A2%81%E5%85%BD%E8%8D%AF%E9%A5%B2%E6%96%99%E5%BA%97&src=vetmap&coordinate=gaode&callnative=1","route_id":"r1","route_name":"第1段"},{"name":"动物医院","address":"回春堂村卫生室西南侧140米","phone":"","category":"医疗保健服务;动物医疗场所;宠物诊所","area":"","lng":120.049225,"lat":41.349307,"amap_id":"B0JULZGPDD","order":3,"prev_distance_km":8.701,"cumulative_distance_km":42.65,"amap_marker_url":"https://uri.amap.com/marker?position=120.049225,41.349307&name=%E5%8A%A8%E7%89%A9%E5%8C%BB%E9%99%A2&src=vetmap&coordinate=gaode&callnative=1","route_id":"r1","route_name":"第1段"},{"name":"小旭兽药店","address":"木头城子镇满达营子小学西南侧160米","phone":"","category":"医疗保健服务;动物医疗场所;动物医疗场所","area":"","lng":120.024323,"lat":41.305085,"amap_id":"B0KRKD9IWW","order":4,"prev_distance_km":5.339,"cumulative_distance_km":47.988,"amap_marker_url":"https://uri.amap.com/marker?position=120.024323,41.305085&name=%E5%B0%8F%E6%97%AD%E5%85%BD%E8%8D%AF%E5%BA%97&src=vetmap&coordinate=gaode&callnative=1","route_id":"r1","route_name":"第1段"},{"name":"正牧动保","address":"胜利镇东山村","phone":"17642108415","category":"医疗保健服务;动物医疗场所;动物医疗场所","area":"","lng":120.050762,"lat":41.241354,"amap_id":"B0K0RUNX2P","order":5,"prev_distance_km":7.423,"cumulative_distance_km":55.412,"amap_marker_url":"https://uri.amap.com/marker?position=120.050762,41.241354&name=%E6%AD%A3%E7%89%A7%E5%8A%A8%E4%BF%9D&src=vetmap&coordinate=gaode&callnative=1","route_id":"r1","route_name":"第1段"}]}],"rows":[{"name":"常磊兽药店","address":"锦赤线","phone":"","category":"医疗保健服务;动物医疗场所;动物医疗场所","area":"","lng":120.263262,"lat":41.688728,"amap_id":"B0K14HZMLK","order":1,"prev_distance_km":0.0,"cumulative_distance_km":0.0,"amap_marker_url":"https://uri.amap.com/marker?position=120.263262,41.688728&name=%E5%B8%B8%E7%A3%8A%E5%85%BD%E8%8D%AF%E5%BA%97&src=vetmap&coordinate=gaode&callnative=1","route_id":"r1","route_name":"第1段","global_order":1},{"name":"小梁兽药饲料店","address":"台子镇三岔口村","phone":"17642177496","category":"医疗保健服务;动物医疗场所;动物医疗场所","area":"","lng":120.127805,"lat":41.400742,"amap_id":"B0K67DBM9A","order":2,"prev_distance_km":33.949,"cumulative_distance_km":33.949,"amap_marker_url":"https://uri.amap.com/marker?position=120.127805,41.400742&name=%E5%B0%8F%E6%A2%81%E5%85%BD%E8%8D%AF%E9%A5%B2%E6%96%99%E5%BA%97&src=vetmap&coordinate=gaode&callnative=1","route_id":"r1","route_name":"第1段","global_order":2},{"name":"动物医院","address":"回春堂村卫生室西南侧140米","phone":"","category":"医疗保健服务;动物医疗场所;宠物诊所","area":"","lng":120.049225,"lat":41.349307,"amap_id":"B0JULZGPDD","order":3,"prev_distance_km":8.701,"cumulative_distance_km":42.65,"amap_marker_url":"https://uri.amap.com/marker?position=120.049225,41.349307&name=%E5%8A%A8%E7%89%A9%E5%8C%BB%E9%99%A2&src=vetmap&coordinate=gaode&callnative=1","route_id":"r1","route_name":"第1段","global_order":3},{"name":"小旭兽药店","address":"木头城子镇满达营子小学西南侧160米","phone":"","category":"医疗保健服务;动物医疗场所;动物医疗场所","area":"","lng":120.024323,"lat":41.305085,"amap_id":"B0KRKD9IWW","order":4,"prev_distance_km":5.339,"cumulative_distance_km":47.988,"amap_marker_url":"https://uri.amap.com/marker?position=120.024323,41.305085&name=%E5%B0%8F%E6%97%AD%E5%85%BD%E8%8D%AF%E5%BA%97&src=vetmap&coordinate=gaode&callnative=1","route_id":"r1","route_name":"第1段","global_order":4},{"name":"正牧动保","address":"胜利镇东山村","phone":"17642108415","category":"医疗保健服务;动物医疗场所;动物医疗场所","area":"","lng":120.050762,"lat":41.241354,"amap_id":"B0K0RUNX2P","order":5,"prev_distance_km":7.423,"cumulative_distance_km":55.412,"amap_marker_url":"https://uri.amap.com/marker?position=120.050762,41.241354&name=%E6%AD%A3%E7%89%A7%E5%8A%A8%E4%BF%9D&src=vetmap&coordinate=gaode&callnative=1","route_id":"r1","route_name":"第1段","global_order":5}]}