{"summary":{"id":"d01760","province":"辽宁省","city":"锦州市","district":"古塔区","count":15,"route_count":1,"max_route_clinics":15,"total_distance_km":8.012,"coordinate_system":"GCJ-02 / Amap","generated_at":"2026-05-08 19:49:01"},"routes":[{"id":"r1","name":"第1段","count":15,"total_distance_km":8.012,"rows":[{"name":"动物门诊","address":"锦朝街与松坡路交叉口南120米","phone":"","category":"医疗保健服务;动物医疗场所;宠物诊所","area":"","lng":121.105775,"lat":41.149575,"amap_id":"B0K3CZ2FRV","order":1,"prev_distance_km":0.0,"cumulative_distance_km":0.0,"amap_marker_url":"https://uri.amap.com/marker?position=121.105775,41.149575&name=%E5%8A%A8%E7%89%A9%E9%97%A8%E8%AF%8A&src=vetmap&coordinate=gaode&callnative=1","route_id":"r1","route_name":"第1段"},{"name":"龙成动物门诊","address":"五星村1-1号","phone":"13700068049","category":"医疗保健服务;动物医疗场所;宠物诊所","area":"","lng":121.108527,"lat":41.15104,"amap_id":"B0FFKQBXNL","order":2,"prev_distance_km":0.282,"cumulative_distance_km":0.282,"amap_marker_url":"https://uri.amap.com/marker?position=121.108527,41.151040&name=%E9%BE%99%E6%88%90%E5%8A%A8%E7%89%A9%E9%97%A8%E8%AF%8A&src=vetmap&coordinate=gaode&callnative=1","route_id":"r1","route_name":"第1段"},{"name":"宠有所依宠物门诊","address":"锦城四月天1号楼136号","phone":"15174067520","category":"医疗保健服务;动物医疗场所;宠物诊所","area":"","lng":121.119345,"lat":41.14998,"amap_id":"B0FFIGMS6V","order":3,"prev_distance_km":0.913,"cumulative_distance_km":1.196,"amap_marker_url":"https://uri.amap.com/marker?position=121.119345,41.149980&name=%E5%AE%A0%E6%9C%89%E6%89%80%E4%BE%9D%E5%AE%A0%E7%89%A9%E9%97%A8%E8%AF%8A&src=vetmap&coordinate=gaode&callnative=1","route_id":"r1","route_name":"第1段"},{"name":"锦州医科大学附属动物医院","address":"人民街与松坡路交汇处北150米","phone":"","category":"医疗保健服务;动物医疗场所;兽医站|医疗保健服务;动物医疗场所;宠物诊所","area":"","lng":121.129532,"lat":41.150497,"amap_id":"B01A00IGAX","order":4,"prev_distance_km":0.855,"cumulative_distance_km":2.05,"amap_marker_url":"https://uri.amap.com/marker?position=121.129532,41.150497&name=%E9%94%A6%E5%B7%9E%E5%8C%BB%E7%A7%91%E5%A4%A7%E5%AD%A6%E9%99%84%E5%B1%9E%E5%8A%A8%E7%89%A9%E5%8C%BB%E9%99%A2&src=vetmap&coordinate=gaode&callnative=1","route_id":"r1","route_name":"第1段"},{"name":"锦州红燊宠康动物医院·CT影像中心","address":"延安路2段万意双子座A座1-84号","phone":"0416-2330366;18041652120","category":"医疗保健服务;动物医疗场所;宠物诊所","area":"延安路","lng":121.126882,"lat":41.124658,"amap_id":"B0KA7Z0CBP","order":5,"prev_distance_km":2.882,"cumulative_distance_km":4.932,"amap_marker_url":"https://uri.amap.com/marker?position=121.126882,41.124658&name=%E9%94%A6%E5%B7%9E%E7%BA%A2%E7%87%8A%E5%AE%A0%E5%BA%B7%E5%8A%A8%E7%89%A9%E5%8C%BB%E9%99%A2%C2%B7CT%E5%BD%B1%E5%83%8F%E4%B8%AD%E5%BF%83&src=vetmap&coordinate=gaode&callnative=1","route_id":"r1","route_name":"第1段"},{"name":"博爱宠物门诊","address":"惠安里5-91号","phone":"13841696483","category":"医疗保健服务;动物医疗场所;宠物诊所","area":"和平路","lng":121.120512,"lat":41.122541,"amap_id":"B01A00IE7V","order":6,"prev_distance_km":0.583,"cumulative_distance_km":5.515,"amap_marker_url":"https://uri.amap.com/marker?position=121.120512,41.122541&name=%E5%8D%9A%E7%88%B1%E5%AE%A0%E7%89%A9%E9%97%A8%E8%AF%8A&src=vetmap&coordinate=gaode&callnative=1","route_id":"r1","route_name":"第1段"},{"name":"锦州牵手动物医院(宜昌路店)","address":"宜昌路定安里79-7","phone":"0416-2128120;0416-3980120","category":"医疗保健服务;动物医疗场所;宠物诊所","area":"","lng":121.118471,"lat":41.120372,"amap_id":"B0FFINE0TQ","order":7,"prev_distance_km":0.296,"cumulative_distance_km":5.811,"amap_marker_url":"https://uri.amap.com/marker?position=121.118471,41.120372&name=%E9%94%A6%E5%B7%9E%E7%89%B5%E6%89%8B%E5%8A%A8%E7%89%A9%E5%8C%BB%E9%99%A2%28%E5%AE%9C%E6%98%8C%E8%B7%AF%E5%BA%97%29&src=vetmap&coordinate=gaode&callnative=1","route_id":"r1","route_name":"第1段"},{"name":"爱宠医动物医院","address":"西安里42-6(回民小学东门南20米)","phone":"18841604826","category":"医疗保健服务;动物医疗场所;宠物诊所","area":"","lng":121.116427,"lat":41.118982,"amap_id":"B0FFINLXPB","order":8,"prev_distance_km":0.231,"cumulative_distance_km":6.042,"amap_marker_url":"https://uri.amap.com/marker?position=121.116427,41.118982&name=%E7%88%B1%E5%AE%A0%E5%8C%BB%E5%8A%A8%E7%89%A9%E5%8C%BB%E9%99%A2&src=vetmap&coordinate=gaode&callnative=1","route_id":"r1","route_name":"第1段"},{"name":"锦州市动物疫病预防控制中心","address":"士英街8号","phone":"","category":"医疗保健服务;动物医疗场所;动物医疗场所","area":"","lng":121.116211,"lat":41.11822,"amap_id":"B01A000MBW","order":9,"prev_distance_km":0.087,"cumulative_distance_km":6.128,"amap_marker_url":"https://uri.amap.com/marker?position=121.116211,41.118220&name=%E9%94%A6%E5%B7%9E%E5%B8%82%E5%8A%A8%E7%89%A9%E7%96%AB%E7%97%85%E9%A2%84%E9%98%B2%E6%8E%A7%E5%88%B6%E4%B8%AD%E5%BF%83&src=vetmap&coordinate=gaode&callnative=1","route_id":"r1","route_name":"第1段"},{"name":"犬猫猪鸡羊疫苗批发零售","address":"锦州市动物疫病预防控制中心东北门旁","phone":"","category":"医疗保健服务;动物医疗场所;动物医疗场所","area":"","lng":121.116525,"lat":41.118075,"amap_id":"B0KKVD4Q15","order":10,"prev_distance_km":0.031,"cumulative_distance_km":6.159,"amap_marker_url":"https://uri.amap.com/marker?position=121.116525,41.118075&name=%E7%8A%AC%E7%8C%AB%E7%8C%AA%E9%B8%A1%E7%BE%8A%E7%96%AB%E8%8B%97%E6%89%B9%E5%8F%91%E9%9B%B6%E5%94%AE&src=vetmap&coordinate=gaode&callnative=1","route_id":"r1","route_name":"第1段"},{"name":"阿毛阿福动物医院","address":"解放路长安红日小区1-193门市","phone":"15326223273","category":"医疗保健服务;动物医疗场所;宠物诊所","area":"","lng":121.11786,"lat":41.115568,"amap_id":"B0K3YZC07X","order":11,"prev_distance_km":0.3,"cumulative_distance_km":6.46,"amap_marker_url":"https://uri.amap.com/marker?position=121.117860,41.115568&name=%E9%98%BF%E6%AF%9B%E9%98%BF%E7%A6%8F%E5%8A%A8%E7%89%A9%E5%8C%BB%E9%99%A2&src=vetmap&coordinate=gaode&callnative=1","route_id":"r1","route_name":"第1段"},{"name":"盛博士动物医院","address":"西门外里古城新苑33-112号","phone":"18841697030","category":"医疗保健服务;动物医疗场所;宠物诊所","area":"","lng":121.119711,"lat":41.11123,"amap_id":"B0FFL0DE93","order":12,"prev_distance_km":0.507,"cumulative_distance_km":6.966,"amap_marker_url":"https://uri.amap.com/marker?position=121.119711,41.111230&name=%E7%9B%9B%E5%8D%9A%E5%A3%AB%E5%8A%A8%E7%89%A9%E5%8C%BB%E9%99%A2&src=vetmap&coordinate=gaode&callnative=1","route_id":"r1","route_name":"第1段"},{"name":"锦州秋园动物医院总院","address":"南街里17-1号","phone":"0416-4120120","category":"医疗保健服务;动物医疗场所;宠物诊所","area":"","lng":121.1262,"lat":41.109044,"amap_id":"B0JRHDFJ50","order":13,"prev_distance_km":0.596,"cumulative_distance_km":7.562,"amap_marker_url":"https://uri.amap.com/marker?position=121.126200,41.109044&name=%E9%94%A6%E5%B7%9E%E7%A7%8B%E5%9B%AD%E5%8A%A8%E7%89%A9%E5%8C%BB%E9%99%A2%E6%80%BB%E9%99%A2&src=vetmap&coordinate=gaode&callnative=1","route_id":"r1","route_name":"第1段"},{"name":"禾安宠物·非人类洗浴中心","address":"西街里8-93号","phone":"15941650701","category":"医疗保健服务;动物医疗场所;宠物诊所","area":"南京路","lng":121.126007,"lat":41.108331,"amap_id":"B0K375N27X","order":14,"prev_distance_km":0.081,"cumulative_distance_km":7.643,"amap_marker_url":"https://uri.amap.com/marker?position=121.126007,41.108331&name=%E7%A6%BE%E5%AE%89%E5%AE%A0%E7%89%A9%C2%B7%E9%9D%9E%E4%BA%BA%E7%B1%BB%E6%B4%97%E6%B5%B4%E4%B8%AD%E5%BF%83&src=vetmap&coordinate=gaode&callnative=1","route_id":"r1","route_name":"第1段"},{"name":"喜一宠宠物美容生活馆","address":"南京路二段21-159号","phone":"15694168193","category":"医疗保健服务;动物医疗场所;动物医疗场所","area":"南京路","lng":121.129793,"lat":41.106625,"amap_id":"B0L3RAN4YM","order":15,"prev_distance_km":0.37,"cumulative_distance_km":8.012,"amap_marker_url":"https://uri.amap.com/marker?position=121.129793,41.106625&name=%E5%96%9C%E4%B8%80%E5%AE%A0%E5%AE%A0%E7%89%A9%E7%BE%8E%E5%AE%B9%E7%94%9F%E6%B4%BB%E9%A6%86&src=vetmap&coordinate=gaode&callnative=1","route_id":"r1","route_name":"第1段"}]}],"rows":[{"name":"动物门诊","address":"锦朝街与松坡路交叉口南120米","phone":"","category":"医疗保健服务;动物医疗场所;宠物诊所","area":"","lng":121.105775,"lat":41.149575,"amap_id":"B0K3CZ2FRV","order":1,"prev_distance_km":0.0,"cumulative_distance_km":0.0,"amap_marker_url":"https://uri.amap.com/marker?position=121.105775,41.149575&name=%E5%8A%A8%E7%89%A9%E9%97%A8%E8%AF%8A&src=vetmap&coordinate=gaode&callnative=1","route_id":"r1","route_name":"第1段","global_order":1},{"name":"龙成动物门诊","address":"五星村1-1号","phone":"13700068049","category":"医疗保健服务;动物医疗场所;宠物诊所","area":"","lng":121.108527,"lat":41.15104,"amap_id":"B0FFKQBXNL","order":2,"prev_distance_km":0.282,"cumulative_distance_km":0.282,"amap_marker_url":"https://uri.amap.com/marker?position=121.108527,41.151040&name=%E9%BE%99%E6%88%90%E5%8A%A8%E7%89%A9%E9%97%A8%E8%AF%8A&src=vetmap&coordinate=gaode&callnative=1","route_id":"r1","route_name":"第1段","global_order":2},{"name":"宠有所依宠物门诊","address":"锦城四月天1号楼136号","phone":"15174067520","category":"医疗保健服务;动物医疗场所;宠物诊所","area":"","lng":121.119345,"lat":41.14998,"amap_id":"B0FFIGMS6V","order":3,"prev_distance_km":0.913,"cumulative_distance_km":1.196,"amap_marker_url":"https://uri.amap.com/marker?position=121.119345,41.149980&name=%E5%AE%A0%E6%9C%89%E6%89%80%E4%BE%9D%E5%AE%A0%E7%89%A9%E9%97%A8%E8%AF%8A&src=vetmap&coordinate=gaode&callnative=1","route_id":"r1","route_name":"第1段","global_order":3},{"name":"锦州医科大学附属动物医院","address":"人民街与松坡路交汇处北150米","phone":"","category":"医疗保健服务;动物医疗场所;兽医站|医疗保健服务;动物医疗场所;宠物诊所","area":"","lng":121.129532,"lat":41.150497,"amap_id":"B01A00IGAX","order":4,"prev_distance_km":0.855,"cumulative_distance_km":2.05,"amap_marker_url":"https://uri.amap.com/marker?position=121.129532,41.150497&name=%E9%94%A6%E5%B7%9E%E5%8C%BB%E7%A7%91%E5%A4%A7%E5%AD%A6%E9%99%84%E5%B1%9E%E5%8A%A8%E7%89%A9%E5%8C%BB%E9%99%A2&src=vetmap&coordinate=gaode&callnative=1","route_id":"r1","route_name":"第1段","global_order":4},{"name":"锦州红燊宠康动物医院·CT影像中心","address":"延安路2段万意双子座A座1-84号","phone":"0416-2330366;18041652120","category":"医疗保健服务;动物医疗场所;宠物诊所","area":"延安路","lng":121.126882,"lat":41.124658,"amap_id":"B0KA7Z0CBP","order":5,"prev_distance_km":2.882,"cumulative_distance_km":4.932,"amap_marker_url":"https://uri.amap.com/marker?position=121.126882,41.124658&name=%E9%94%A6%E5%B7%9E%E7%BA%A2%E7%87%8A%E5%AE%A0%E5%BA%B7%E5%8A%A8%E7%89%A9%E5%8C%BB%E9%99%A2%C2%B7CT%E5%BD%B1%E5%83%8F%E4%B8%AD%E5%BF%83&src=vetmap&coordinate=gaode&callnative=1","route_id":"r1","route_name":"第1段","global_order":5},{"name":"博爱宠物门诊","address":"惠安里5-91号","phone":"13841696483","category":"医疗保健服务;动物医疗场所;宠物诊所","area":"和平路","lng":121.120512,"lat":41.122541,"amap_id":"B01A00IE7V","order":6,"prev_distance_km":0.583,"cumulative_distance_km":5.515,"amap_marker_url":"https://uri.amap.com/marker?position=121.120512,41.122541&name=%E5%8D%9A%E7%88%B1%E5%AE%A0%E7%89%A9%E9%97%A8%E8%AF%8A&src=vetmap&coordinate=gaode&callnative=1","route_id":"r1","route_name":"第1段","global_order":6},{"name":"锦州牵手动物医院(宜昌路店)","address":"宜昌路定安里79-7","phone":"0416-2128120;0416-3980120","category":"医疗保健服务;动物医疗场所;宠物诊所","area":"","lng":121.118471,"lat":41.120372,"amap_id":"B0FFINE0TQ","order":7,"prev_distance_km":0.296,"cumulative_distance_km":5.811,"amap_marker_url":"https://uri.amap.com/marker?position=121.118471,41.120372&name=%E9%94%A6%E5%B7%9E%E7%89%B5%E6%89%8B%E5%8A%A8%E7%89%A9%E5%8C%BB%E9%99%A2%28%E5%AE%9C%E6%98%8C%E8%B7%AF%E5%BA%97%29&src=vetmap&coordinate=gaode&callnative=1","route_id":"r1","route_name":"第1段","global_order":7},{"name":"爱宠医动物医院","address":"西安里42-6(回民小学东门南20米)","phone":"18841604826","category":"医疗保健服务;动物医疗场所;宠物诊所","area":"","lng":121.116427,"lat":41.118982,"amap_id":"B0FFINLXPB","order":8,"prev_distance_km":0.231,"cumulative_distance_km":6.042,"amap_marker_url":"https://uri.amap.com/marker?position=121.116427,41.118982&name=%E7%88%B1%E5%AE%A0%E5%8C%BB%E5%8A%A8%E7%89%A9%E5%8C%BB%E9%99%A2&src=vetmap&coordinate=gaode&callnative=1","route_id":"r1","route_name":"第1段","global_order":8},{"name":"锦州市动物疫病预防控制中心","address":"士英街8号","phone":"","category":"医疗保健服务;动物医疗场所;动物医疗场所","area":"","lng":121.116211,"lat":41.11822,"amap_id":"B01A000MBW","order":9,"prev_distance_km":0.087,"cumulative_distance_km":6.128,"amap_marker_url":"https://uri.amap.com/marker?position=121.116211,41.118220&name=%E9%94%A6%E5%B7%9E%E5%B8%82%E5%8A%A8%E7%89%A9%E7%96%AB%E7%97%85%E9%A2%84%E9%98%B2%E6%8E%A7%E5%88%B6%E4%B8%AD%E5%BF%83&src=vetmap&coordinate=gaode&callnative=1","route_id":"r1","route_name":"第1段","global_order":9},{"name":"犬猫猪鸡羊疫苗批发零售","address":"锦州市动物疫病预防控制中心东北门旁","phone":"","category":"医疗保健服务;动物医疗场所;动物医疗场所","area":"","lng":121.116525,"lat":41.118075,"amap_id":"B0KKVD4Q15","order":10,"prev_distance_km":0.031,"cumulative_distance_km":6.159,"amap_marker_url":"https://uri.amap.com/marker?position=121.116525,41.118075&name=%E7%8A%AC%E7%8C%AB%E7%8C%AA%E9%B8%A1%E7%BE%8A%E7%96%AB%E8%8B%97%E6%89%B9%E5%8F%91%E9%9B%B6%E5%94%AE&src=vetmap&coordinate=gaode&callnative=1","route_id":"r1","route_name":"第1段","global_order":10},{"name":"阿毛阿福动物医院","address":"解放路长安红日小区1-193门市","phone":"15326223273","category":"医疗保健服务;动物医疗场所;宠物诊所","area":"","lng":121.11786,"lat":41.115568,"amap_id":"B0K3YZC07X","order":11,"prev_distance_km":0.3,"cumulative_distance_km":6.46,"amap_marker_url":"https://uri.amap.com/marker?position=121.117860,41.115568&name=%E9%98%BF%E6%AF%9B%E9%98%BF%E7%A6%8F%E5%8A%A8%E7%89%A9%E5%8C%BB%E9%99%A2&src=vetmap&coordinate=gaode&callnative=1","route_id":"r1","route_name":"第1段","global_order":11},{"name":"盛博士动物医院","address":"西门外里古城新苑33-112号","phone":"18841697030","category":"医疗保健服务;动物医疗场所;宠物诊所","area":"","lng":121.119711,"lat":41.11123,"amap_id":"B0FFL0DE93","order":12,"prev_distance_km":0.507,"cumulative_distance_km":6.966,"amap_marker_url":"https://uri.amap.com/marker?position=121.119711,41.111230&name=%E7%9B%9B%E5%8D%9A%E5%A3%AB%E5%8A%A8%E7%89%A9%E5%8C%BB%E9%99%A2&src=vetmap&coordinate=gaode&callnative=1","route_id":"r1","route_name":"第1段","global_order":12},{"name":"锦州秋园动物医院总院","address":"南街里17-1号","phone":"0416-4120120","category":"医疗保健服务;动物医疗场所;宠物诊所","area":"","lng":121.1262,"lat":41.109044,"amap_id":"B0JRHDFJ50","order":13,"prev_distance_km":0.596,"cumulative_distance_km":7.562,"amap_marker_url":"https://uri.amap.com/marker?position=121.126200,41.109044&name=%E9%94%A6%E5%B7%9E%E7%A7%8B%E5%9B%AD%E5%8A%A8%E7%89%A9%E5%8C%BB%E9%99%A2%E6%80%BB%E9%99%A2&src=vetmap&coordinate=gaode&callnative=1","route_id":"r1","route_name":"第1段","global_order":13},{"name":"禾安宠物·非人类洗浴中心","address":"西街里8-93号","phone":"15941650701","category":"医疗保健服务;动物医疗场所;宠物诊所","area":"南京路","lng":121.126007,"lat":41.108331,"amap_id":"B0K375N27X","order":14,"prev_distance_km":0.081,"cumulative_distance_km":7.643,"amap_marker_url":"https://uri.amap.com/marker?position=121.126007,41.108331&name=%E7%A6%BE%E5%AE%89%E5%AE%A0%E7%89%A9%C2%B7%E9%9D%9E%E4%BA%BA%E7%B1%BB%E6%B4%97%E6%B5%B4%E4%B8%AD%E5%BF%83&src=vetmap&coordinate=gaode&callnative=1","route_id":"r1","route_name":"第1段","global_order":14},{"name":"喜一宠宠物美容生活馆","address":"南京路二段21-159号","phone":"15694168193","category":"医疗保健服务;动物医疗场所;动物医疗场所","area":"南京路","lng":121.129793,"lat":41.106625,"amap_id":"B0L3RAN4YM","order":15,"prev_distance_km":0.37,"cumulative_distance_km":8.012,"amap_marker_url":"https://uri.amap.com/marker?position=121.129793,41.106625&name=%E5%96%9C%E4%B8%80%E5%AE%A0%E5%AE%A0%E7%89%A9%E7%BE%8E%E5%AE%B9%E7%94%9F%E6%B4%BB%E9%A6%86&src=vetmap&coordinate=gaode&callnative=1","route_id":"r1","route_name":"第1段","global_order":15}]}