{"summary":{"id":"d01728","province":"辽宁省","city":"盘锦市","district":"大洼区","count":15,"route_count":1,"max_route_clinics":15,"total_distance_km":44.702,"coordinate_system":"GCJ-02 / Amap","generated_at":"2026-05-08 19:49:00"},"routes":[{"id":"r1","name":"第1段","count":15,"total_distance_km":44.702,"rows":[{"name":"地利兽药店","address":"雨润路与305国道交叉口北40米","phone":"0427-6727814;13604239704","category":"医疗保健服务;动物医疗场所;动物医疗场所","area":"","lng":122.124087,"lat":40.833383,"amap_id":"B0FFFWOLAC","order":1,"prev_distance_km":0.0,"cumulative_distance_km":0.0,"amap_marker_url":"https://uri.amap.com/marker?position=122.124087,40.833383&name=%E5%9C%B0%E5%88%A9%E5%85%BD%E8%8D%AF%E5%BA%97&src=vetmap&coordinate=gaode&callnative=1","route_id":"r1","route_name":"第1段"},{"name":"利洋水产药店(西安店)","address":"西安镇医院北","phone":"13604278929","category":"医疗保健服务;动物医疗场所;兽医站","area":"","lng":122.24627,"lat":40.927194,"amap_id":"B0FFIZ3W6W","order":2,"prev_distance_km":14.64,"cumulative_distance_km":14.64,"amap_marker_url":"https://uri.amap.com/marker?position=122.246270,40.927194&name=%E5%88%A9%E6%B4%8B%E6%B0%B4%E4%BA%A7%E8%8D%AF%E5%BA%97%28%E8%A5%BF%E5%AE%89%E5%BA%97%29&src=vetmap&coordinate=gaode&callnative=1","route_id":"r1","route_name":"第1段"},{"name":"天爱宠物诊所","address":"向海大道与金源街交叉口西100米","phone":"15604270535","category":"医疗保健服务;动物医疗场所;宠物诊所","area":"","lng":122.079652,"lat":40.98832,"amap_id":"B0FFJMJZJA","order":3,"prev_distance_km":15.555,"cumulative_distance_km":30.195,"amap_marker_url":"https://uri.amap.com/marker?position=122.079652,40.988320&name=%E5%A4%A9%E7%88%B1%E5%AE%A0%E7%89%A9%E8%AF%8A%E6%89%80&src=vetmap&coordinate=gaode&callnative=1","route_id":"r1","route_name":"第1段"},{"name":"宠益友宠物医院.外科.眼科.骨科.内窥镜","address":"东湖胜景西门旁","phone":"0427-3451120;19304267575","category":"医疗保健服务;动物医疗场所;宠物诊所","area":"","lng":122.076697,"lat":40.991488,"amap_id":"B0H16H0FJQ","order":4,"prev_distance_km":0.431,"cumulative_distance_km":30.626,"amap_marker_url":"https://uri.amap.com/marker?position=122.076697,40.991488&name=%E5%AE%A0%E7%9B%8A%E5%8F%8B%E5%AE%A0%E7%89%A9%E5%8C%BB%E9%99%A2.%E5%A4%96%E7%A7%91.%E7%9C%BC%E7%A7%91.%E9%AA%A8%E7%A7%91.%E5%86%85%E7%AA%A5%E9%95%9C&src=vetmap&coordinate=gaode&callnative=1","route_id":"r1","route_name":"第1段"},{"name":"佳佳动物诊所","address":"鹤吉家居市场东门对面","phone":"18004279889","category":"医疗保健服务;动物医疗场所;宠物诊所","area":"","lng":122.071861,"lat":40.991964,"amap_id":"B0KAL7IIXX","order":5,"prev_distance_km":0.409,"cumulative_distance_km":31.035,"amap_marker_url":"https://uri.amap.com/marker?position=122.071861,40.991964&name=%E4%BD%B3%E4%BD%B3%E5%8A%A8%E7%89%A9%E8%AF%8A%E6%89%80&src=vetmap&coordinate=gaode&callnative=1","route_id":"r1","route_name":"第1段"},{"name":"仁安宠物医院","address":"凤凰城小区南门","phone":"13942719611","category":"医疗保健服务;动物医疗场所;宠物诊所","area":"","lng":122.064383,"lat":40.994344,"amap_id":"B0FFJZVAF9","order":6,"prev_distance_km":0.681,"cumulative_distance_km":31.716,"amap_marker_url":"https://uri.amap.com/marker?position=122.064383,40.994344&name=%E4%BB%81%E5%AE%89%E5%AE%A0%E7%89%A9%E5%8C%BB%E9%99%A2&src=vetmap&coordinate=gaode&callnative=1","route_id":"r1","route_name":"第1段"},{"name":"屋旺宠物美容工作室","address":"鑫华国际西门7号生鲜超市南侧200米B18-109","phone":"13324255971","category":"医疗保健服务;动物医疗场所;动物医疗场所","area":"","lng":122.073213,"lat":41.006009,"amap_id":"B0K1NRM5VI","order":7,"prev_distance_km":1.494,"cumulative_distance_km":33.21,"amap_marker_url":"https://uri.amap.com/marker?position=122.073213,41.006009&name=%E5%B1%8B%E6%97%BA%E5%AE%A0%E7%89%A9%E7%BE%8E%E5%AE%B9%E5%B7%A5%E4%BD%9C%E5%AE%A4&src=vetmap&coordinate=gaode&callnative=1","route_id":"r1","route_name":"第1段"},{"name":"安心宠物诊疗","address":"田家街道林海景天三期31层1-42-4室","phone":"17704277727","category":"医疗保健服务;动物医疗场所;宠物诊所","area":"","lng":122.073049,"lat":41.074362,"amap_id":"B0KR7DH4UK","order":8,"prev_distance_km":7.601,"cumulative_distance_km":40.811,"amap_marker_url":"https://uri.amap.com/marker?position=122.073049,41.074362&name=%E5%AE%89%E5%BF%83%E5%AE%A0%E7%89%A9%E8%AF%8A%E7%96%97&src=vetmap&coordinate=gaode&callnative=1","route_id":"r1","route_name":"第1段"},{"name":"汇宠动物诊所","address":"田家村田家建材市场综合楼13商网","phone":"13624271717","category":"医疗保健服务;动物医疗场所;宠物诊所","area":"","lng":122.073863,"lat":41.075655,"amap_id":"B0KACSNYUR","order":9,"prev_distance_km":0.159,"cumulative_distance_km":40.97,"amap_marker_url":"https://uri.amap.com/marker?position=122.073863,41.075655&name=%E6%B1%87%E5%AE%A0%E5%8A%A8%E7%89%A9%E8%AF%8A%E6%89%80&src=vetmap&coordinate=gaode&callnative=1","route_id":"r1","route_name":"第1段"},{"name":"芭比堂动物医院(枫苑分院)","address":"泰山中路林海景天林枫苑W2号商网02号","phone":"0427-3470120","category":"医疗保健服务;动物医疗场所;宠物诊所","area":"","lng":122.072793,"lat":41.076325,"amap_id":"B0L22YZOU2","order":10,"prev_distance_km":0.117,"cumulative_distance_km":41.087,"amap_marker_url":"https://uri.amap.com/marker?position=122.072793,41.076325&name=%E8%8A%AD%E6%AF%94%E5%A0%82%E5%8A%A8%E7%89%A9%E5%8C%BB%E9%99%A2%28%E6%9E%AB%E8%8B%91%E5%88%86%E9%99%A2%29&src=vetmap&coordinate=gaode&callnative=1","route_id":"r1","route_name":"第1段"},{"name":"裕宠动物诊所(亿居智汇城A座店)","address":"亿居智汇城A座","phone":"13842761105","category":"医疗保健服务;动物医疗场所;宠物诊所","area":"","lng":122.072872,"lat":41.083416,"amap_id":"B0FFKG1SUX","order":11,"prev_distance_km":0.789,"cumulative_distance_km":41.875,"amap_marker_url":"https://uri.amap.com/marker?position=122.072872,41.083416&name=%E8%A3%95%E5%AE%A0%E5%8A%A8%E7%89%A9%E8%AF%8A%E6%89%80%28%E4%BA%BF%E5%B1%85%E6%99%BA%E6%B1%87%E5%9F%8EA%E5%BA%A7%E5%BA%97%29&src=vetmap&coordinate=gaode&callnative=1","route_id":"r1","route_name":"第1段"},{"name":"佳仁动物医院","address":"田家街道富田小区综合网点楼2-83-8室","phone":"13028259566","category":"医疗保健服务;动物医疗场所;宠物诊所","area":"","lng":122.072163,"lat":41.088694,"amap_id":"B0K0NUGFHN","order":12,"prev_distance_km":0.59,"cumulative_distance_km":42.465,"amap_marker_url":"https://uri.amap.com/marker?position=122.072163,41.088694&name=%E4%BD%B3%E4%BB%81%E5%8A%A8%E7%89%A9%E5%8C%BB%E9%99%A2&src=vetmap&coordinate=gaode&callnative=1","route_id":"r1","route_name":"第1段"},{"name":"大洼区吴楠宠物医院","address":"昆仑云景一期八号商网","phone":"13030775305;15041265621","category":"医疗保健服务;动物医疗场所;宠物诊所","area":"","lng":122.072911,"lat":41.09031,"amap_id":"B0H1PHQNLR","order":13,"prev_distance_km":0.19,"cumulative_distance_km":42.655,"amap_marker_url":"https://uri.amap.com/marker?position=122.072911,41.090310&name=%E5%A4%A7%E6%B4%BC%E5%8C%BA%E5%90%B4%E6%A5%A0%E5%AE%A0%E7%89%A9%E5%8C%BB%E9%99%A2&src=vetmap&coordinate=gaode&callnative=1","route_id":"r1","route_name":"第1段"},{"name":"喵汪乐宠物药房","address":"田家街道亿居新城小区1号楼2单元1-1室","phone":"13904927489;15898221204","category":"医疗保健服务;动物医疗场所;动物医疗场所","area":"","lng":122.077468,"lat":41.083908,"amap_id":"B0LDNSNRCS","order":14,"prev_distance_km":0.808,"cumulative_distance_km":43.463,"amap_marker_url":"https://uri.amap.com/marker?position=122.077468,41.083908&name=%E5%96%B5%E6%B1%AA%E4%B9%90%E5%AE%A0%E7%89%A9%E8%8D%AF%E6%88%BF&src=vetmap&coordinate=gaode&callnative=1","route_id":"r1","route_name":"第1段"},{"name":"宠杏里动物诊疗","address":"田家总部生态城C区1-4","phone":"13188557664","category":"医疗保健服务;动物医疗场所;宠物诊所","area":"","lng":122.091224,"lat":41.087978,"amap_id":"B0JULHM06W","order":15,"prev_distance_km":1.239,"cumulative_distance_km":44.702,"amap_marker_url":"https://uri.amap.com/marker?position=122.091224,41.087978&name=%E5%AE%A0%E6%9D%8F%E9%87%8C%E5%8A%A8%E7%89%A9%E8%AF%8A%E7%96%97&src=vetmap&coordinate=gaode&callnative=1","route_id":"r1","route_name":"第1段"}]}],"rows":[{"name":"地利兽药店","address":"雨润路与305国道交叉口北40米","phone":"0427-6727814;13604239704","category":"医疗保健服务;动物医疗场所;动物医疗场所","area":"","lng":122.124087,"lat":40.833383,"amap_id":"B0FFFWOLAC","order":1,"prev_distance_km":0.0,"cumulative_distance_km":0.0,"amap_marker_url":"https://uri.amap.com/marker?position=122.124087,40.833383&name=%E5%9C%B0%E5%88%A9%E5%85%BD%E8%8D%AF%E5%BA%97&src=vetmap&coordinate=gaode&callnative=1","route_id":"r1","route_name":"第1段","global_order":1},{"name":"利洋水产药店(西安店)","address":"西安镇医院北","phone":"13604278929","category":"医疗保健服务;动物医疗场所;兽医站","area":"","lng":122.24627,"lat":40.927194,"amap_id":"B0FFIZ3W6W","order":2,"prev_distance_km":14.64,"cumulative_distance_km":14.64,"amap_marker_url":"https://uri.amap.com/marker?position=122.246270,40.927194&name=%E5%88%A9%E6%B4%8B%E6%B0%B4%E4%BA%A7%E8%8D%AF%E5%BA%97%28%E8%A5%BF%E5%AE%89%E5%BA%97%29&src=vetmap&coordinate=gaode&callnative=1","route_id":"r1","route_name":"第1段","global_order":2},{"name":"天爱宠物诊所","address":"向海大道与金源街交叉口西100米","phone":"15604270535","category":"医疗保健服务;动物医疗场所;宠物诊所","area":"","lng":122.079652,"lat":40.98832,"amap_id":"B0FFJMJZJA","order":3,"prev_distance_km":15.555,"cumulative_distance_km":30.195,"amap_marker_url":"https://uri.amap.com/marker?position=122.079652,40.988320&name=%E5%A4%A9%E7%88%B1%E5%AE%A0%E7%89%A9%E8%AF%8A%E6%89%80&src=vetmap&coordinate=gaode&callnative=1","route_id":"r1","route_name":"第1段","global_order":3},{"name":"宠益友宠物医院.外科.眼科.骨科.内窥镜","address":"东湖胜景西门旁","phone":"0427-3451120;19304267575","category":"医疗保健服务;动物医疗场所;宠物诊所","area":"","lng":122.076697,"lat":40.991488,"amap_id":"B0H16H0FJQ","order":4,"prev_distance_km":0.431,"cumulative_distance_km":30.626,"amap_marker_url":"https://uri.amap.com/marker?position=122.076697,40.991488&name=%E5%AE%A0%E7%9B%8A%E5%8F%8B%E5%AE%A0%E7%89%A9%E5%8C%BB%E9%99%A2.%E5%A4%96%E7%A7%91.%E7%9C%BC%E7%A7%91.%E9%AA%A8%E7%A7%91.%E5%86%85%E7%AA%A5%E9%95%9C&src=vetmap&coordinate=gaode&callnative=1","route_id":"r1","route_name":"第1段","global_order":4},{"name":"佳佳动物诊所","address":"鹤吉家居市场东门对面","phone":"18004279889","category":"医疗保健服务;动物医疗场所;宠物诊所","area":"","lng":122.071861,"lat":40.991964,"amap_id":"B0KAL7IIXX","order":5,"prev_distance_km":0.409,"cumulative_distance_km":31.035,"amap_marker_url":"https://uri.amap.com/marker?position=122.071861,40.991964&name=%E4%BD%B3%E4%BD%B3%E5%8A%A8%E7%89%A9%E8%AF%8A%E6%89%80&src=vetmap&coordinate=gaode&callnative=1","route_id":"r1","route_name":"第1段","global_order":5},{"name":"仁安宠物医院","address":"凤凰城小区南门","phone":"13942719611","category":"医疗保健服务;动物医疗场所;宠物诊所","area":"","lng":122.064383,"lat":40.994344,"amap_id":"B0FFJZVAF9","order":6,"prev_distance_km":0.681,"cumulative_distance_km":31.716,"amap_marker_url":"https://uri.amap.com/marker?position=122.064383,40.994344&name=%E4%BB%81%E5%AE%89%E5%AE%A0%E7%89%A9%E5%8C%BB%E9%99%A2&src=vetmap&coordinate=gaode&callnative=1","route_id":"r1","route_name":"第1段","global_order":6},{"name":"屋旺宠物美容工作室","address":"鑫华国际西门7号生鲜超市南侧200米B18-109","phone":"13324255971","category":"医疗保健服务;动物医疗场所;动物医疗场所","area":"","lng":122.073213,"lat":41.006009,"amap_id":"B0K1NRM5VI","order":7,"prev_distance_km":1.494,"cumulative_distance_km":33.21,"amap_marker_url":"https://uri.amap.com/marker?position=122.073213,41.006009&name=%E5%B1%8B%E6%97%BA%E5%AE%A0%E7%89%A9%E7%BE%8E%E5%AE%B9%E5%B7%A5%E4%BD%9C%E5%AE%A4&src=vetmap&coordinate=gaode&callnative=1","route_id":"r1","route_name":"第1段","global_order":7},{"name":"安心宠物诊疗","address":"田家街道林海景天三期31层1-42-4室","phone":"17704277727","category":"医疗保健服务;动物医疗场所;宠物诊所","area":"","lng":122.073049,"lat":41.074362,"amap_id":"B0KR7DH4UK","order":8,"prev_distance_km":7.601,"cumulative_distance_km":40.811,"amap_marker_url":"https://uri.amap.com/marker?position=122.073049,41.074362&name=%E5%AE%89%E5%BF%83%E5%AE%A0%E7%89%A9%E8%AF%8A%E7%96%97&src=vetmap&coordinate=gaode&callnative=1","route_id":"r1","route_name":"第1段","global_order":8},{"name":"汇宠动物诊所","address":"田家村田家建材市场综合楼13商网","phone":"13624271717","category":"医疗保健服务;动物医疗场所;宠物诊所","area":"","lng":122.073863,"lat":41.075655,"amap_id":"B0KACSNYUR","order":9,"prev_distance_km":0.159,"cumulative_distance_km":40.97,"amap_marker_url":"https://uri.amap.com/marker?position=122.073863,41.075655&name=%E6%B1%87%E5%AE%A0%E5%8A%A8%E7%89%A9%E8%AF%8A%E6%89%80&src=vetmap&coordinate=gaode&callnative=1","route_id":"r1","route_name":"第1段","global_order":9},{"name":"芭比堂动物医院(枫苑分院)","address":"泰山中路林海景天林枫苑W2号商网02号","phone":"0427-3470120","category":"医疗保健服务;动物医疗场所;宠物诊所","area":"","lng":122.072793,"lat":41.076325,"amap_id":"B0L22YZOU2","order":10,"prev_distance_km":0.117,"cumulative_distance_km":41.087,"amap_marker_url":"https://uri.amap.com/marker?position=122.072793,41.076325&name=%E8%8A%AD%E6%AF%94%E5%A0%82%E5%8A%A8%E7%89%A9%E5%8C%BB%E9%99%A2%28%E6%9E%AB%E8%8B%91%E5%88%86%E9%99%A2%29&src=vetmap&coordinate=gaode&callnative=1","route_id":"r1","route_name":"第1段","global_order":10},{"name":"裕宠动物诊所(亿居智汇城A座店)","address":"亿居智汇城A座","phone":"13842761105","category":"医疗保健服务;动物医疗场所;宠物诊所","area":"","lng":122.072872,"lat":41.083416,"amap_id":"B0FFKG1SUX","order":11,"prev_distance_km":0.789,"cumulative_distance_km":41.875,"amap_marker_url":"https://uri.amap.com/marker?position=122.072872,41.083416&name=%E8%A3%95%E5%AE%A0%E5%8A%A8%E7%89%A9%E8%AF%8A%E6%89%80%28%E4%BA%BF%E5%B1%85%E6%99%BA%E6%B1%87%E5%9F%8EA%E5%BA%A7%E5%BA%97%29&src=vetmap&coordinate=gaode&callnative=1","route_id":"r1","route_name":"第1段","global_order":11},{"name":"佳仁动物医院","address":"田家街道富田小区综合网点楼2-83-8室","phone":"13028259566","category":"医疗保健服务;动物医疗场所;宠物诊所","area":"","lng":122.072163,"lat":41.088694,"amap_id":"B0K0NUGFHN","order":12,"prev_distance_km":0.59,"cumulative_distance_km":42.465,"amap_marker_url":"https://uri.amap.com/marker?position=122.072163,41.088694&name=%E4%BD%B3%E4%BB%81%E5%8A%A8%E7%89%A9%E5%8C%BB%E9%99%A2&src=vetmap&coordinate=gaode&callnative=1","route_id":"r1","route_name":"第1段","global_order":12},{"name":"大洼区吴楠宠物医院","address":"昆仑云景一期八号商网","phone":"13030775305;15041265621","category":"医疗保健服务;动物医疗场所;宠物诊所","area":"","lng":122.072911,"lat":41.09031,"amap_id":"B0H1PHQNLR","order":13,"prev_distance_km":0.19,"cumulative_distance_km":42.655,"amap_marker_url":"https://uri.amap.com/marker?position=122.072911,41.090310&name=%E5%A4%A7%E6%B4%BC%E5%8C%BA%E5%90%B4%E6%A5%A0%E5%AE%A0%E7%89%A9%E5%8C%BB%E9%99%A2&src=vetmap&coordinate=gaode&callnative=1","route_id":"r1","route_name":"第1段","global_order":13},{"name":"喵汪乐宠物药房","address":"田家街道亿居新城小区1号楼2单元1-1室","phone":"13904927489;15898221204","category":"医疗保健服务;动物医疗场所;动物医疗场所","area":"","lng":122.077468,"lat":41.083908,"amap_id":"B0LDNSNRCS","order":14,"prev_distance_km":0.808,"cumulative_distance_km":43.463,"amap_marker_url":"https://uri.amap.com/marker?position=122.077468,41.083908&name=%E5%96%B5%E6%B1%AA%E4%B9%90%E5%AE%A0%E7%89%A9%E8%8D%AF%E6%88%BF&src=vetmap&coordinate=gaode&callnative=1","route_id":"r1","route_name":"第1段","global_order":14},{"name":"宠杏里动物诊疗","address":"田家总部生态城C区1-4","phone":"13188557664","category":"医疗保健服务;动物医疗场所;宠物诊所","area":"","lng":122.091224,"lat":41.087978,"amap_id":"B0JULHM06W","order":15,"prev_distance_km":1.239,"cumulative_distance_km":44.702,"amap_marker_url":"https://uri.amap.com/marker?position=122.091224,41.087978&name=%E5%AE%A0%E6%9D%8F%E9%87%8C%E5%8A%A8%E7%89%A9%E8%AF%8A%E7%96%97&src=vetmap&coordinate=gaode&callnative=1","route_id":"r1","route_name":"第1段","global_order":15}]}