{"summary":{"id":"d01772","province":"辽宁省","city":"鞍山市","district":"海城市","count":59,"route_count":2,"max_route_clinics":30,"total_distance_km":128.732,"coordinate_system":"GCJ-02 / Amap","generated_at":"2026-05-07 21:30:52"},"routes":[{"id":"r1","name":"第1段","count":30,"total_distance_km":69.529,"rows":[{"name":"金牧兽药店","address":"园区路与322省道交叉口北50米","phone":"0412-3870436","category":"医疗保健服务;动物医疗场所;动物医疗场所","area":"","lng":122.561026,"lat":40.815185,"amap_id":"B0FFFT5ZYD","order":1,"prev_distance_km":0.0,"cumulative_distance_km":0.0,"amap_marker_url":"https://uri.amap.com/marker?position=122.561026,40.815185&name=%E9%87%91%E7%89%A7%E5%85%BD%E8%8D%AF%E5%BA%97&src=vetmap&coordinate=gaode&callnative=1","route_id":"r1","route_name":"第1段"},{"name":"洋·宠物课代表","address":"西柳镇美馨一期8号楼南1","phone":"17696696197;18624120344","category":"医疗保健服务;动物医疗场所;动物医疗场所","area":"","lng":122.622436,"lat":40.847736,"amap_id":"B0LDYHYIHX","order":2,"prev_distance_km":6.308,"cumulative_distance_km":6.308,"amap_marker_url":"https://uri.amap.com/marker?position=122.622436,40.847736&name=%E6%B4%8B%C2%B7%E5%AE%A0%E7%89%A9%E8%AF%BE%E4%BB%A3%E8%A1%A8&src=vetmap&coordinate=gaode&callnative=1","route_id":"r1","route_name":"第1段"},{"name":"宠乐缘动物诊所","address":"西柳镇(晓燕超市南8米)","phone":"15242142411","category":"医疗保健服务;动物医疗场所;宠物诊所","area":"","lng":122.636108,"lat":40.850555,"amap_id":"B0FFFT6650","order":3,"prev_distance_km":1.192,"cumulative_distance_km":7.5,"amap_marker_url":"https://uri.amap.com/marker?position=122.636108,40.850555&name=%E5%AE%A0%E4%B9%90%E7%BC%98%E5%8A%A8%E7%89%A9%E8%AF%8A%E6%89%80&src=vetmap&coordinate=gaode&callnative=1","route_id":"r1","route_name":"第1段"},{"name":"嘉宾兽药店","address":"毛祁镇人民政府对面","phone":"","category":"医疗保健服务;动物医疗场所;动物医疗场所","area":"","lng":122.70029,"lat":40.794225,"amap_id":"B0JUMS7KO9","order":4,"prev_distance_km":8.27,"cumulative_distance_km":15.771,"amap_marker_url":"https://uri.amap.com/marker?position=122.700290,40.794225&name=%E5%98%89%E5%AE%BE%E5%85%BD%E8%8D%AF%E5%BA%97&src=vetmap&coordinate=gaode&callnative=1","route_id":"r1","route_name":"第1段"},{"name":"宠缘动物诊所","address":"响堂管理区荒岭委民生雅居永欣街31-S1","phone":"15004127771","category":"医疗保健服务;动物医疗场所;宠物诊所","area":"","lng":122.736234,"lat":40.839087,"amap_id":"B0J1P529IQ","order":5,"prev_distance_km":5.834,"cumulative_distance_km":21.605,"amap_marker_url":"https://uri.amap.com/marker?position=122.736234,40.839087&name=%E5%AE%A0%E7%BC%98%E5%8A%A8%E7%89%A9%E8%AF%8A%E6%89%80&src=vetmap&coordinate=gaode&callnative=1","route_id":"r1","route_name":"第1段"},{"name":"希旺宠物医院","address":"阳光锦都东北门北60米","phone":"15941249128","category":"医疗保健服务;动物医疗场所;宠物诊所","area":"","lng":122.73675,"lat":40.844475,"amap_id":"B0K675BMO8","order":6,"prev_distance_km":0.601,"cumulative_distance_km":22.205,"amap_marker_url":"https://uri.amap.com/marker?position=122.736750,40.844475&name=%E5%B8%8C%E6%97%BA%E5%AE%A0%E7%89%A9%E5%8C%BB%E9%99%A2&src=vetmap&coordinate=gaode&callnative=1","route_id":"r1","route_name":"第1段"},{"name":"金朝动物诊所","address":"御景尚品109号","phone":"","category":"医疗保健服务;动物医疗场所;宠物诊所","area":"","lng":122.741869,"lat":40.842222,"amap_id":"B0K1Y9DLXU","order":7,"prev_distance_km":0.498,"cumulative_distance_km":22.703,"amap_marker_url":"https://uri.amap.com/marker?position=122.741869,40.842222&name=%E9%87%91%E6%9C%9D%E5%8A%A8%E7%89%A9%E8%AF%8A%E6%89%80&src=vetmap&coordinate=gaode&callnative=1","route_id":"r1","route_name":"第1段"},{"name":"宠爱动物诊所","address":"新曹线与新立转盘交叉口西南80米","phone":"15124159206","category":"医疗保健服务;动物医疗场所;宠物诊所","area":"","lng":122.745576,"lat":40.83883,"amap_id":"B0FFH8CER5","order":8,"prev_distance_km":0.489,"cumulative_distance_km":23.193,"amap_marker_url":"https://uri.amap.com/marker?position=122.745576,40.838830&name=%E5%AE%A0%E7%88%B1%E5%8A%A8%E7%89%A9%E8%AF%8A%E6%89%80&src=vetmap&coordinate=gaode&callnative=1","route_id":"r1","route_name":"第1段"},{"name":"长富兽药","address":"海州街道南关街新立委","phone":"13941269662","category":"医疗保健服务;动物医疗场所;兽医站","area":"","lng":122.748604,"lat":40.836381,"amap_id":"B0FFG2L1YP","order":9,"prev_distance_km":0.373,"cumulative_distance_km":23.566,"amap_marker_url":"https://uri.amap.com/marker?position=122.748604,40.836381&name=%E9%95%BF%E5%AF%8C%E5%85%BD%E8%8D%AF&src=vetmap&coordinate=gaode&callnative=1","route_id":"r1","route_name":"第1段"},{"name":"众鑫动物医院","address":"新立转盘与海岫路交叉口东南200米","phone":"0412-3215688;13610983354;13942280039","category":"医疗保健服务;动物医疗场所;宠物诊所","area":"","lng":122.747723,"lat":40.83857,"amap_id":"B0FFI8BU9K","order":10,"prev_distance_km":0.254,"cumulative_distance_km":23.82,"amap_marker_url":"https://uri.amap.com/marker?position=122.747723,40.838570&name=%E4%BC%97%E9%91%AB%E5%8A%A8%E7%89%A9%E5%8C%BB%E9%99%A2&src=vetmap&coordinate=gaode&callnative=1","route_id":"r1","route_name":"第1段"},{"name":"金海缘动物诊所","address":"海州管理区南关街桥东滨河东路3-S14号","phone":"15164232917","category":"医疗保健服务;动物医疗场所;宠物诊所","area":"","lng":122.747385,"lat":40.838948,"amap_id":"B0FFH8Q1GN","order":11,"prev_distance_km":0.051,"cumulative_distance_km":23.871,"amap_marker_url":"https://uri.amap.com/marker?position=122.747385,40.838948&name=%E9%87%91%E6%B5%B7%E7%BC%98%E5%8A%A8%E7%89%A9%E8%AF%8A%E6%89%80&src=vetmap&coordinate=gaode&callnative=1","route_id":"r1","route_name":"第1段"},{"name":"伙伴宠物店","address":"滨河北路与益民街交叉口东北50米","phone":"13478044911","category":"医疗保健服务;动物医疗场所;宠物诊所","area":"西关","lng":122.744744,"lat":40.847081,"amap_id":"B0FFH37XTS","order":12,"prev_distance_km":0.931,"cumulative_distance_km":24.802,"amap_marker_url":"https://uri.amap.com/marker?position=122.744744,40.847081&name=%E4%BC%99%E4%BC%B4%E5%AE%A0%E7%89%A9%E5%BA%97&src=vetmap&coordinate=gaode&callnative=1","route_id":"r1","route_name":"第1段"},{"name":"翼龙宠物门诊","address":"中基·财富广场东门南60米","phone":"13704923813","category":"医疗保健服务;动物医疗场所;宠物诊所","area":"西关","lng":122.743546,"lat":40.847965,"amap_id":"B0FFL7DNDB","order":13,"prev_distance_km":0.141,"cumulative_distance_km":24.943,"amap_marker_url":"https://uri.amap.com/marker?position=122.743546,40.847965&name=%E7%BF%BC%E9%BE%99%E5%AE%A0%E7%89%A9%E9%97%A8%E8%AF%8A&src=vetmap&coordinate=gaode&callnative=1","route_id":"r1","route_name":"第1段"},{"name":"海城市恒爱宠物服务公司","address":"震兴路与环城东路交叉口西100米","phone":"15124106222","category":"医疗保健服务;动物医疗场所;动物医疗场所","area":"","lng":122.755857,"lat":40.849541,"amap_id":"B0LAT1ZH4D","order":14,"prev_distance_km":1.05,"cumulative_distance_km":25.993,"amap_marker_url":"https://uri.amap.com/marker?position=122.755857,40.849541&name=%E6%B5%B7%E5%9F%8E%E5%B8%82%E6%81%92%E7%88%B1%E5%AE%A0%E7%89%A9%E6%9C%8D%E5%8A%A1%E5%85%AC%E5%8F%B8&src=vetmap&coordinate=gaode&callnative=1","route_id":"r1","route_name":"第1段"},{"name":"威威宠物","address":"震兴路52号芳草家园","phone":"","category":"购物服务;专卖店;宠物用品店|医疗保健服务;动物医疗场所;动物医疗场所","area":"","lng":122.748425,"lat":40.851175,"amap_id":"B0L14R30RY","order":15,"prev_distance_km":0.651,"cumulative_distance_km":26.644,"amap_marker_url":"https://uri.amap.com/marker?position=122.748425,40.851175&name=%E5%A8%81%E5%A8%81%E5%AE%A0%E7%89%A9&src=vetmap&coordinate=gaode&callnative=1","route_id":"r1","route_name":"第1段"},{"name":"联合宠物诊所","address":"哈大路米其林轮胎道口里走第二个门店","phone":"13464999188","category":"医疗保健服务;动物医疗场所;宠物诊所","area":"海州大街","lng":122.742848,"lat":40.85722,"amap_id":"B0J3OAM53O","order":16,"prev_distance_km":0.82,"cumulative_distance_km":27.464,"amap_marker_url":"https://uri.amap.com/marker?position=122.742848,40.857220&name=%E8%81%94%E5%90%88%E5%AE%A0%E7%89%A9%E8%AF%8A%E6%89%80&src=vetmap&coordinate=gaode&callnative=1","route_id":"r1","route_name":"第1段"},{"name":"晓宇宠物店","address":"兴海大街与兴工街交叉口西北160米","phone":"","category":"医疗保健服务;动物医疗场所;动物医疗场所","area":"","lng":122.732395,"lat":40.863397,"amap_id":"B0KKZZTAEL","order":17,"prev_distance_km":1.116,"cumulative_distance_km":28.579,"amap_marker_url":"https://uri.amap.com/marker?position=122.732395,40.863397&name=%E6%99%93%E5%AE%87%E5%AE%A0%E7%89%A9%E5%BA%97&src=vetmap&coordinate=gaode&callnative=1","route_id":"r1","route_name":"第1段"},{"name":"验军动物诊所","address":"兴业街西50米","phone":"13390341166","category":"医疗保健服务;动物医疗场所;宠物诊所","area":"","lng":122.74244,"lat":40.886988,"amap_id":"B0FFH7UQBO","order":18,"prev_distance_km":2.756,"cumulative_distance_km":31.335,"amap_marker_url":"https://uri.amap.com/marker?position=122.742440,40.886988&name=%E9%AA%8C%E5%86%9B%E5%8A%A8%E7%89%A9%E8%AF%8A%E6%89%80&src=vetmap&coordinate=gaode&callnative=1","route_id":"r1","route_name":"第1段"},{"name":"海城市沐森动物医院","address":"海墅逸城长江路202甲-4-S3门市","phone":"13081247931","category":"医疗保健服务;动物医疗场所;宠物诊所","area":"","lng":122.717159,"lat":40.865569,"amap_id":"B0LA5URHRQ","order":19,"prev_distance_km":3.192,"cumulative_distance_km":34.527,"amap_marker_url":"https://uri.amap.com/marker?position=122.717159,40.865569&name=%E6%B5%B7%E5%9F%8E%E5%B8%82%E6%B2%90%E6%A3%AE%E5%8A%A8%E7%89%A9%E5%8C%BB%E9%99%A2&src=vetmap&coordinate=gaode&callnative=1","route_id":"r1","route_name":"第1段"},{"name":"安愈动物医院","address":"碧桂园196-S1门市","phone":"13464931979","category":"医疗保健服务;动物医疗场所;宠物诊所","area":"","lng":122.713722,"lat":40.867142,"amap_id":"B0LDGSC17T","order":20,"prev_distance_km":0.338,"cumulative_distance_km":34.865,"amap_marker_url":"https://uri.amap.com/marker?position=122.713722,40.867142&name=%E5%AE%89%E6%84%88%E5%8A%A8%E7%89%A9%E5%8C%BB%E9%99%A2&src=vetmap&coordinate=gaode&callnative=1","route_id":"r1","route_name":"第1段"},{"name":"海城市华跃动物医院","address":"长江路23号","phone":"0412-3333899;13081249887","category":"医疗保健服务;动物医疗场所;宠物诊所","area":"","lng":122.710699,"lat":40.869469,"amap_id":"B0JBF544AM","order":21,"prev_distance_km":0.363,"cumulative_distance_km":35.228,"amap_marker_url":"https://uri.amap.com/marker?position=122.710699,40.869469&name=%E6%B5%B7%E5%9F%8E%E5%B8%82%E5%8D%8E%E8%B7%83%E5%8A%A8%E7%89%A9%E5%8C%BB%E9%99%A2&src=vetmap&coordinate=gaode&callnative=1","route_id":"r1","route_name":"第1段"},{"name":"家仪爱宠动物医院","address":"兴海大街北50米","phone":"0412-3380123;18641256109","category":"医疗保健服务;动物医疗场所;宠物诊所","area":"","lng":122.706854,"lat":40.878335,"amap_id":"B0FFG10F0X","order":22,"prev_distance_km":1.038,"cumulative_distance_km":36.265,"amap_marker_url":"https://uri.amap.com/marker?position=122.706854,40.878335&name=%E5%AE%B6%E4%BB%AA%E7%88%B1%E5%AE%A0%E5%8A%A8%E7%89%A9%E5%8C%BB%E9%99%A2&src=vetmap&coordinate=gaode&callnative=1","route_id":"r1","route_name":"第1段"},{"name":"壹心宠物医院","address":"二台子新村西南1门东90米","phone":"13081219791;13081239791","category":"医疗保健服务;动物医疗场所;宠物诊所","area":"","lng":122.694308,"lat":40.874735,"amap_id":"B0I39C06H8","order":23,"prev_distance_km":1.128,"cumulative_distance_km":37.394,"amap_marker_url":"https://uri.amap.com/marker?position=122.694308,40.874735&name=%E5%A3%B9%E5%BF%83%E5%AE%A0%E7%89%A9%E5%8C%BB%E9%99%A2&src=vetmap&coordinate=gaode&callnative=1","route_id":"r1","route_name":"第1段"},{"name":"希瑞动物医院","address":"唯美品格3期19栋S7","phone":"13940917263","category":"医疗保健服务;动物医疗场所;宠物诊所","area":"","lng":122.687677,"lat":40.875556,"amap_id":"B0LK9RBKVW","order":24,"prev_distance_km":0.565,"cumulative_distance_km":37.959,"amap_marker_url":"https://uri.amap.com/marker?position=122.687677,40.875556&name=%E5%B8%8C%E7%91%9E%E5%8A%A8%E7%89%A9%E5%8C%BB%E9%99%A2&src=vetmap&coordinate=gaode&callnative=1","route_id":"r1","route_name":"第1段"},{"name":"宋微兽药店","address":"东盛园2号楼5号门店","phone":"","category":"医疗保健服务;动物医疗场所;动物医疗场所","area":"东四","lng":122.636621,"lat":40.903036,"amap_id":"B0JR7ZFQ7K","order":25,"prev_distance_km":5.268,"cumulative_distance_km":43.227,"amap_marker_url":"https://uri.amap.com/marker?position=122.636621,40.903036&name=%E5%AE%8B%E5%BE%AE%E5%85%BD%E8%8D%AF%E5%BA%97&src=vetmap&coordinate=gaode&callnative=1","route_id":"r1","route_name":"第1段"},{"name":"泽农兽药店","address":"颐景嘉园西南门西90米","phone":"0412-3342103;13941253966","category":"医疗保健服务;动物医疗场所;动物医疗场所","area":"东四","lng":122.631603,"lat":40.90457,"amap_id":"B0FFFYGSPR","order":26,"prev_distance_km":0.455,"cumulative_distance_km":43.682,"amap_marker_url":"https://uri.amap.com/marker?position=122.631603,40.904570&name=%E6%B3%BD%E5%86%9C%E5%85%BD%E8%8D%AF%E5%BA%97&src=vetmap&coordinate=gaode&callnative=1","route_id":"r1","route_name":"第1段"},{"name":"力健家禽兽药店","address":"城南饭店东侧60米","phone":"15904126999","category":"医疗保健服务;动物医疗场所;动物医疗场所","area":"","lng":122.523707,"lat":40.943076,"amap_id":"B0G1ZK0DOJ","order":27,"prev_distance_km":10.025,"cumulative_distance_km":53.707,"amap_marker_url":"https://uri.amap.com/marker?position=122.523707,40.943076&name=%E5%8A%9B%E5%81%A5%E5%AE%B6%E7%A6%BD%E5%85%BD%E8%8D%AF%E5%BA%97&src=vetmap&coordinate=gaode&callnative=1","route_id":"r1","route_name":"第1段"},{"name":"晟康兽药店","address":"望赵线东侧","phone":"","category":"医疗保健服务;动物医疗场所;动物医疗场所","area":"","lng":122.616071,"lat":40.973526,"amap_id":"B0KRKD3MC1","order":28,"prev_distance_km":8.463,"cumulative_distance_km":62.17,"amap_marker_url":"https://uri.amap.com/marker?position=122.616071,40.973526&name=%E6%99%9F%E5%BA%B7%E5%85%BD%E8%8D%AF%E5%BA%97&src=vetmap&coordinate=gaode&callnative=1","route_id":"r1","route_name":"第1段"},{"name":"耿庄动物诊所","address":"西耿村村民委员会东侧150米","phone":"0412-3584434","category":"医疗保健服务;动物医疗场所;宠物诊所","area":"","lng":122.701646,"lat":40.98786,"amap_id":"B019C0OM7B","order":29,"prev_distance_km":7.358,"cumulative_distance_km":69.529,"amap_marker_url":"https://uri.amap.com/marker?position=122.701646,40.987860&name=%E8%80%BF%E5%BA%84%E5%8A%A8%E7%89%A9%E8%AF%8A%E6%89%80&src=vetmap&coordinate=gaode&callnative=1","route_id":"r1","route_name":"第1段"},{"name":"秦氏动物诊所","address":"新城路","phone":"","category":"医疗保健服务;动物医疗场所;宠物诊所","area":"","lng":122.701647,"lat":40.98786,"amap_id":"B0HA7HYFRF","order":30,"prev_distance_km":0.0,"cumulative_distance_km":69.529,"amap_marker_url":"https://uri.amap.com/marker?position=122.701647,40.987860&name=%E7%A7%A6%E6%B0%8F%E5%8A%A8%E7%89%A9%E8%AF%8A%E6%89%80&src=vetmap&coordinate=gaode&callnative=1","route_id":"r1","route_name":"第1段"}]},{"id":"r2","name":"第2段","count":29,"total_distance_km":59.203,"rows":[{"name":"海城市同正兽药店","address":"马风镇百盛园小区5-6号楼4号","phone":"15841279893","category":"医疗保健服务;动物医疗场所;动物医疗场所","area":"","lng":122.912265,"lat":40.807983,"amap_id":"B0L0XAL39X","order":1,"prev_distance_km":0.0,"cumulative_distance_km":0.0,"amap_marker_url":"https://uri.amap.com/marker?position=122.912265,40.807983&name=%E6%B5%B7%E5%9F%8E%E5%B8%82%E5%90%8C%E6%AD%A3%E5%85%BD%E8%8D%AF%E5%BA%97&src=vetmap&coordinate=gaode&callnative=1","route_id":"r2","route_name":"第2段"},{"name":"鑫宠宠物诊所","address":"牌楼镇东林小城印象4-5号楼5号","phone":"17261605216","category":"医疗保健服务;动物医疗场所;宠物诊所","area":"","lng":122.824,"lat":40.740663,"amap_id":"B0KG7AXSVI","order":2,"prev_distance_km":10.549,"cumulative_distance_km":10.549,"amap_marker_url":"https://uri.amap.com/marker?position=122.824000,40.740663&name=%E9%91%AB%E5%AE%A0%E5%AE%A0%E7%89%A9%E8%AF%8A%E6%89%80&src=vetmap&coordinate=gaode&callnative=1","route_id":"r2","route_name":"第2段"},{"name":"康盛兽药店","address":"东八里卫生所东南侧70米","phone":"","category":"医疗保健服务;动物医疗场所;兽医站","area":"","lng":122.755875,"lat":40.787061,"amap_id":"B0FFFYZGIA","order":3,"prev_distance_km":7.716,"cumulative_distance_km":18.265,"amap_marker_url":"https://uri.amap.com/marker?position=122.755875,40.787061&name=%E5%BA%B7%E7%9B%9B%E5%85%BD%E8%8D%AF%E5%BA%97&src=vetmap&coordinate=gaode&callnative=1","route_id":"r2","route_name":"第2段"},{"name":"海城济宠动物医院·转诊中心·核磁·CT·骨科·眼科·异宠","address":"百汇香山B地块C10栋S1号","phone":"15842206203","category":"医疗保健服务;动物医疗场所;宠物诊所","area":"","lng":122.763926,"lat":40.837109,"amap_id":"B0HGJMIGGK","order":4,"prev_distance_km":5.606,"cumulative_distance_km":23.871,"amap_marker_url":"https://uri.amap.com/marker?position=122.763926,40.837109&name=%E6%B5%B7%E5%9F%8E%E6%B5%8E%E5%AE%A0%E5%8A%A8%E7%89%A9%E5%8C%BB%E9%99%A2%C2%B7%E8%BD%AC%E8%AF%8A%E4%B8%AD%E5%BF%83%C2%B7%E6%A0%B8%E7%A3%81%C2%B7CT%C2%B7%E9%AA%A8%E7%A7%91%C2%B7%E7%9C%BC%E7%A7%91%C2%B7%E5%BC%82%E5%AE%A0&src=vetmap&coordinate=gaode&callnative=1","route_id":"r2","route_name":"第2段"},{"name":"24小时关爱动物医院","address":"同泽路10甲楼","phone":"13188002746","category":"医疗保健服务;动物医疗场所;宠物诊所","area":"","lng":122.756876,"lat":40.841962,"amap_id":"B0LD773VT2","order":5,"prev_distance_km":0.802,"cumulative_distance_km":24.673,"amap_marker_url":"https://uri.amap.com/marker?position=122.756876,40.841962&name=24%E5%B0%8F%E6%97%B6%E5%85%B3%E7%88%B1%E5%8A%A8%E7%89%A9%E5%8C%BB%E9%99%A2&src=vetmap&coordinate=gaode&callnative=1","route_id":"r2","route_name":"第2段"},{"name":"鹏鹏动物诊所","address":"海州街道公园里S3-1栋","phone":"17624200804","category":"医疗保健服务;动物医疗场所;宠物诊所","area":"","lng":122.76158,"lat":40.846978,"amap_id":"B0J0K5VRN1","order":6,"prev_distance_km":0.684,"cumulative_distance_km":25.357,"amap_marker_url":"https://uri.amap.com/marker?position=122.761580,40.846978&name=%E9%B9%8F%E9%B9%8F%E5%8A%A8%E7%89%A9%E8%AF%8A%E6%89%80&src=vetmap&coordinate=gaode&callnative=1","route_id":"r2","route_name":"第2段"},{"name":"佰旺宠物医院","address":"环城东路157号","phone":"13236800120","category":"医疗保健服务;动物医疗场所;宠物诊所","area":"","lng":122.761651,"lat":40.849634,"amap_id":"B0JK47KXL6","order":7,"prev_distance_km":0.295,"cumulative_distance_km":25.652,"amap_marker_url":"https://uri.amap.com/marker?position=122.761651,40.849634&name=%E4%BD%B0%E6%97%BA%E5%AE%A0%E7%89%A9%E5%8C%BB%E9%99%A2&src=vetmap&coordinate=gaode&callnative=1","route_id":"r2","route_name":"第2段"},{"name":"桐鑫动物医院","address":"海富世家东门13号-G4门市","phone":"18641292220","category":"医疗保健服务;动物医疗场所;宠物诊所","area":"","lng":122.761875,"lat":40.85097,"amap_id":"B0IBRMO5GO","order":8,"prev_distance_km":0.15,"cumulative_distance_km":25.802,"amap_marker_url":"https://uri.amap.com/marker?position=122.761875,40.850970&name=%E6%A1%90%E9%91%AB%E5%8A%A8%E7%89%A9%E5%8C%BB%E9%99%A2&src=vetmap&coordinate=gaode&callnative=1","route_id":"r2","route_name":"第2段"},{"name":"它它宠物医院(城东路店)","address":"金东四季花城1号楼4号门店","phone":"0412-3837333","category":"医疗保健服务;动物医疗场所;宠物诊所","area":"","lng":122.764043,"lat":40.852012,"amap_id":"B0FFLQAPF4","order":9,"prev_distance_km":0.216,"cumulative_distance_km":26.018,"amap_marker_url":"https://uri.amap.com/marker?position=122.764043,40.852012&name=%E5%AE%83%E5%AE%83%E5%AE%A0%E7%89%A9%E5%8C%BB%E9%99%A2%28%E5%9F%8E%E4%B8%9C%E8%B7%AF%E5%BA%97%29&src=vetmap&coordinate=gaode&callnative=1","route_id":"r2","route_name":"第2段"},{"name":"凯威宠物","address":"海城市玻璃丝布厂综合楼1栋S1号门市","phone":"","category":"医疗保健服务;动物医疗场所;动物医疗场所","area":"","lng":122.763041,"lat":40.855265,"amap_id":"B0LD0S7E1W","order":10,"prev_distance_km":0.371,"cumulative_distance_km":26.389,"amap_marker_url":"https://uri.amap.com/marker?position=122.763041,40.855265&name=%E5%87%AF%E5%A8%81%E5%AE%A0%E7%89%A9&src=vetmap&coordinate=gaode&callnative=1","route_id":"r2","route_name":"第2段"},{"name":"臻诚宠物诊所","address":"新东一街19号","phone":"","category":"医疗保健服务;动物医疗场所;宠物诊所","area":"","lng":122.768165,"lat":40.857272,"amap_id":"B0LAA5GJ36","order":11,"prev_distance_km":0.485,"cumulative_distance_km":26.875,"amap_marker_url":"https://uri.amap.com/marker?position=122.768165,40.857272&name=%E8%87%BB%E8%AF%9A%E5%AE%A0%E7%89%A9%E8%AF%8A%E6%89%80&src=vetmap&coordinate=gaode&callnative=1","route_id":"r2","route_name":"第2段"},{"name":"仁和宠物医院(嘉和·阳光苑店)","address":"新东一街嘉和阳光苑","phone":"0412-3438899","category":"医疗保健服务;动物医疗场所;宠物诊所","area":"","lng":122.771149,"lat":40.858912,"amap_id":"B0FFIS026Q","order":12,"prev_distance_km":0.31,"cumulative_distance_km":27.185,"amap_marker_url":"https://uri.amap.com/marker?position=122.771149,40.858912&name=%E4%BB%81%E5%92%8C%E5%AE%A0%E7%89%A9%E5%8C%BB%E9%99%A2%28%E5%98%89%E5%92%8C%C2%B7%E9%98%B3%E5%85%89%E8%8B%91%E5%BA%97%29&src=vetmap&coordinate=gaode&callnative=1","route_id":"r2","route_name":"第2段"},{"name":"宠心缘宠物诊所","address":"海洲街道合力社区卫士南路4号楼南20号","phone":"13050044656","category":"医疗保健服务;动物医疗场所;宠物诊所","area":"","lng":122.755901,"lat":40.859488,"amap_id":"B0L107D9B7","order":13,"prev_distance_km":1.284,"cumulative_distance_km":28.469,"amap_marker_url":"https://uri.amap.com/marker?position=122.755901,40.859488&name=%E5%AE%A0%E5%BF%83%E7%BC%98%E5%AE%A0%E7%89%A9%E8%AF%8A%E6%89%80&src=vetmap&coordinate=gaode&callnative=1","route_id":"r2","route_name":"第2段"},{"name":"三里动物诊所","address":"海州街道三里村海州大街75号楼","phone":"15004123811;15042224528","category":"医疗保健服务;动物医疗场所;宠物诊所","area":"","lng":122.759241,"lat":40.875027,"amap_id":"B019C02OUY","order":14,"prev_distance_km":1.751,"cumulative_distance_km":30.219,"amap_marker_url":"https://uri.amap.com/marker?position=122.759241,40.875027&name=%E4%B8%89%E9%87%8C%E5%8A%A8%E7%89%A9%E8%AF%8A%E6%89%80&src=vetmap&coordinate=gaode&callnative=1","route_id":"r2","route_name":"第2段"},{"name":"松子宠物诊所(南耿线店)","address":"后龙竺安家园北门西50米","phone":"15141222062","category":"医疗保健服务;动物医疗场所;宠物诊所","area":"","lng":122.788395,"lat":40.923101,"amap_id":"B0GKU7J259","order":15,"prev_distance_km":5.88,"cumulative_distance_km":36.1,"amap_marker_url":"https://uri.amap.com/marker?position=122.788395,40.923101&name=%E6%9D%BE%E5%AD%90%E5%AE%A0%E7%89%A9%E8%AF%8A%E6%89%80%28%E5%8D%97%E8%80%BF%E7%BA%BF%E5%BA%97%29&src=vetmap&coordinate=gaode&callnative=1","route_id":"r2","route_name":"第2段"},{"name":"圆圆宠物美容","address":"碧雅祥居东北门东120米","phone":"15242220342","category":"医疗保健服务;动物医疗场所;动物医疗场所","area":"","lng":122.791988,"lat":40.922419,"amap_id":"B0I1AMBJFD","order":16,"prev_distance_km":0.311,"cumulative_distance_km":36.411,"amap_marker_url":"https://uri.amap.com/marker?position=122.791988,40.922419&name=%E5%9C%86%E5%9C%86%E5%AE%A0%E7%89%A9%E7%BE%8E%E5%AE%B9&src=vetmap&coordinate=gaode&callnative=1","route_id":"r2","route_name":"第2段"},{"name":"赵大夫动物诊所","address":"南台镇东越公寓正门西侧18米","phone":"13842225992","category":"医疗保健服务;动物医疗场所;兽医站","area":"","lng":122.798173,"lat":40.924213,"amap_id":"B0I1BC0S5N","order":17,"prev_distance_km":0.557,"cumulative_distance_km":36.968,"amap_marker_url":"https://uri.amap.com/marker?position=122.798173,40.924213&name=%E8%B5%B5%E5%A4%A7%E5%A4%AB%E5%8A%A8%E7%89%A9%E8%AF%8A%E6%89%80&src=vetmap&coordinate=gaode&callnative=1","route_id":"r2","route_name":"第2段"},{"name":"乐月宠物诊所","address":"沈营线与312乡道交叉口东北40米","phone":"13478025955","category":"医疗保健服务;动物医疗场所;宠物诊所","area":"","lng":122.762609,"lat":41.028191,"amap_id":"B0FFJRXFD4","order":18,"prev_distance_km":11.941,"cumulative_distance_km":48.909,"amap_marker_url":"https://uri.amap.com/marker?position=122.762609,41.028191&name=%E4%B9%90%E6%9C%88%E5%AE%A0%E7%89%A9%E8%AF%8A%E6%89%80&src=vetmap&coordinate=gaode&callnative=1","route_id":"r2","route_name":"第2段"},{"name":"康达宠物医院","address":"腾鳌镇华源名居一期北门","phone":"17154003333","category":"医疗保健服务;动物医疗场所;宠物诊所","area":"","lng":122.8212,"lat":41.078593,"amap_id":"B0FFKAVZD9","order":19,"prev_distance_km":7.453,"cumulative_distance_km":56.362,"amap_marker_url":"https://uri.amap.com/marker?position=122.821200,41.078593&name=%E5%BA%B7%E8%BE%BE%E5%AE%A0%E7%89%A9%E5%8C%BB%E9%99%A2&src=vetmap&coordinate=gaode&callnative=1","route_id":"r2","route_name":"第2段"},{"name":"壮壮宠物医院","address":"阳光丽景西南门旁","phone":"0412-8315999;15541290555","category":"医疗保健服务;动物医疗场所;宠物诊所","area":"","lng":122.820047,"lat":41.080058,"amap_id":"B0FFKJTO4S","order":20,"prev_distance_km":0.189,"cumulative_distance_km":56.551,"amap_marker_url":"https://uri.amap.com/marker?position=122.820047,41.080058&name=%E5%A3%AE%E5%A3%AE%E5%AE%A0%E7%89%A9%E5%8C%BB%E9%99%A2&src=vetmap&coordinate=gaode&callnative=1","route_id":"r2","route_name":"第2段"},{"name":"唐果宠物中心","address":"沈营线与大西门外街交叉口西100米","phone":"","category":"医疗保健服务;动物医疗场所;宠物诊所","area":"","lng":122.821728,"lat":41.081047,"amap_id":"B0JK7CR2HG","order":21,"prev_distance_km":0.179,"cumulative_distance_km":56.73,"amap_marker_url":"https://uri.amap.com/marker?position=122.821728,41.081047&name=%E5%94%90%E6%9E%9C%E5%AE%A0%E7%89%A9%E4%B8%AD%E5%BF%83&src=vetmap&coordinate=gaode&callnative=1","route_id":"r2","route_name":"第2段"},{"name":"博美康宠物医院","address":"保安街路路北106号001","phone":"13842220761","category":"医疗保健服务;动物医疗场所;宠物诊所","area":"","lng":122.823131,"lat":41.078888,"amap_id":"B0MBKYPNS3","order":22,"prev_distance_km":0.267,"cumulative_distance_km":56.997,"amap_marker_url":"https://uri.amap.com/marker?position=122.823131,41.078888&name=%E5%8D%9A%E7%BE%8E%E5%BA%B7%E5%AE%A0%E7%89%A9%E5%8C%BB%E9%99%A2&src=vetmap&coordinate=gaode&callnative=1","route_id":"r2","route_name":"第2段"},{"name":"博旺动物诊所","address":"腾鳌镇福聚华城A518(海城第四医院北门对面)","phone":"17614121523;18642230444","category":"医疗保健服务;动物医疗场所;宠物诊所","area":"","lng":122.825673,"lat":41.076479,"amap_id":"B0FFH62KS8","order":23,"prev_distance_km":0.342,"cumulative_distance_km":57.339,"amap_marker_url":"https://uri.amap.com/marker?position=122.825673,41.076479&name=%E5%8D%9A%E6%97%BA%E5%8A%A8%E7%89%A9%E8%AF%8A%E6%89%80&src=vetmap&coordinate=gaode&callnative=1","route_id":"r2","route_name":"第2段"},{"name":"鑫汇宠物诊所","address":"永南四街腾鳌老一中对面","phone":"","category":"医疗保健服务;动物医疗场所;宠物诊所","area":"","lng":122.83113,"lat":41.080999,"amap_id":"B0FFF3M4M1","order":24,"prev_distance_km":0.68,"cumulative_distance_km":58.019,"amap_marker_url":"https://uri.amap.com/marker?position=122.831130,41.080999&name=%E9%91%AB%E6%B1%87%E5%AE%A0%E7%89%A9%E8%AF%8A%E6%89%80&src=vetmap&coordinate=gaode&callnative=1","route_id":"r2","route_name":"第2段"},{"name":"海城市腾鳌镇仁爱宠物医院","address":"永安街道办永安路6-S3","phone":"","category":"医疗保健服务;动物医疗场所;宠物诊所","area":"","lng":122.835668,"lat":41.080491,"amap_id":"B0L6XMK6HK","order":25,"prev_distance_km":0.385,"cumulative_distance_km":58.404,"amap_marker_url":"https://uri.amap.com/marker?position=122.835668,41.080491&name=%E6%B5%B7%E5%9F%8E%E5%B8%82%E8%85%BE%E9%B3%8C%E9%95%87%E4%BB%81%E7%88%B1%E5%AE%A0%E7%89%A9%E5%8C%BB%E9%99%A2&src=vetmap&coordinate=gaode&callnative=1","route_id":"r2","route_name":"第2段"},{"name":"爱宠园宠物美容会馆","address":"水岸华庭东区东南1门西130米","phone":"","category":"医疗保健服务;动物医疗场所;宠物诊所","area":"","lng":122.835825,"lat":41.080475,"amap_id":"B0L3ASTHJ0","order":26,"prev_distance_km":0.013,"cumulative_distance_km":58.417,"amap_marker_url":"https://uri.amap.com/marker?position=122.835825,41.080475&name=%E7%88%B1%E5%AE%A0%E5%9B%AD%E5%AE%A0%E7%89%A9%E7%BE%8E%E5%AE%B9%E4%BC%9A%E9%A6%86&src=vetmap&coordinate=gaode&callnative=1","route_id":"r2","route_name":"第2段"},{"name":"宠物美容","address":"腾鳌镇颐水嘉德二期2号楼宠物美容","phone":"15714124567","category":"医疗保健服务;动物医疗场所;宠物诊所","area":"","lng":122.835295,"lat":41.076668,"amap_id":"B0FFJ84JER","order":27,"prev_distance_km":0.426,"cumulative_distance_km":58.842,"amap_marker_url":"https://uri.amap.com/marker?position=122.835295,41.076668&name=%E5%AE%A0%E7%89%A9%E7%BE%8E%E5%AE%B9&src=vetmap&coordinate=gaode&callnative=1","route_id":"r2","route_name":"第2段"},{"name":"凯萨宠物美容会馆","address":"腾鳌镇颐水嘉德二期10号楼西5门市","phone":"","category":"医疗保健服务;动物医疗场所;宠物诊所","area":"","lng":122.835809,"lat":41.075709,"amap_id":"B0J0XSD60D","order":28,"prev_distance_km":0.115,"cumulative_distance_km":58.957,"amap_marker_url":"https://uri.amap.com/marker?position=122.835809,41.075709&name=%E5%87%AF%E8%90%A8%E5%AE%A0%E7%89%A9%E7%BE%8E%E5%AE%B9%E4%BC%9A%E9%A6%86&src=vetmap&coordinate=gaode&callnative=1","route_id":"r2","route_name":"第2段"},{"name":"宠爱一生动物医院","address":"寿安街与谢家街交叉口西100米","phone":"","category":"医疗保健服务;动物医疗场所;宠物诊所","area":"","lng":122.838664,"lat":41.075229,"amap_id":"B0FFJ3EDXB","order":29,"prev_distance_km":0.245,"cumulative_distance_km":59.203,"amap_marker_url":"https://uri.amap.com/marker?position=122.838664,41.075229&name=%E5%AE%A0%E7%88%B1%E4%B8%80%E7%94%9F%E5%8A%A8%E7%89%A9%E5%8C%BB%E9%99%A2&src=vetmap&coordinate=gaode&callnative=1","route_id":"r2","route_name":"第2段"}]}],"rows":[{"name":"金牧兽药店","address":"园区路与322省道交叉口北50米","phone":"0412-3870436","category":"医疗保健服务;动物医疗场所;动物医疗场所","area":"","lng":122.561026,"lat":40.815185,"amap_id":"B0FFFT5ZYD","order":1,"prev_distance_km":0.0,"cumulative_distance_km":0.0,"amap_marker_url":"https://uri.amap.com/marker?position=122.561026,40.815185&name=%E9%87%91%E7%89%A7%E5%85%BD%E8%8D%AF%E5%BA%97&src=vetmap&coordinate=gaode&callnative=1","route_id":"r1","route_name":"第1段","global_order":1},{"name":"洋·宠物课代表","address":"西柳镇美馨一期8号楼南1","phone":"17696696197;18624120344","category":"医疗保健服务;动物医疗场所;动物医疗场所","area":"","lng":122.622436,"lat":40.847736,"amap_id":"B0LDYHYIHX","order":2,"prev_distance_km":6.308,"cumulative_distance_km":6.308,"amap_marker_url":"https://uri.amap.com/marker?position=122.622436,40.847736&name=%E6%B4%8B%C2%B7%E5%AE%A0%E7%89%A9%E8%AF%BE%E4%BB%A3%E8%A1%A8&src=vetmap&coordinate=gaode&callnative=1","route_id":"r1","route_name":"第1段","global_order":2},{"name":"宠乐缘动物诊所","address":"西柳镇(晓燕超市南8米)","phone":"15242142411","category":"医疗保健服务;动物医疗场所;宠物诊所","area":"","lng":122.636108,"lat":40.850555,"amap_id":"B0FFFT6650","order":3,"prev_distance_km":1.192,"cumulative_distance_km":7.5,"amap_marker_url":"https://uri.amap.com/marker?position=122.636108,40.850555&name=%E5%AE%A0%E4%B9%90%E7%BC%98%E5%8A%A8%E7%89%A9%E8%AF%8A%E6%89%80&src=vetmap&coordinate=gaode&callnative=1","route_id":"r1","route_name":"第1段","global_order":3},{"name":"嘉宾兽药店","address":"毛祁镇人民政府对面","phone":"","category":"医疗保健服务;动物医疗场所;动物医疗场所","area":"","lng":122.70029,"lat":40.794225,"amap_id":"B0JUMS7KO9","order":4,"prev_distance_km":8.27,"cumulative_distance_km":15.771,"amap_marker_url":"https://uri.amap.com/marker?position=122.700290,40.794225&name=%E5%98%89%E5%AE%BE%E5%85%BD%E8%8D%AF%E5%BA%97&src=vetmap&coordinate=gaode&callnative=1","route_id":"r1","route_name":"第1段","global_order":4},{"name":"宠缘动物诊所","address":"响堂管理区荒岭委民生雅居永欣街31-S1","phone":"15004127771","category":"医疗保健服务;动物医疗场所;宠物诊所","area":"","lng":122.736234,"lat":40.839087,"amap_id":"B0J1P529IQ","order":5,"prev_distance_km":5.834,"cumulative_distance_km":21.605,"amap_marker_url":"https://uri.amap.com/marker?position=122.736234,40.839087&name=%E5%AE%A0%E7%BC%98%E5%8A%A8%E7%89%A9%E8%AF%8A%E6%89%80&src=vetmap&coordinate=gaode&callnative=1","route_id":"r1","route_name":"第1段","global_order":5},{"name":"希旺宠物医院","address":"阳光锦都东北门北60米","phone":"15941249128","category":"医疗保健服务;动物医疗场所;宠物诊所","area":"","lng":122.73675,"lat":40.844475,"amap_id":"B0K675BMO8","order":6,"prev_distance_km":0.601,"cumulative_distance_km":22.205,"amap_marker_url":"https://uri.amap.com/marker?position=122.736750,40.844475&name=%E5%B8%8C%E6%97%BA%E5%AE%A0%E7%89%A9%E5%8C%BB%E9%99%A2&src=vetmap&coordinate=gaode&callnative=1","route_id":"r1","route_name":"第1段","global_order":6},{"name":"金朝动物诊所","address":"御景尚品109号","phone":"","category":"医疗保健服务;动物医疗场所;宠物诊所","area":"","lng":122.741869,"lat":40.842222,"amap_id":"B0K1Y9DLXU","order":7,"prev_distance_km":0.498,"cumulative_distance_km":22.703,"amap_marker_url":"https://uri.amap.com/marker?position=122.741869,40.842222&name=%E9%87%91%E6%9C%9D%E5%8A%A8%E7%89%A9%E8%AF%8A%E6%89%80&src=vetmap&coordinate=gaode&callnative=1","route_id":"r1","route_name":"第1段","global_order":7},{"name":"宠爱动物诊所","address":"新曹线与新立转盘交叉口西南80米","phone":"15124159206","category":"医疗保健服务;动物医疗场所;宠物诊所","area":"","lng":122.745576,"lat":40.83883,"amap_id":"B0FFH8CER5","order":8,"prev_distance_km":0.489,"cumulative_distance_km":23.193,"amap_marker_url":"https://uri.amap.com/marker?position=122.745576,40.838830&name=%E5%AE%A0%E7%88%B1%E5%8A%A8%E7%89%A9%E8%AF%8A%E6%89%80&src=vetmap&coordinate=gaode&callnative=1","route_id":"r1","route_name":"第1段","global_order":8},{"name":"长富兽药","address":"海州街道南关街新立委","phone":"13941269662","category":"医疗保健服务;动物医疗场所;兽医站","area":"","lng":122.748604,"lat":40.836381,"amap_id":"B0FFG2L1YP","order":9,"prev_distance_km":0.373,"cumulative_distance_km":23.566,"amap_marker_url":"https://uri.amap.com/marker?position=122.748604,40.836381&name=%E9%95%BF%E5%AF%8C%E5%85%BD%E8%8D%AF&src=vetmap&coordinate=gaode&callnative=1","route_id":"r1","route_name":"第1段","global_order":9},{"name":"众鑫动物医院","address":"新立转盘与海岫路交叉口东南200米","phone":"0412-3215688;13610983354;13942280039","category":"医疗保健服务;动物医疗场所;宠物诊所","area":"","lng":122.747723,"lat":40.83857,"amap_id":"B0FFI8BU9K","order":10,"prev_distance_km":0.254,"cumulative_distance_km":23.82,"amap_marker_url":"https://uri.amap.com/marker?position=122.747723,40.838570&name=%E4%BC%97%E9%91%AB%E5%8A%A8%E7%89%A9%E5%8C%BB%E9%99%A2&src=vetmap&coordinate=gaode&callnative=1","route_id":"r1","route_name":"第1段","global_order":10},{"name":"金海缘动物诊所","address":"海州管理区南关街桥东滨河东路3-S14号","phone":"15164232917","category":"医疗保健服务;动物医疗场所;宠物诊所","area":"","lng":122.747385,"lat":40.838948,"amap_id":"B0FFH8Q1GN","order":11,"prev_distance_km":0.051,"cumulative_distance_km":23.871,"amap_marker_url":"https://uri.amap.com/marker?position=122.747385,40.838948&name=%E9%87%91%E6%B5%B7%E7%BC%98%E5%8A%A8%E7%89%A9%E8%AF%8A%E6%89%80&src=vetmap&coordinate=gaode&callnative=1","route_id":"r1","route_name":"第1段","global_order":11},{"name":"伙伴宠物店","address":"滨河北路与益民街交叉口东北50米","phone":"13478044911","category":"医疗保健服务;动物医疗场所;宠物诊所","area":"西关","lng":122.744744,"lat":40.847081,"amap_id":"B0FFH37XTS","order":12,"prev_distance_km":0.931,"cumulative_distance_km":24.802,"amap_marker_url":"https://uri.amap.com/marker?position=122.744744,40.847081&name=%E4%BC%99%E4%BC%B4%E5%AE%A0%E7%89%A9%E5%BA%97&src=vetmap&coordinate=gaode&callnative=1","route_id":"r1","route_name":"第1段","global_order":12},{"name":"翼龙宠物门诊","address":"中基·财富广场东门南60米","phone":"13704923813","category":"医疗保健服务;动物医疗场所;宠物诊所","area":"西关","lng":122.743546,"lat":40.847965,"amap_id":"B0FFL7DNDB","order":13,"prev_distance_km":0.141,"cumulative_distance_km":24.943,"amap_marker_url":"https://uri.amap.com/marker?position=122.743546,40.847965&name=%E7%BF%BC%E9%BE%99%E5%AE%A0%E7%89%A9%E9%97%A8%E8%AF%8A&src=vetmap&coordinate=gaode&callnative=1","route_id":"r1","route_name":"第1段","global_order":13},{"name":"海城市恒爱宠物服务公司","address":"震兴路与环城东路交叉口西100米","phone":"15124106222","category":"医疗保健服务;动物医疗场所;动物医疗场所","area":"","lng":122.755857,"lat":40.849541,"amap_id":"B0LAT1ZH4D","order":14,"prev_distance_km":1.05,"cumulative_distance_km":25.993,"amap_marker_url":"https://uri.amap.com/marker?position=122.755857,40.849541&name=%E6%B5%B7%E5%9F%8E%E5%B8%82%E6%81%92%E7%88%B1%E5%AE%A0%E7%89%A9%E6%9C%8D%E5%8A%A1%E5%85%AC%E5%8F%B8&src=vetmap&coordinate=gaode&callnative=1","route_id":"r1","route_name":"第1段","global_order":14},{"name":"威威宠物","address":"震兴路52号芳草家园","phone":"","category":"购物服务;专卖店;宠物用品店|医疗保健服务;动物医疗场所;动物医疗场所","area":"","lng":122.748425,"lat":40.851175,"amap_id":"B0L14R30RY","order":15,"prev_distance_km":0.651,"cumulative_distance_km":26.644,"amap_marker_url":"https://uri.amap.com/marker?position=122.748425,40.851175&name=%E5%A8%81%E5%A8%81%E5%AE%A0%E7%89%A9&src=vetmap&coordinate=gaode&callnative=1","route_id":"r1","route_name":"第1段","global_order":15},{"name":"联合宠物诊所","address":"哈大路米其林轮胎道口里走第二个门店","phone":"13464999188","category":"医疗保健服务;动物医疗场所;宠物诊所","area":"海州大街","lng":122.742848,"lat":40.85722,"amap_id":"B0J3OAM53O","order":16,"prev_distance_km":0.82,"cumulative_distance_km":27.464,"amap_marker_url":"https://uri.amap.com/marker?position=122.742848,40.857220&name=%E8%81%94%E5%90%88%E5%AE%A0%E7%89%A9%E8%AF%8A%E6%89%80&src=vetmap&coordinate=gaode&callnative=1","route_id":"r1","route_name":"第1段","global_order":16},{"name":"晓宇宠物店","address":"兴海大街与兴工街交叉口西北160米","phone":"","category":"医疗保健服务;动物医疗场所;动物医疗场所","area":"","lng":122.732395,"lat":40.863397,"amap_id":"B0KKZZTAEL","order":17,"prev_distance_km":1.116,"cumulative_distance_km":28.579,"amap_marker_url":"https://uri.amap.com/marker?position=122.732395,40.863397&name=%E6%99%93%E5%AE%87%E5%AE%A0%E7%89%A9%E5%BA%97&src=vetmap&coordinate=gaode&callnative=1","route_id":"r1","route_name":"第1段","global_order":17},{"name":"验军动物诊所","address":"兴业街西50米","phone":"13390341166","category":"医疗保健服务;动物医疗场所;宠物诊所","area":"","lng":122.74244,"lat":40.886988,"amap_id":"B0FFH7UQBO","order":18,"prev_distance_km":2.756,"cumulative_distance_km":31.335,"amap_marker_url":"https://uri.amap.com/marker?position=122.742440,40.886988&name=%E9%AA%8C%E5%86%9B%E5%8A%A8%E7%89%A9%E8%AF%8A%E6%89%80&src=vetmap&coordinate=gaode&callnative=1","route_id":"r1","route_name":"第1段","global_order":18},{"name":"海城市沐森动物医院","address":"海墅逸城长江路202甲-4-S3门市","phone":"13081247931","category":"医疗保健服务;动物医疗场所;宠物诊所","area":"","lng":122.717159,"lat":40.865569,"amap_id":"B0LA5URHRQ","order":19,"prev_distance_km":3.192,"cumulative_distance_km":34.527,"amap_marker_url":"https://uri.amap.com/marker?position=122.717159,40.865569&name=%E6%B5%B7%E5%9F%8E%E5%B8%82%E6%B2%90%E6%A3%AE%E5%8A%A8%E7%89%A9%E5%8C%BB%E9%99%A2&src=vetmap&coordinate=gaode&callnative=1","route_id":"r1","route_name":"第1段","global_order":19},{"name":"安愈动物医院","address":"碧桂园196-S1门市","phone":"13464931979","category":"医疗保健服务;动物医疗场所;宠物诊所","area":"","lng":122.713722,"lat":40.867142,"amap_id":"B0LDGSC17T","order":20,"prev_distance_km":0.338,"cumulative_distance_km":34.865,"amap_marker_url":"https://uri.amap.com/marker?position=122.713722,40.867142&name=%E5%AE%89%E6%84%88%E5%8A%A8%E7%89%A9%E5%8C%BB%E9%99%A2&src=vetmap&coordinate=gaode&callnative=1","route_id":"r1","route_name":"第1段","global_order":20},{"name":"海城市华跃动物医院","address":"长江路23号","phone":"0412-3333899;13081249887","category":"医疗保健服务;动物医疗场所;宠物诊所","area":"","lng":122.710699,"lat":40.869469,"amap_id":"B0JBF544AM","order":21,"prev_distance_km":0.363,"cumulative_distance_km":35.228,"amap_marker_url":"https://uri.amap.com/marker?position=122.710699,40.869469&name=%E6%B5%B7%E5%9F%8E%E5%B8%82%E5%8D%8E%E8%B7%83%E5%8A%A8%E7%89%A9%E5%8C%BB%E9%99%A2&src=vetmap&coordinate=gaode&callnative=1","route_id":"r1","route_name":"第1段","global_order":21},{"name":"家仪爱宠动物医院","address":"兴海大街北50米","phone":"0412-3380123;18641256109","category":"医疗保健服务;动物医疗场所;宠物诊所","area":"","lng":122.706854,"lat":40.878335,"amap_id":"B0FFG10F0X","order":22,"prev_distance_km":1.038,"cumulative_distance_km":36.265,"amap_marker_url":"https://uri.amap.com/marker?position=122.706854,40.878335&name=%E5%AE%B6%E4%BB%AA%E7%88%B1%E5%AE%A0%E5%8A%A8%E7%89%A9%E5%8C%BB%E9%99%A2&src=vetmap&coordinate=gaode&callnative=1","route_id":"r1","route_name":"第1段","global_order":22},{"name":"壹心宠物医院","address":"二台子新村西南1门东90米","phone":"13081219791;13081239791","category":"医疗保健服务;动物医疗场所;宠物诊所","area":"","lng":122.694308,"lat":40.874735,"amap_id":"B0I39C06H8","order":23,"prev_distance_km":1.128,"cumulative_distance_km":37.394,"amap_marker_url":"https://uri.amap.com/marker?position=122.694308,40.874735&name=%E5%A3%B9%E5%BF%83%E5%AE%A0%E7%89%A9%E5%8C%BB%E9%99%A2&src=vetmap&coordinate=gaode&callnative=1","route_id":"r1","route_name":"第1段","global_order":23},{"name":"希瑞动物医院","address":"唯美品格3期19栋S7","phone":"13940917263","category":"医疗保健服务;动物医疗场所;宠物诊所","area":"","lng":122.687677,"lat":40.875556,"amap_id":"B0LK9RBKVW","order":24,"prev_distance_km":0.565,"cumulative_distance_km":37.959,"amap_marker_url":"https://uri.amap.com/marker?position=122.687677,40.875556&name=%E5%B8%8C%E7%91%9E%E5%8A%A8%E7%89%A9%E5%8C%BB%E9%99%A2&src=vetmap&coordinate=gaode&callnative=1","route_id":"r1","route_name":"第1段","global_order":24},{"name":"宋微兽药店","address":"东盛园2号楼5号门店","phone":"","category":"医疗保健服务;动物医疗场所;动物医疗场所","area":"东四","lng":122.636621,"lat":40.903036,"amap_id":"B0JR7ZFQ7K","order":25,"prev_distance_km":5.268,"cumulative_distance_km":43.227,"amap_marker_url":"https://uri.amap.com/marker?position=122.636621,40.903036&name=%E5%AE%8B%E5%BE%AE%E5%85%BD%E8%8D%AF%E5%BA%97&src=vetmap&coordinate=gaode&callnative=1","route_id":"r1","route_name":"第1段","global_order":25},{"name":"泽农兽药店","address":"颐景嘉园西南门西90米","phone":"0412-3342103;13941253966","category":"医疗保健服务;动物医疗场所;动物医疗场所","area":"东四","lng":122.631603,"lat":40.90457,"amap_id":"B0FFFYGSPR","order":26,"prev_distance_km":0.455,"cumulative_distance_km":43.682,"amap_marker_url":"https://uri.amap.com/marker?position=122.631603,40.904570&name=%E6%B3%BD%E5%86%9C%E5%85%BD%E8%8D%AF%E5%BA%97&src=vetmap&coordinate=gaode&callnative=1","route_id":"r1","route_name":"第1段","global_order":26},{"name":"力健家禽兽药店","address":"城南饭店东侧60米","phone":"15904126999","category":"医疗保健服务;动物医疗场所;动物医疗场所","area":"","lng":122.523707,"lat":40.943076,"amap_id":"B0G1ZK0DOJ","order":27,"prev_distance_km":10.025,"cumulative_distance_km":53.707,"amap_marker_url":"https://uri.amap.com/marker?position=122.523707,40.943076&name=%E5%8A%9B%E5%81%A5%E5%AE%B6%E7%A6%BD%E5%85%BD%E8%8D%AF%E5%BA%97&src=vetmap&coordinate=gaode&callnative=1","route_id":"r1","route_name":"第1段","global_order":27},{"name":"晟康兽药店","address":"望赵线东侧","phone":"","category":"医疗保健服务;动物医疗场所;动物医疗场所","area":"","lng":122.616071,"lat":40.973526,"amap_id":"B0KRKD3MC1","order":28,"prev_distance_km":8.463,"cumulative_distance_km":62.17,"amap_marker_url":"https://uri.amap.com/marker?position=122.616071,40.973526&name=%E6%99%9F%E5%BA%B7%E5%85%BD%E8%8D%AF%E5%BA%97&src=vetmap&coordinate=gaode&callnative=1","route_id":"r1","route_name":"第1段","global_order":28},{"name":"耿庄动物诊所","address":"西耿村村民委员会东侧150米","phone":"0412-3584434","category":"医疗保健服务;动物医疗场所;宠物诊所","area":"","lng":122.701646,"lat":40.98786,"amap_id":"B019C0OM7B","order":29,"prev_distance_km":7.358,"cumulative_distance_km":69.529,"amap_marker_url":"https://uri.amap.com/marker?position=122.701646,40.987860&name=%E8%80%BF%E5%BA%84%E5%8A%A8%E7%89%A9%E8%AF%8A%E6%89%80&src=vetmap&coordinate=gaode&callnative=1","route_id":"r1","route_name":"第1段","global_order":29},{"name":"秦氏动物诊所","address":"新城路","phone":"","category":"医疗保健服务;动物医疗场所;宠物诊所","area":"","lng":122.701647,"lat":40.98786,"amap_id":"B0HA7HYFRF","order":30,"prev_distance_km":0.0,"cumulative_distance_km":69.529,"amap_marker_url":"https://uri.amap.com/marker?position=122.701647,40.987860&name=%E7%A7%A6%E6%B0%8F%E5%8A%A8%E7%89%A9%E8%AF%8A%E6%89%80&src=vetmap&coordinate=gaode&callnative=1","route_id":"r1","route_name":"第1段","global_order":30},{"name":"海城市同正兽药店","address":"马风镇百盛园小区5-6号楼4号","phone":"15841279893","category":"医疗保健服务;动物医疗场所;动物医疗场所","area":"","lng":122.912265,"lat":40.807983,"amap_id":"B0L0XAL39X","order":1,"prev_distance_km":0.0,"cumulative_distance_km":0.0,"amap_marker_url":"https://uri.amap.com/marker?position=122.912265,40.807983&name=%E6%B5%B7%E5%9F%8E%E5%B8%82%E5%90%8C%E6%AD%A3%E5%85%BD%E8%8D%AF%E5%BA%97&src=vetmap&coordinate=gaode&callnative=1","route_id":"r2","route_name":"第2段","global_order":31},{"name":"鑫宠宠物诊所","address":"牌楼镇东林小城印象4-5号楼5号","phone":"17261605216","category":"医疗保健服务;动物医疗场所;宠物诊所","area":"","lng":122.824,"lat":40.740663,"amap_id":"B0KG7AXSVI","order":2,"prev_distance_km":10.549,"cumulative_distance_km":10.549,"amap_marker_url":"https://uri.amap.com/marker?position=122.824000,40.740663&name=%E9%91%AB%E5%AE%A0%E5%AE%A0%E7%89%A9%E8%AF%8A%E6%89%80&src=vetmap&coordinate=gaode&callnative=1","route_id":"r2","route_name":"第2段","global_order":32},{"name":"康盛兽药店","address":"东八里卫生所东南侧70米","phone":"","category":"医疗保健服务;动物医疗场所;兽医站","area":"","lng":122.755875,"lat":40.787061,"amap_id":"B0FFFYZGIA","order":3,"prev_distance_km":7.716,"cumulative_distance_km":18.265,"amap_marker_url":"https://uri.amap.com/marker?position=122.755875,40.787061&name=%E5%BA%B7%E7%9B%9B%E5%85%BD%E8%8D%AF%E5%BA%97&src=vetmap&coordinate=gaode&callnative=1","route_id":"r2","route_name":"第2段","global_order":33},{"name":"海城济宠动物医院·转诊中心·核磁·CT·骨科·眼科·异宠","address":"百汇香山B地块C10栋S1号","phone":"15842206203","category":"医疗保健服务;动物医疗场所;宠物诊所","area":"","lng":122.763926,"lat":40.837109,"amap_id":"B0HGJMIGGK","order":4,"prev_distance_km":5.606,"cumulative_distance_km":23.871,"amap_marker_url":"https://uri.amap.com/marker?position=122.763926,40.837109&name=%E6%B5%B7%E5%9F%8E%E6%B5%8E%E5%AE%A0%E5%8A%A8%E7%89%A9%E5%8C%BB%E9%99%A2%C2%B7%E8%BD%AC%E8%AF%8A%E4%B8%AD%E5%BF%83%C2%B7%E6%A0%B8%E7%A3%81%C2%B7CT%C2%B7%E9%AA%A8%E7%A7%91%C2%B7%E7%9C%BC%E7%A7%91%C2%B7%E5%BC%82%E5%AE%A0&src=vetmap&coordinate=gaode&callnative=1","route_id":"r2","route_name":"第2段","global_order":34},{"name":"24小时关爱动物医院","address":"同泽路10甲楼","phone":"13188002746","category":"医疗保健服务;动物医疗场所;宠物诊所","area":"","lng":122.756876,"lat":40.841962,"amap_id":"B0LD773VT2","order":5,"prev_distance_km":0.802,"cumulative_distance_km":24.673,"amap_marker_url":"https://uri.amap.com/marker?position=122.756876,40.841962&name=24%E5%B0%8F%E6%97%B6%E5%85%B3%E7%88%B1%E5%8A%A8%E7%89%A9%E5%8C%BB%E9%99%A2&src=vetmap&coordinate=gaode&callnative=1","route_id":"r2","route_name":"第2段","global_order":35},{"name":"鹏鹏动物诊所","address":"海州街道公园里S3-1栋","phone":"17624200804","category":"医疗保健服务;动物医疗场所;宠物诊所","area":"","lng":122.76158,"lat":40.846978,"amap_id":"B0J0K5VRN1","order":6,"prev_distance_km":0.684,"cumulative_distance_km":25.357,"amap_marker_url":"https://uri.amap.com/marker?position=122.761580,40.846978&name=%E9%B9%8F%E9%B9%8F%E5%8A%A8%E7%89%A9%E8%AF%8A%E6%89%80&src=vetmap&coordinate=gaode&callnative=1","route_id":"r2","route_name":"第2段","global_order":36},{"name":"佰旺宠物医院","address":"环城东路157号","phone":"13236800120","category":"医疗保健服务;动物医疗场所;宠物诊所","area":"","lng":122.761651,"lat":40.849634,"amap_id":"B0JK47KXL6","order":7,"prev_distance_km":0.295,"cumulative_distance_km":25.652,"amap_marker_url":"https://uri.amap.com/marker?position=122.761651,40.849634&name=%E4%BD%B0%E6%97%BA%E5%AE%A0%E7%89%A9%E5%8C%BB%E9%99%A2&src=vetmap&coordinate=gaode&callnative=1","route_id":"r2","route_name":"第2段","global_order":37},{"name":"桐鑫动物医院","address":"海富世家东门13号-G4门市","phone":"18641292220","category":"医疗保健服务;动物医疗场所;宠物诊所","area":"","lng":122.761875,"lat":40.85097,"amap_id":"B0IBRMO5GO","order":8,"prev_distance_km":0.15,"cumulative_distance_km":25.802,"amap_marker_url":"https://uri.amap.com/marker?position=122.761875,40.850970&name=%E6%A1%90%E9%91%AB%E5%8A%A8%E7%89%A9%E5%8C%BB%E9%99%A2&src=vetmap&coordinate=gaode&callnative=1","route_id":"r2","route_name":"第2段","global_order":38},{"name":"它它宠物医院(城东路店)","address":"金东四季花城1号楼4号门店","phone":"0412-3837333","category":"医疗保健服务;动物医疗场所;宠物诊所","area":"","lng":122.764043,"lat":40.852012,"amap_id":"B0FFLQAPF4","order":9,"prev_distance_km":0.216,"cumulative_distance_km":26.018,"amap_marker_url":"https://uri.amap.com/marker?position=122.764043,40.852012&name=%E5%AE%83%E5%AE%83%E5%AE%A0%E7%89%A9%E5%8C%BB%E9%99%A2%28%E5%9F%8E%E4%B8%9C%E8%B7%AF%E5%BA%97%29&src=vetmap&coordinate=gaode&callnative=1","route_id":"r2","route_name":"第2段","global_order":39},{"name":"凯威宠物","address":"海城市玻璃丝布厂综合楼1栋S1号门市","phone":"","category":"医疗保健服务;动物医疗场所;动物医疗场所","area":"","lng":122.763041,"lat":40.855265,"amap_id":"B0LD0S7E1W","order":10,"prev_distance_km":0.371,"cumulative_distance_km":26.389,"amap_marker_url":"https://uri.amap.com/marker?position=122.763041,40.855265&name=%E5%87%AF%E5%A8%81%E5%AE%A0%E7%89%A9&src=vetmap&coordinate=gaode&callnative=1","route_id":"r2","route_name":"第2段","global_order":40},{"name":"臻诚宠物诊所","address":"新东一街19号","phone":"","category":"医疗保健服务;动物医疗场所;宠物诊所","area":"","lng":122.768165,"lat":40.857272,"amap_id":"B0LAA5GJ36","order":11,"prev_distance_km":0.485,"cumulative_distance_km":26.875,"amap_marker_url":"https://uri.amap.com/marker?position=122.768165,40.857272&name=%E8%87%BB%E8%AF%9A%E5%AE%A0%E7%89%A9%E8%AF%8A%E6%89%80&src=vetmap&coordinate=gaode&callnative=1","route_id":"r2","route_name":"第2段","global_order":41},{"name":"仁和宠物医院(嘉和·阳光苑店)","address":"新东一街嘉和阳光苑","phone":"0412-3438899","category":"医疗保健服务;动物医疗场所;宠物诊所","area":"","lng":122.771149,"lat":40.858912,"amap_id":"B0FFIS026Q","order":12,"prev_distance_km":0.31,"cumulative_distance_km":27.185,"amap_marker_url":"https://uri.amap.com/marker?position=122.771149,40.858912&name=%E4%BB%81%E5%92%8C%E5%AE%A0%E7%89%A9%E5%8C%BB%E9%99%A2%28%E5%98%89%E5%92%8C%C2%B7%E9%98%B3%E5%85%89%E8%8B%91%E5%BA%97%29&src=vetmap&coordinate=gaode&callnative=1","route_id":"r2","route_name":"第2段","global_order":42},{"name":"宠心缘宠物诊所","address":"海洲街道合力社区卫士南路4号楼南20号","phone":"13050044656","category":"医疗保健服务;动物医疗场所;宠物诊所","area":"","lng":122.755901,"lat":40.859488,"amap_id":"B0L107D9B7","order":13,"prev_distance_km":1.284,"cumulative_distance_km":28.469,"amap_marker_url":"https://uri.amap.com/marker?position=122.755901,40.859488&name=%E5%AE%A0%E5%BF%83%E7%BC%98%E5%AE%A0%E7%89%A9%E8%AF%8A%E6%89%80&src=vetmap&coordinate=gaode&callnative=1","route_id":"r2","route_name":"第2段","global_order":43},{"name":"三里动物诊所","address":"海州街道三里村海州大街75号楼","phone":"15004123811;15042224528","category":"医疗保健服务;动物医疗场所;宠物诊所","area":"","lng":122.759241,"lat":40.875027,"amap_id":"B019C02OUY","order":14,"prev_distance_km":1.751,"cumulative_distance_km":30.219,"amap_marker_url":"https://uri.amap.com/marker?position=122.759241,40.875027&name=%E4%B8%89%E9%87%8C%E5%8A%A8%E7%89%A9%E8%AF%8A%E6%89%80&src=vetmap&coordinate=gaode&callnative=1","route_id":"r2","route_name":"第2段","global_order":44},{"name":"松子宠物诊所(南耿线店)","address":"后龙竺安家园北门西50米","phone":"15141222062","category":"医疗保健服务;动物医疗场所;宠物诊所","area":"","lng":122.788395,"lat":40.923101,"amap_id":"B0GKU7J259","order":15,"prev_distance_km":5.88,"cumulative_distance_km":36.1,"amap_marker_url":"https://uri.amap.com/marker?position=122.788395,40.923101&name=%E6%9D%BE%E5%AD%90%E5%AE%A0%E7%89%A9%E8%AF%8A%E6%89%80%28%E5%8D%97%E8%80%BF%E7%BA%BF%E5%BA%97%29&src=vetmap&coordinate=gaode&callnative=1","route_id":"r2","route_name":"第2段","global_order":45},{"name":"圆圆宠物美容","address":"碧雅祥居东北门东120米","phone":"15242220342","category":"医疗保健服务;动物医疗场所;动物医疗场所","area":"","lng":122.791988,"lat":40.922419,"amap_id":"B0I1AMBJFD","order":16,"prev_distance_km":0.311,"cumulative_distance_km":36.411,"amap_marker_url":"https://uri.amap.com/marker?position=122.791988,40.922419&name=%E5%9C%86%E5%9C%86%E5%AE%A0%E7%89%A9%E7%BE%8E%E5%AE%B9&src=vetmap&coordinate=gaode&callnative=1","route_id":"r2","route_name":"第2段","global_order":46},{"name":"赵大夫动物诊所","address":"南台镇东越公寓正门西侧18米","phone":"13842225992","category":"医疗保健服务;动物医疗场所;兽医站","area":"","lng":122.798173,"lat":40.924213,"amap_id":"B0I1BC0S5N","order":17,"prev_distance_km":0.557,"cumulative_distance_km":36.968,"amap_marker_url":"https://uri.amap.com/marker?position=122.798173,40.924213&name=%E8%B5%B5%E5%A4%A7%E5%A4%AB%E5%8A%A8%E7%89%A9%E8%AF%8A%E6%89%80&src=vetmap&coordinate=gaode&callnative=1","route_id":"r2","route_name":"第2段","global_order":47},{"name":"乐月宠物诊所","address":"沈营线与312乡道交叉口东北40米","phone":"13478025955","category":"医疗保健服务;动物医疗场所;宠物诊所","area":"","lng":122.762609,"lat":41.028191,"amap_id":"B0FFJRXFD4","order":18,"prev_distance_km":11.941,"cumulative_distance_km":48.909,"amap_marker_url":"https://uri.amap.com/marker?position=122.762609,41.028191&name=%E4%B9%90%E6%9C%88%E5%AE%A0%E7%89%A9%E8%AF%8A%E6%89%80&src=vetmap&coordinate=gaode&callnative=1","route_id":"r2","route_name":"第2段","global_order":48},{"name":"康达宠物医院","address":"腾鳌镇华源名居一期北门","phone":"17154003333","category":"医疗保健服务;动物医疗场所;宠物诊所","area":"","lng":122.8212,"lat":41.078593,"amap_id":"B0FFKAVZD9","order":19,"prev_distance_km":7.453,"cumulative_distance_km":56.362,"amap_marker_url":"https://uri.amap.com/marker?position=122.821200,41.078593&name=%E5%BA%B7%E8%BE%BE%E5%AE%A0%E7%89%A9%E5%8C%BB%E9%99%A2&src=vetmap&coordinate=gaode&callnative=1","route_id":"r2","route_name":"第2段","global_order":49},{"name":"壮壮宠物医院","address":"阳光丽景西南门旁","phone":"0412-8315999;15541290555","category":"医疗保健服务;动物医疗场所;宠物诊所","area":"","lng":122.820047,"lat":41.080058,"amap_id":"B0FFKJTO4S","order":20,"prev_distance_km":0.189,"cumulative_distance_km":56.551,"amap_marker_url":"https://uri.amap.com/marker?position=122.820047,41.080058&name=%E5%A3%AE%E5%A3%AE%E5%AE%A0%E7%89%A9%E5%8C%BB%E9%99%A2&src=vetmap&coordinate=gaode&callnative=1","route_id":"r2","route_name":"第2段","global_order":50},{"name":"唐果宠物中心","address":"沈营线与大西门外街交叉口西100米","phone":"","category":"医疗保健服务;动物医疗场所;宠物诊所","area":"","lng":122.821728,"lat":41.081047,"amap_id":"B0JK7CR2HG","order":21,"prev_distance_km":0.179,"cumulative_distance_km":56.73,"amap_marker_url":"https://uri.amap.com/marker?position=122.821728,41.081047&name=%E5%94%90%E6%9E%9C%E5%AE%A0%E7%89%A9%E4%B8%AD%E5%BF%83&src=vetmap&coordinate=gaode&callnative=1","route_id":"r2","route_name":"第2段","global_order":51},{"name":"博美康宠物医院","address":"保安街路路北106号001","phone":"13842220761","category":"医疗保健服务;动物医疗场所;宠物诊所","area":"","lng":122.823131,"lat":41.078888,"amap_id":"B0MBKYPNS3","order":22,"prev_distance_km":0.267,"cumulative_distance_km":56.997,"amap_marker_url":"https://uri.amap.com/marker?position=122.823131,41.078888&name=%E5%8D%9A%E7%BE%8E%E5%BA%B7%E5%AE%A0%E7%89%A9%E5%8C%BB%E9%99%A2&src=vetmap&coordinate=gaode&callnative=1","route_id":"r2","route_name":"第2段","global_order":52},{"name":"博旺动物诊所","address":"腾鳌镇福聚华城A518(海城第四医院北门对面)","phone":"17614121523;18642230444","category":"医疗保健服务;动物医疗场所;宠物诊所","area":"","lng":122.825673,"lat":41.076479,"amap_id":"B0FFH62KS8","order":23,"prev_distance_km":0.342,"cumulative_distance_km":57.339,"amap_marker_url":"https://uri.amap.com/marker?position=122.825673,41.076479&name=%E5%8D%9A%E6%97%BA%E5%8A%A8%E7%89%A9%E8%AF%8A%E6%89%80&src=vetmap&coordinate=gaode&callnative=1","route_id":"r2","route_name":"第2段","global_order":53},{"name":"鑫汇宠物诊所","address":"永南四街腾鳌老一中对面","phone":"","category":"医疗保健服务;动物医疗场所;宠物诊所","area":"","lng":122.83113,"lat":41.080999,"amap_id":"B0FFF3M4M1","order":24,"prev_distance_km":0.68,"cumulative_distance_km":58.019,"amap_marker_url":"https://uri.amap.com/marker?position=122.831130,41.080999&name=%E9%91%AB%E6%B1%87%E5%AE%A0%E7%89%A9%E8%AF%8A%E6%89%80&src=vetmap&coordinate=gaode&callnative=1","route_id":"r2","route_name":"第2段","global_order":54},{"name":"海城市腾鳌镇仁爱宠物医院","address":"永安街道办永安路6-S3","phone":"","category":"医疗保健服务;动物医疗场所;宠物诊所","area":"","lng":122.835668,"lat":41.080491,"amap_id":"B0L6XMK6HK","order":25,"prev_distance_km":0.385,"cumulative_distance_km":58.404,"amap_marker_url":"https://uri.amap.com/marker?position=122.835668,41.080491&name=%E6%B5%B7%E5%9F%8E%E5%B8%82%E8%85%BE%E9%B3%8C%E9%95%87%E4%BB%81%E7%88%B1%E5%AE%A0%E7%89%A9%E5%8C%BB%E9%99%A2&src=vetmap&coordinate=gaode&callnative=1","route_id":"r2","route_name":"第2段","global_order":55},{"name":"爱宠园宠物美容会馆","address":"水岸华庭东区东南1门西130米","phone":"","category":"医疗保健服务;动物医疗场所;宠物诊所","area":"","lng":122.835825,"lat":41.080475,"amap_id":"B0L3ASTHJ0","order":26,"prev_distance_km":0.013,"cumulative_distance_km":58.417,"amap_marker_url":"https://uri.amap.com/marker?position=122.835825,41.080475&name=%E7%88%B1%E5%AE%A0%E5%9B%AD%E5%AE%A0%E7%89%A9%E7%BE%8E%E5%AE%B9%E4%BC%9A%E9%A6%86&src=vetmap&coordinate=gaode&callnative=1","route_id":"r2","route_name":"第2段","global_order":56},{"name":"宠物美容","address":"腾鳌镇颐水嘉德二期2号楼宠物美容","phone":"15714124567","category":"医疗保健服务;动物医疗场所;宠物诊所","area":"","lng":122.835295,"lat":41.076668,"amap_id":"B0FFJ84JER","order":27,"prev_distance_km":0.426,"cumulative_distance_km":58.842,"amap_marker_url":"https://uri.amap.com/marker?position=122.835295,41.076668&name=%E5%AE%A0%E7%89%A9%E7%BE%8E%E5%AE%B9&src=vetmap&coordinate=gaode&callnative=1","route_id":"r2","route_name":"第2段","global_order":57},{"name":"凯萨宠物美容会馆","address":"腾鳌镇颐水嘉德二期10号楼西5门市","phone":"","category":"医疗保健服务;动物医疗场所;宠物诊所","area":"","lng":122.835809,"lat":41.075709,"amap_id":"B0J0XSD60D","order":28,"prev_distance_km":0.115,"cumulative_distance_km":58.957,"amap_marker_url":"https://uri.amap.com/marker?position=122.835809,41.075709&name=%E5%87%AF%E8%90%A8%E5%AE%A0%E7%89%A9%E7%BE%8E%E5%AE%B9%E4%BC%9A%E9%A6%86&src=vetmap&coordinate=gaode&callnative=1","route_id":"r2","route_name":"第2段","global_order":58},{"name":"宠爱一生动物医院","address":"寿安街与谢家街交叉口西100米","phone":"","category":"医疗保健服务;动物医疗场所;宠物诊所","area":"","lng":122.838664,"lat":41.075229,"amap_id":"B0FFJ3EDXB","order":29,"prev_distance_km":0.245,"cumulative_distance_km":59.203,"amap_marker_url":"https://uri.amap.com/marker?position=122.838664,41.075229&name=%E5%AE%A0%E7%88%B1%E4%B8%80%E7%94%9F%E5%8A%A8%E7%89%A9%E5%8C%BB%E9%99%A2&src=vetmap&coordinate=gaode&callnative=1","route_id":"r2","route_name":"第2段","global_order":59}]}