{"summary":{"id":"d01883","province":"黑龙江省","city":"齐齐哈尔市","district":"建华区","count":21,"route_count":1,"max_route_clinics":21,"total_distance_km":10.01,"coordinate_system":"GCJ-02 / Amap","generated_at":"2026-05-08 19:50:12"},"routes":[{"id":"r1","name":"第1段","count":21,"total_distance_km":10.01,"rows":[{"name":"贝乐宠物医院","address":"凤凰城A区北门42号111","phone":"18704523756","category":"医疗保健服务;动物医疗场所;宠物诊所","area":"","lng":124.003828,"lat":47.369345,"amap_id":"B0LUHMFIFU","order":1,"prev_distance_km":0.0,"cumulative_distance_km":0.0,"amap_marker_url":"https://uri.amap.com/marker?position=124.003828,47.369345&name=%E8%B4%9D%E4%B9%90%E5%AE%A0%E7%89%A9%E5%8C%BB%E9%99%A2&src=vetmap&coordinate=gaode&callnative=1","route_id":"r1","route_name":"第1段"},{"name":"仁慈宠物诊所","address":"中华路391号","phone":"17124520777;18246275912","category":"医疗保健服务;动物医疗场所;宠物诊所","area":"建设大街","lng":123.986403,"lat":47.350785,"amap_id":"B0G0X70CTJ","order":2,"prev_distance_km":2.446,"cumulative_distance_km":2.446,"amap_marker_url":"https://uri.amap.com/marker?position=123.986403,47.350785&name=%E4%BB%81%E6%85%88%E5%AE%A0%E7%89%A9%E8%AF%8A%E6%89%80&src=vetmap&coordinate=gaode&callnative=1","route_id":"r1","route_name":"第1段"},{"name":"博宠爱宠物诊所","address":"运建小区14号楼1-2层号","phone":"18646605088","category":"医疗保健服务;动物医疗场所;宠物诊所","area":"建设大街","lng":123.984997,"lat":47.351211,"amap_id":"B0IA15U7VF","order":3,"prev_distance_km":0.116,"cumulative_distance_km":2.562,"amap_marker_url":"https://uri.amap.com/marker?position=123.984997,47.351211&name=%E5%8D%9A%E5%AE%A0%E7%88%B1%E5%AE%A0%E7%89%A9%E8%AF%8A%E6%89%80&src=vetmap&coordinate=gaode&callnative=1","route_id":"r1","route_name":"第1段"},{"name":"康达宠物医院","address":"建设大街360号","phone":"13803612769","category":"医疗保健服务;动物医疗场所;宠物诊所","area":"建设大街","lng":123.984008,"lat":47.351945,"amap_id":"B0M6DC6Z26","order":4,"prev_distance_km":0.111,"cumulative_distance_km":2.672,"amap_marker_url":"https://uri.amap.com/marker?position=123.984008,47.351945&name=%E5%BA%B7%E8%BE%BE%E5%AE%A0%E7%89%A9%E5%8C%BB%E9%99%A2&src=vetmap&coordinate=gaode&callnative=1","route_id":"r1","route_name":"第1段"},{"name":"益康兽医门诊","address":"福顺小区东北门旁","phone":"","category":"医疗保健服务;动物医疗场所;兽医站","area":"建设大街","lng":123.982944,"lat":47.35312,"amap_id":"B0KUJXMDOF","order":5,"prev_distance_km":0.153,"cumulative_distance_km":2.826,"amap_marker_url":"https://uri.amap.com/marker?position=123.982944,47.353120&name=%E7%9B%8A%E5%BA%B7%E5%85%BD%E5%8C%BB%E9%97%A8%E8%AF%8A&src=vetmap&coordinate=gaode&callnative=1","route_id":"r1","route_name":"第1段"},{"name":"酷宠宠物诊所","address":"中华路241号","phone":"13945282173;15845246127","category":"医疗保健服务;动物医疗场所;宠物诊所","area":"建设大街","lng":123.980413,"lat":47.352178,"amap_id":"B0FFFADHBT","order":6,"prev_distance_km":0.218,"cumulative_distance_km":3.043,"amap_marker_url":"https://uri.amap.com/marker?position=123.980413,47.352178&name=%E9%85%B7%E5%AE%A0%E5%AE%A0%E7%89%A9%E8%AF%8A%E6%89%80&src=vetmap&coordinate=gaode&callnative=1","route_id":"r1","route_name":"第1段"},{"name":"康禾宠物诊所","address":"育英小区10号楼394号","phone":"15845251447","category":"医疗保健服务;动物医疗场所;宠物诊所","area":"","lng":123.975209,"lat":47.352337,"amap_id":"B0LB9RYKI6","order":7,"prev_distance_km":0.392,"cumulative_distance_km":3.436,"amap_marker_url":"https://uri.amap.com/marker?position=123.975209,47.352337&name=%E5%BA%B7%E7%A6%BE%E5%AE%A0%E7%89%A9%E8%AF%8A%E6%89%80&src=vetmap&coordinate=gaode&callnative=1","route_id":"r1","route_name":"第1段"},{"name":"齐齐哈尔动物医院","address":"中华路123-3号","phone":"","category":"医疗保健服务;动物医疗场所;宠物诊所","area":"东四道街","lng":123.966528,"lat":47.354886,"amap_id":"B01C401UT6","order":8,"prev_distance_km":0.713,"cumulative_distance_km":4.148,"amap_marker_url":"https://uri.amap.com/marker?position=123.966528,47.354886&name=%E9%BD%90%E9%BD%90%E5%93%88%E5%B0%94%E5%8A%A8%E7%89%A9%E5%8C%BB%E9%99%A2&src=vetmap&coordinate=gaode&callnative=1","route_id":"r1","route_name":"第1段"},{"name":"齐齐哈尔宏达动物医院","address":"邮政路与福新西街交叉口西60米","phone":"","category":"医疗保健服务;动物医疗场所;宠物诊所","area":"东四道街","lng":123.966411,"lat":47.354906,"amap_id":"B0J17SI8L4","order":9,"prev_distance_km":0.009,"cumulative_distance_km":4.157,"amap_marker_url":"https://uri.amap.com/marker?position=123.966411,47.354906&name=%E9%BD%90%E9%BD%90%E5%93%88%E5%B0%94%E5%AE%8F%E8%BE%BE%E5%8A%A8%E7%89%A9%E5%8C%BB%E9%99%A2&src=vetmap&coordinate=gaode&callnative=1","route_id":"r1","route_name":"第1段"},{"name":"齐众宠物医院总院(总店)","address":"东四道街裕民西小区1号楼1-4层","phone":"18604622398","category":"医疗保健服务;动物医疗场所;宠物诊所","area":"二马路","lng":123.962048,"lat":47.348755,"amap_id":"B0FFGA4C6B","order":10,"prev_distance_km":0.759,"cumulative_distance_km":4.916,"amap_marker_url":"https://uri.amap.com/marker?position=123.962048,47.348755&name=%E9%BD%90%E4%BC%97%E5%AE%A0%E7%89%A9%E5%8C%BB%E9%99%A2%E6%80%BB%E9%99%A2%28%E6%80%BB%E5%BA%97%29&src=vetmap&coordinate=gaode&callnative=1","route_id":"r1","route_name":"第1段"},{"name":"秋红宠物诊所","address":"中华路118号","phone":"13314520008","category":"医疗保健服务;动物医疗场所;宠物诊所","area":"东四道街","lng":123.96037,"lat":47.354514,"amap_id":"B0G26HLPDE","order":11,"prev_distance_km":0.653,"cumulative_distance_km":5.569,"amap_marker_url":"https://uri.amap.com/marker?position=123.960370,47.354514&name=%E7%A7%8B%E7%BA%A2%E5%AE%A0%E7%89%A9%E8%AF%8A%E6%89%80&src=vetmap&coordinate=gaode&callnative=1","route_id":"r1","route_name":"第1段"},{"name":"好伙伴宠物诊所","address":"名人花园30号楼","phone":"17704526589","category":"医疗保健服务;动物医疗场所;宠物诊所","area":"","lng":123.965701,"lat":47.36006,"amap_id":"B0FFK70TGC","order":12,"prev_distance_km":0.736,"cumulative_distance_km":6.305,"amap_marker_url":"https://uri.amap.com/marker?position=123.965701,47.360060&name=%E5%A5%BD%E4%BC%99%E4%BC%B4%E5%AE%A0%E7%89%A9%E8%AF%8A%E6%89%80&src=vetmap&coordinate=gaode&callnative=1","route_id":"r1","route_name":"第1段"},{"name":"安馨宠物医院","address":"双华南路明人花园32号楼1单元102室","phone":"","category":"医疗保健服务;动物医疗场所;宠物诊所","area":"东四道街","lng":123.964183,"lat":47.360036,"amap_id":"B0GKMDRPSD","order":13,"prev_distance_km":0.114,"cumulative_distance_km":6.419,"amap_marker_url":"https://uri.amap.com/marker?position=123.964183,47.360036&name=%E5%AE%89%E9%A6%A8%E5%AE%A0%E7%89%A9%E5%8C%BB%E9%99%A2&src=vetmap&coordinate=gaode&callnative=1","route_id":"r1","route_name":"第1段"},{"name":"医唯它动物医院","address":"方兴新村光华街01层10号","phone":"13766589712","category":"医疗保健服务;动物医疗场所;宠物诊所","area":"东四道街","lng":123.960425,"lat":47.363175,"amap_id":"B0KDRC9GAD","order":14,"prev_distance_km":0.449,"cumulative_distance_km":6.869,"amap_marker_url":"https://uri.amap.com/marker?position=123.960425,47.363175&name=%E5%8C%BB%E5%94%AF%E5%AE%83%E5%8A%A8%E7%89%A9%E5%8C%BB%E9%99%A2&src=vetmap&coordinate=gaode&callnative=1","route_id":"r1","route_name":"第1段"},{"name":"益丰宠物医院(建华店)","address":"齐齐尔方兴新村30号楼00单元01层10号","phone":"13298725333","category":"医疗保健服务;动物医疗场所;宠物诊所","area":"东四道街","lng":123.958071,"lat":47.363847,"amap_id":"B0HUB7GD6V","order":15,"prev_distance_km":0.192,"cumulative_distance_km":7.061,"amap_marker_url":"https://uri.amap.com/marker?position=123.958071,47.363847&name=%E7%9B%8A%E4%B8%B0%E5%AE%A0%E7%89%A9%E5%8C%BB%E9%99%A2%28%E5%BB%BA%E5%8D%8E%E5%BA%97%29&src=vetmap&coordinate=gaode&callnative=1","route_id":"r1","route_name":"第1段"},{"name":"易安宠物门诊部","address":"卜奎北大街229号","phone":"15568249651","category":"医疗保健服务;动物医疗场所;宠物诊所","area":"","lng":123.955907,"lat":47.363748,"amap_id":"B0G2KZSUPV","order":16,"prev_distance_km":0.163,"cumulative_distance_km":7.224,"amap_marker_url":"https://uri.amap.com/marker?position=123.955907,47.363748&name=%E6%98%93%E5%AE%89%E5%AE%A0%E7%89%A9%E9%97%A8%E8%AF%8A%E9%83%A8&src=vetmap&coordinate=gaode&callnative=1","route_id":"r1","route_name":"第1段"},{"name":"达康宠物诊所","address":"北关小区199号门市","phone":"13803612769","category":"医疗保健服务;动物医疗场所;宠物诊所","area":"","lng":123.955909,"lat":47.363101,"amap_id":"B0FFLF3HLO","order":17,"prev_distance_km":0.072,"cumulative_distance_km":7.296,"amap_marker_url":"https://uri.amap.com/marker?position=123.955909,47.363101&name=%E8%BE%BE%E5%BA%B7%E5%AE%A0%E7%89%A9%E8%AF%8A%E6%89%80&src=vetmap&coordinate=gaode&callnative=1","route_id":"r1","route_name":"第1段"},{"name":"雨果宠物医院","address":"明园小区2号楼00单元01层12号","phone":"15204504471;15846283376","category":"医疗保健服务;动物医疗场所;宠物诊所","area":"东四道街","lng":123.955682,"lat":47.358482,"amap_id":"B0IGJLUKWZ","order":18,"prev_distance_km":0.514,"cumulative_distance_km":7.81,"amap_marker_url":"https://uri.amap.com/marker?position=123.955682,47.358482&name=%E9%9B%A8%E6%9E%9C%E5%AE%A0%E7%89%A9%E5%8C%BB%E9%99%A2&src=vetmap&coordinate=gaode&callnative=1","route_id":"r1","route_name":"第1段"},{"name":"宠物运输宠物美容","address":"新启路与卜奎北大街交叉口西60米","phone":"","category":"医疗保健服务;动物医疗场所;宠物诊所","area":"","lng":123.954537,"lat":47.358996,"amap_id":"B0KGXCQ92N","order":19,"prev_distance_km":0.103,"cumulative_distance_km":7.914,"amap_marker_url":"https://uri.amap.com/marker?position=123.954537,47.358996&name=%E5%AE%A0%E7%89%A9%E8%BF%90%E8%BE%93%E5%AE%A0%E7%89%A9%E7%BE%8E%E5%AE%B9&src=vetmap&coordinate=gaode&callnative=1","route_id":"r1","route_name":"第1段"},{"name":"多乐宠物诊所","address":"建华区文化街道党校街151号","phone":"13206620180","category":"医疗保健服务;动物医疗场所;宠物诊所","area":"浏园小区","lng":123.93687,"lat":47.365467,"amap_id":"B0FFH8ELEV","order":20,"prev_distance_km":1.513,"cumulative_distance_km":9.426,"amap_marker_url":"https://uri.amap.com/marker?position=123.936870,47.365467&name=%E5%A4%9A%E4%B9%90%E5%AE%A0%E7%89%A9%E8%AF%8A%E6%89%80&src=vetmap&coordinate=gaode&callnative=1","route_id":"r1","route_name":"第1段"},{"name":"旺心宠物诊所","address":"安居西园小区中区西南4门旁","phone":"13803614516","category":"医疗保健服务;动物医疗场所;宠物诊所","area":"","lng":123.929909,"lat":47.367771,"amap_id":"B0J0ZCE6VQ","order":21,"prev_distance_km":0.584,"cumulative_distance_km":10.01,"amap_marker_url":"https://uri.amap.com/marker?position=123.929909,47.367771&name=%E6%97%BA%E5%BF%83%E5%AE%A0%E7%89%A9%E8%AF%8A%E6%89%80&src=vetmap&coordinate=gaode&callnative=1","route_id":"r1","route_name":"第1段"}]}],"rows":[{"name":"贝乐宠物医院","address":"凤凰城A区北门42号111","phone":"18704523756","category":"医疗保健服务;动物医疗场所;宠物诊所","area":"","lng":124.003828,"lat":47.369345,"amap_id":"B0LUHMFIFU","order":1,"prev_distance_km":0.0,"cumulative_distance_km":0.0,"amap_marker_url":"https://uri.amap.com/marker?position=124.003828,47.369345&name=%E8%B4%9D%E4%B9%90%E5%AE%A0%E7%89%A9%E5%8C%BB%E9%99%A2&src=vetmap&coordinate=gaode&callnative=1","route_id":"r1","route_name":"第1段","global_order":1},{"name":"仁慈宠物诊所","address":"中华路391号","phone":"17124520777;18246275912","category":"医疗保健服务;动物医疗场所;宠物诊所","area":"建设大街","lng":123.986403,"lat":47.350785,"amap_id":"B0G0X70CTJ","order":2,"prev_distance_km":2.446,"cumulative_distance_km":2.446,"amap_marker_url":"https://uri.amap.com/marker?position=123.986403,47.350785&name=%E4%BB%81%E6%85%88%E5%AE%A0%E7%89%A9%E8%AF%8A%E6%89%80&src=vetmap&coordinate=gaode&callnative=1","route_id":"r1","route_name":"第1段","global_order":2},{"name":"博宠爱宠物诊所","address":"运建小区14号楼1-2层号","phone":"18646605088","category":"医疗保健服务;动物医疗场所;宠物诊所","area":"建设大街","lng":123.984997,"lat":47.351211,"amap_id":"B0IA15U7VF","order":3,"prev_distance_km":0.116,"cumulative_distance_km":2.562,"amap_marker_url":"https://uri.amap.com/marker?position=123.984997,47.351211&name=%E5%8D%9A%E5%AE%A0%E7%88%B1%E5%AE%A0%E7%89%A9%E8%AF%8A%E6%89%80&src=vetmap&coordinate=gaode&callnative=1","route_id":"r1","route_name":"第1段","global_order":3},{"name":"康达宠物医院","address":"建设大街360号","phone":"13803612769","category":"医疗保健服务;动物医疗场所;宠物诊所","area":"建设大街","lng":123.984008,"lat":47.351945,"amap_id":"B0M6DC6Z26","order":4,"prev_distance_km":0.111,"cumulative_distance_km":2.672,"amap_marker_url":"https://uri.amap.com/marker?position=123.984008,47.351945&name=%E5%BA%B7%E8%BE%BE%E5%AE%A0%E7%89%A9%E5%8C%BB%E9%99%A2&src=vetmap&coordinate=gaode&callnative=1","route_id":"r1","route_name":"第1段","global_order":4},{"name":"益康兽医门诊","address":"福顺小区东北门旁","phone":"","category":"医疗保健服务;动物医疗场所;兽医站","area":"建设大街","lng":123.982944,"lat":47.35312,"amap_id":"B0KUJXMDOF","order":5,"prev_distance_km":0.153,"cumulative_distance_km":2.826,"amap_marker_url":"https://uri.amap.com/marker?position=123.982944,47.353120&name=%E7%9B%8A%E5%BA%B7%E5%85%BD%E5%8C%BB%E9%97%A8%E8%AF%8A&src=vetmap&coordinate=gaode&callnative=1","route_id":"r1","route_name":"第1段","global_order":5},{"name":"酷宠宠物诊所","address":"中华路241号","phone":"13945282173;15845246127","category":"医疗保健服务;动物医疗场所;宠物诊所","area":"建设大街","lng":123.980413,"lat":47.352178,"amap_id":"B0FFFADHBT","order":6,"prev_distance_km":0.218,"cumulative_distance_km":3.043,"amap_marker_url":"https://uri.amap.com/marker?position=123.980413,47.352178&name=%E9%85%B7%E5%AE%A0%E5%AE%A0%E7%89%A9%E8%AF%8A%E6%89%80&src=vetmap&coordinate=gaode&callnative=1","route_id":"r1","route_name":"第1段","global_order":6},{"name":"康禾宠物诊所","address":"育英小区10号楼394号","phone":"15845251447","category":"医疗保健服务;动物医疗场所;宠物诊所","area":"","lng":123.975209,"lat":47.352337,"amap_id":"B0LB9RYKI6","order":7,"prev_distance_km":0.392,"cumulative_distance_km":3.436,"amap_marker_url":"https://uri.amap.com/marker?position=123.975209,47.352337&name=%E5%BA%B7%E7%A6%BE%E5%AE%A0%E7%89%A9%E8%AF%8A%E6%89%80&src=vetmap&coordinate=gaode&callnative=1","route_id":"r1","route_name":"第1段","global_order":7},{"name":"齐齐哈尔动物医院","address":"中华路123-3号","phone":"","category":"医疗保健服务;动物医疗场所;宠物诊所","area":"东四道街","lng":123.966528,"lat":47.354886,"amap_id":"B01C401UT6","order":8,"prev_distance_km":0.713,"cumulative_distance_km":4.148,"amap_marker_url":"https://uri.amap.com/marker?position=123.966528,47.354886&name=%E9%BD%90%E9%BD%90%E5%93%88%E5%B0%94%E5%8A%A8%E7%89%A9%E5%8C%BB%E9%99%A2&src=vetmap&coordinate=gaode&callnative=1","route_id":"r1","route_name":"第1段","global_order":8},{"name":"齐齐哈尔宏达动物医院","address":"邮政路与福新西街交叉口西60米","phone":"","category":"医疗保健服务;动物医疗场所;宠物诊所","area":"东四道街","lng":123.966411,"lat":47.354906,"amap_id":"B0J17SI8L4","order":9,"prev_distance_km":0.009,"cumulative_distance_km":4.157,"amap_marker_url":"https://uri.amap.com/marker?position=123.966411,47.354906&name=%E9%BD%90%E9%BD%90%E5%93%88%E5%B0%94%E5%AE%8F%E8%BE%BE%E5%8A%A8%E7%89%A9%E5%8C%BB%E9%99%A2&src=vetmap&coordinate=gaode&callnative=1","route_id":"r1","route_name":"第1段","global_order":9},{"name":"齐众宠物医院总院(总店)","address":"东四道街裕民西小区1号楼1-4层","phone":"18604622398","category":"医疗保健服务;动物医疗场所;宠物诊所","area":"二马路","lng":123.962048,"lat":47.348755,"amap_id":"B0FFGA4C6B","order":10,"prev_distance_km":0.759,"cumulative_distance_km":4.916,"amap_marker_url":"https://uri.amap.com/marker?position=123.962048,47.348755&name=%E9%BD%90%E4%BC%97%E5%AE%A0%E7%89%A9%E5%8C%BB%E9%99%A2%E6%80%BB%E9%99%A2%28%E6%80%BB%E5%BA%97%29&src=vetmap&coordinate=gaode&callnative=1","route_id":"r1","route_name":"第1段","global_order":10},{"name":"秋红宠物诊所","address":"中华路118号","phone":"13314520008","category":"医疗保健服务;动物医疗场所;宠物诊所","area":"东四道街","lng":123.96037,"lat":47.354514,"amap_id":"B0G26HLPDE","order":11,"prev_distance_km":0.653,"cumulative_distance_km":5.569,"amap_marker_url":"https://uri.amap.com/marker?position=123.960370,47.354514&name=%E7%A7%8B%E7%BA%A2%E5%AE%A0%E7%89%A9%E8%AF%8A%E6%89%80&src=vetmap&coordinate=gaode&callnative=1","route_id":"r1","route_name":"第1段","global_order":11},{"name":"好伙伴宠物诊所","address":"名人花园30号楼","phone":"17704526589","category":"医疗保健服务;动物医疗场所;宠物诊所","area":"","lng":123.965701,"lat":47.36006,"amap_id":"B0FFK70TGC","order":12,"prev_distance_km":0.736,"cumulative_distance_km":6.305,"amap_marker_url":"https://uri.amap.com/marker?position=123.965701,47.360060&name=%E5%A5%BD%E4%BC%99%E4%BC%B4%E5%AE%A0%E7%89%A9%E8%AF%8A%E6%89%80&src=vetmap&coordinate=gaode&callnative=1","route_id":"r1","route_name":"第1段","global_order":12},{"name":"安馨宠物医院","address":"双华南路明人花园32号楼1单元102室","phone":"","category":"医疗保健服务;动物医疗场所;宠物诊所","area":"东四道街","lng":123.964183,"lat":47.360036,"amap_id":"B0GKMDRPSD","order":13,"prev_distance_km":0.114,"cumulative_distance_km":6.419,"amap_marker_url":"https://uri.amap.com/marker?position=123.964183,47.360036&name=%E5%AE%89%E9%A6%A8%E5%AE%A0%E7%89%A9%E5%8C%BB%E9%99%A2&src=vetmap&coordinate=gaode&callnative=1","route_id":"r1","route_name":"第1段","global_order":13},{"name":"医唯它动物医院","address":"方兴新村光华街01层10号","phone":"13766589712","category":"医疗保健服务;动物医疗场所;宠物诊所","area":"东四道街","lng":123.960425,"lat":47.363175,"amap_id":"B0KDRC9GAD","order":14,"prev_distance_km":0.449,"cumulative_distance_km":6.869,"amap_marker_url":"https://uri.amap.com/marker?position=123.960425,47.363175&name=%E5%8C%BB%E5%94%AF%E5%AE%83%E5%8A%A8%E7%89%A9%E5%8C%BB%E9%99%A2&src=vetmap&coordinate=gaode&callnative=1","route_id":"r1","route_name":"第1段","global_order":14},{"name":"益丰宠物医院(建华店)","address":"齐齐尔方兴新村30号楼00单元01层10号","phone":"13298725333","category":"医疗保健服务;动物医疗场所;宠物诊所","area":"东四道街","lng":123.958071,"lat":47.363847,"amap_id":"B0HUB7GD6V","order":15,"prev_distance_km":0.192,"cumulative_distance_km":7.061,"amap_marker_url":"https://uri.amap.com/marker?position=123.958071,47.363847&name=%E7%9B%8A%E4%B8%B0%E5%AE%A0%E7%89%A9%E5%8C%BB%E9%99%A2%28%E5%BB%BA%E5%8D%8E%E5%BA%97%29&src=vetmap&coordinate=gaode&callnative=1","route_id":"r1","route_name":"第1段","global_order":15},{"name":"易安宠物门诊部","address":"卜奎北大街229号","phone":"15568249651","category":"医疗保健服务;动物医疗场所;宠物诊所","area":"","lng":123.955907,"lat":47.363748,"amap_id":"B0G2KZSUPV","order":16,"prev_distance_km":0.163,"cumulative_distance_km":7.224,"amap_marker_url":"https://uri.amap.com/marker?position=123.955907,47.363748&name=%E6%98%93%E5%AE%89%E5%AE%A0%E7%89%A9%E9%97%A8%E8%AF%8A%E9%83%A8&src=vetmap&coordinate=gaode&callnative=1","route_id":"r1","route_name":"第1段","global_order":16},{"name":"达康宠物诊所","address":"北关小区199号门市","phone":"13803612769","category":"医疗保健服务;动物医疗场所;宠物诊所","area":"","lng":123.955909,"lat":47.363101,"amap_id":"B0FFLF3HLO","order":17,"prev_distance_km":0.072,"cumulative_distance_km":7.296,"amap_marker_url":"https://uri.amap.com/marker?position=123.955909,47.363101&name=%E8%BE%BE%E5%BA%B7%E5%AE%A0%E7%89%A9%E8%AF%8A%E6%89%80&src=vetmap&coordinate=gaode&callnative=1","route_id":"r1","route_name":"第1段","global_order":17},{"name":"雨果宠物医院","address":"明园小区2号楼00单元01层12号","phone":"15204504471;15846283376","category":"医疗保健服务;动物医疗场所;宠物诊所","area":"东四道街","lng":123.955682,"lat":47.358482,"amap_id":"B0IGJLUKWZ","order":18,"prev_distance_km":0.514,"cumulative_distance_km":7.81,"amap_marker_url":"https://uri.amap.com/marker?position=123.955682,47.358482&name=%E9%9B%A8%E6%9E%9C%E5%AE%A0%E7%89%A9%E5%8C%BB%E9%99%A2&src=vetmap&coordinate=gaode&callnative=1","route_id":"r1","route_name":"第1段","global_order":18},{"name":"宠物运输宠物美容","address":"新启路与卜奎北大街交叉口西60米","phone":"","category":"医疗保健服务;动物医疗场所;宠物诊所","area":"","lng":123.954537,"lat":47.358996,"amap_id":"B0KGXCQ92N","order":19,"prev_distance_km":0.103,"cumulative_distance_km":7.914,"amap_marker_url":"https://uri.amap.com/marker?position=123.954537,47.358996&name=%E5%AE%A0%E7%89%A9%E8%BF%90%E8%BE%93%E5%AE%A0%E7%89%A9%E7%BE%8E%E5%AE%B9&src=vetmap&coordinate=gaode&callnative=1","route_id":"r1","route_name":"第1段","global_order":19},{"name":"多乐宠物诊所","address":"建华区文化街道党校街151号","phone":"13206620180","category":"医疗保健服务;动物医疗场所;宠物诊所","area":"浏园小区","lng":123.93687,"lat":47.365467,"amap_id":"B0FFH8ELEV","order":20,"prev_distance_km":1.513,"cumulative_distance_km":9.426,"amap_marker_url":"https://uri.amap.com/marker?position=123.936870,47.365467&name=%E5%A4%9A%E4%B9%90%E5%AE%A0%E7%89%A9%E8%AF%8A%E6%89%80&src=vetmap&coordinate=gaode&callnative=1","route_id":"r1","route_name":"第1段","global_order":20},{"name":"旺心宠物诊所","address":"安居西园小区中区西南4门旁","phone":"13803614516","category":"医疗保健服务;动物医疗场所;宠物诊所","area":"","lng":123.929909,"lat":47.367771,"amap_id":"B0J0ZCE6VQ","order":21,"prev_distance_km":0.584,"cumulative_distance_km":10.01,"amap_marker_url":"https://uri.amap.com/marker?position=123.929909,47.367771&name=%E6%97%BA%E5%BF%83%E5%AE%A0%E7%89%A9%E8%AF%8A%E6%89%80&src=vetmap&coordinate=gaode&callnative=1","route_id":"r1","route_name":"第1段","global_order":21}]}