{"summary":{"id":"d01822","province":"黑龙江省","city":"哈尔滨市","district":"阿城区","count":20,"total_distance_km":53.949,"coordinate_system":"GCJ-02 / Amap","generated_at":"2026-05-07 19:58:32"},"rows":[{"name":"洪彦动物诊所","address":"平新公路与哈红公路交叉口西南80米","phone":"13030034057;13644511336","category":"医疗保健服务;动物医疗场所;宠物诊所","area":"","lng":126.822714,"lat":45.622903,"amap_id":"B0FFFYLEOZ","order":1,"prev_distance_km":0.0,"cumulative_distance_km":0.0,"amap_marker_url":"https://uri.amap.com/marker?position=126.822714,45.622903&name=%E6%B4%AA%E5%BD%A6%E5%8A%A8%E7%89%A9%E8%AF%8A%E6%89%80&src=vetmap&coordinate=gaode&callnative=1"},{"name":"金达动物诊所","address":"蜚拉公路与料甸东四胡同交叉口南60米","phone":"","category":"医疗保健服务;动物医疗场所;兽医站","area":"","lng":127.060137,"lat":45.639277,"amap_id":"B01C317MAH","order":2,"prev_distance_km":18.551,"cumulative_distance_km":18.551,"amap_marker_url":"https://uri.amap.com/marker?position=127.060137,45.639277&name=%E9%87%91%E8%BE%BE%E5%8A%A8%E7%89%A9%E8%AF%8A%E6%89%80&src=vetmap&coordinate=gaode&callnative=1"},{"name":"料甸动物诊疗","address":"蜚拉公路与中心路交叉口南200米","phone":"","category":"医疗保健服务;动物医疗场所;动物医疗场所","area":"","lng":127.059801,"lat":45.63683,"amap_id":"B0H02CGZ8W","order":3,"prev_distance_km":0.273,"cumulative_distance_km":18.824,"amap_marker_url":"https://uri.amap.com/marker?position=127.059801,45.636830&name=%E6%96%99%E7%94%B8%E5%8A%A8%E7%89%A9%E8%AF%8A%E7%96%97&src=vetmap&coordinate=gaode&callnative=1"},{"name":"站前动物诊所","address":"通城街道会宁路129号","phone":"0451-57702716;15045167559","category":"医疗保健服务;动物医疗场所;宠物诊所","area":"","lng":126.993465,"lat":45.550608,"amap_id":"B0L3GZHHBA","order":4,"prev_distance_km":10.889,"cumulative_distance_km":29.712,"amap_marker_url":"https://uri.amap.com/marker?position=126.993465,45.550608&name=%E7%AB%99%E5%89%8D%E5%8A%A8%E7%89%A9%E8%AF%8A%E6%89%80&src=vetmap&coordinate=gaode&callnative=1"},{"name":"哈尔滨珈成宇郡兽药有限公司","address":"会宁路129号","phone":"0451-57702716;13936103529","category":"医疗保健服务;动物医疗场所;宠物诊所","area":"","lng":126.993356,"lat":45.550566,"amap_id":"B0FFG9Z3I9","order":5,"prev_distance_km":0.01,"cumulative_distance_km":29.722,"amap_marker_url":"https://uri.amap.com/marker?position=126.993356,45.550566&name=%E5%93%88%E5%B0%94%E6%BB%A8%E7%8F%88%E6%88%90%E5%AE%87%E9%83%A1%E5%85%BD%E8%8D%AF%E6%9C%89%E9%99%90%E5%85%AC%E5%8F%B8&src=vetmap&coordinate=gaode&callnative=1"},{"name":"康达宠物医院","address":"龙源小区2号楼一层1号门市","phone":"15246739215;15546000925","category":"医疗保健服务;动物医疗场所;宠物诊所","area":"","lng":126.970957,"lat":45.543972,"amap_id":"B0LGSRAIH0","order":6,"prev_distance_km":1.892,"cumulative_distance_km":31.614,"amap_marker_url":"https://uri.amap.com/marker?position=126.970957,45.543972&name=%E5%BA%B7%E8%BE%BE%E5%AE%A0%E7%89%A9%E5%8C%BB%E9%99%A2&src=vetmap&coordinate=gaode&callnative=1"},{"name":"陈博一宠物医院","address":"北新路32号","phone":"17645793565","category":"医疗保健服务;动物医疗场所;宠物诊所","area":"","lng":126.967424,"lat":45.543883,"amap_id":"B0H1J7O3SV","order":7,"prev_distance_km":0.275,"cumulative_distance_km":31.89,"amap_marker_url":"https://uri.amap.com/marker?position=126.967424,45.543883&name=%E9%99%88%E5%8D%9A%E4%B8%80%E5%AE%A0%E7%89%A9%E5%8C%BB%E9%99%A2&src=vetmap&coordinate=gaode&callnative=1"},{"name":"宏大动物诊所","address":"广源永胡同20号","phone":"","category":"医疗保健服务;动物医疗场所;宠物诊所","area":"","lng":126.969375,"lat":45.535625,"amap_id":"B0FFFAKR3E","order":8,"prev_distance_km":0.931,"cumulative_distance_km":32.82,"amap_marker_url":"https://uri.amap.com/marker?position=126.969375,45.535625&name=%E5%AE%8F%E5%A4%A7%E5%8A%A8%E7%89%A9%E8%AF%8A%E6%89%80&src=vetmap&coordinate=gaode&callnative=1"},{"name":"华龙动物诊所","address":"金都大街169号","phone":"0451-57711246;13796755353","category":"医疗保健服务;动物医疗场所;宠物诊所","area":"","lng":126.968128,"lat":45.531267,"amap_id":"B01C317DOZ","order":9,"prev_distance_km":0.494,"cumulative_distance_km":33.315,"amap_marker_url":"https://uri.amap.com/marker?position=126.968128,45.531267&name=%E5%8D%8E%E9%BE%99%E5%8A%A8%E7%89%A9%E8%AF%8A%E6%89%80&src=vetmap&coordinate=gaode&callnative=1"},{"name":"张二宠物医院","address":"金都大街145号","phone":"13199586867","category":"医疗保健服务;动物医疗场所;宠物诊所","area":"","lng":126.969425,"lat":45.531275,"amap_id":"B0J1MATXYH","order":10,"prev_distance_km":0.101,"cumulative_distance_km":33.416,"amap_marker_url":"https://uri.amap.com/marker?position=126.969425,45.531275&name=%E5%BC%A0%E4%BA%8C%E5%AE%A0%E7%89%A9%E5%8C%BB%E9%99%A2&src=vetmap&coordinate=gaode&callnative=1"},{"name":"赵文友兽药商店","address":"延川大街222号","phone":"13136761708","category":"医疗保健服务;动物医疗场所;兽医站","area":"","lng":126.970176,"lat":45.528648,"amap_id":"B01C317LS4","order":11,"prev_distance_km":0.298,"cumulative_distance_km":33.714,"amap_marker_url":"https://uri.amap.com/marker?position=126.970176,45.528648&name=%E8%B5%B5%E6%96%87%E5%8F%8B%E5%85%BD%E8%8D%AF%E5%95%86%E5%BA%97&src=vetmap&coordinate=gaode&callnative=1"},{"name":"王允海小动物医院(阿城店)","address":"延川大街153-155号","phone":"0451-53762573;13654619108","category":"医疗保健服务;动物医疗场所;宠物诊所","area":"","lng":126.971054,"lat":45.53014,"amap_id":"B0JRTZ0TLF","order":12,"prev_distance_km":0.179,"cumulative_distance_km":33.893,"amap_marker_url":"https://uri.amap.com/marker?position=126.971054,45.530140&name=%E7%8E%8B%E5%85%81%E6%B5%B7%E5%B0%8F%E5%8A%A8%E7%89%A9%E5%8C%BB%E9%99%A2%28%E9%98%BF%E5%9F%8E%E5%BA%97%29&src=vetmap&coordinate=gaode&callnative=1"},{"name":"鼎畜优选兽药","address":"金都大街156号","phone":"15946087845","category":"医疗保健服务;动物医疗场所;兽医站","area":"","lng":126.97113,"lat":45.530559,"amap_id":"B0G0P9H6L9","order":13,"prev_distance_km":0.047,"cumulative_distance_km":33.94,"amap_marker_url":"https://uri.amap.com/marker?position=126.971130,45.530559&name=%E9%BC%8E%E7%95%9C%E4%BC%98%E9%80%89%E5%85%BD%E8%8D%AF&src=vetmap&coordinate=gaode&callnative=1"},{"name":"顺隆动保兽药","address":"金都街146号","phone":"13936237936","category":"医疗保健服务;动物医疗场所;兽医站","area":"","lng":126.97156,"lat":45.531047,"amap_id":"B01C30ID82","order":14,"prev_distance_km":0.064,"cumulative_distance_km":34.004,"amap_marker_url":"https://uri.amap.com/marker?position=126.971560,45.531047&name=%E9%A1%BA%E9%9A%86%E5%8A%A8%E4%BF%9D%E5%85%BD%E8%8D%AF&src=vetmap&coordinate=gaode&callnative=1"},{"name":"畜康健畜堂兽药销售有限公司","address":"金都大街144号","phone":"0451-53740579;13634506221","category":"医疗保健服务;动物医疗场所;宠物诊所|医疗保健服务;动物医疗场所;兽医站","area":"","lng":126.97163,"lat":45.531072,"amap_id":"B01C302688","order":15,"prev_distance_km":0.006,"cumulative_distance_km":34.01,"amap_marker_url":"https://uri.amap.com/marker?position=126.971630,45.531072&name=%E7%95%9C%E5%BA%B7%E5%81%A5%E7%95%9C%E5%A0%82%E5%85%BD%E8%8D%AF%E9%94%80%E5%94%AE%E6%9C%89%E9%99%90%E5%85%AC%E5%8F%B8&src=vetmap&coordinate=gaode&callnative=1"},{"name":"益佳宠物大药房","address":"庆云胡同与会宁路交叉口西40米","phone":"","category":"医疗保健服务;动物医疗场所;宠物诊所","area":"","lng":126.979213,"lat":45.535714,"amap_id":"B0J3HSNGO7","order":16,"prev_distance_km":0.784,"cumulative_distance_km":34.794,"amap_marker_url":"https://uri.amap.com/marker?position=126.979213,45.535714&name=%E7%9B%8A%E4%BD%B3%E5%AE%A0%E7%89%A9%E5%A4%A7%E8%8D%AF%E6%88%BF&src=vetmap&coordinate=gaode&callnative=1"},{"name":"益康宠物医院(阿城店)","address":"胜利街庆云小区8号楼102号庆云胡同54号","phone":"18945013785","category":"医疗保健服务;动物医疗场所;宠物诊所","area":"","lng":126.979225,"lat":45.535689,"amap_id":"B0HK953QP0","order":17,"prev_distance_km":0.003,"cumulative_distance_km":34.797,"amap_marker_url":"https://uri.amap.com/marker?position=126.979225,45.535689&name=%E7%9B%8A%E5%BA%B7%E5%AE%A0%E7%89%A9%E5%8C%BB%E9%99%A2%28%E9%98%BF%E5%9F%8E%E5%BA%97%29&src=vetmap&coordinate=gaode&callnative=1"},{"name":"紫晨宠物医院","address":"绿波东关一品北门东120米","phone":"","category":"医疗保健服务;动物医疗场所;宠物诊所","area":"","lng":126.983671,"lat":45.532358,"amap_id":"B0K1BHU0S3","order":18,"prev_distance_km":0.507,"cumulative_distance_km":35.304,"amap_marker_url":"https://uri.amap.com/marker?position=126.983671,45.532358&name=%E7%B4%AB%E6%99%A8%E5%AE%A0%E7%89%A9%E5%8C%BB%E9%99%A2&src=vetmap&coordinate=gaode&callnative=1"},{"name":"兴海兽药店","address":"亚玉公路与301国道交叉口东60米","phone":"","category":"医疗保健服务;动物医疗场所;动物医疗场所","area":"","lng":127.07974,"lat":45.480951,"amap_id":"B0KDKODNIQ","order":19,"prev_distance_km":9.419,"cumulative_distance_km":44.723,"amap_marker_url":"https://uri.amap.com/marker?position=127.079740,45.480951&name=%E5%85%B4%E6%B5%B7%E5%85%BD%E8%8D%AF%E5%BA%97&src=vetmap&coordinate=gaode&callnative=1"},{"name":"王孟动物诊所","address":"双兰大街与兴企路交叉口西20米","phone":"0451-53809205;18945633221","category":"医疗保健服务;动物医疗场所;宠物诊所","area":"","lng":126.971485,"lat":45.447495,"amap_id":"B0FFK71JFX","order":20,"prev_distance_km":9.226,"cumulative_distance_km":53.949,"amap_marker_url":"https://uri.amap.com/marker?position=126.971485,45.447495&name=%E7%8E%8B%E5%AD%9F%E5%8A%A8%E7%89%A9%E8%AF%8A%E6%89%80&src=vetmap&coordinate=gaode&callnative=1"}]}