{"summary":{"id":"d01817","province":"黑龙江省","city":"哈尔滨市","district":"木兰县","count":7,"total_distance_km":62.358,"coordinate_system":"GCJ-02 / Amap","generated_at":"2026-05-07 20:24:31"},"rows":[{"name":"康益升宠物门诊(木兰店)","address":"仿古街79号(冷玫瑰北屋)","phone":"","category":"医疗保健服务;动物医疗场所;宠物诊所","area":"","lng":128.039182,"lat":45.944699,"amap_id":"B0JAPLEKSR","order":1,"prev_distance_km":0.0,"cumulative_distance_km":0.0,"amap_marker_url":"https://uri.amap.com/marker?position=128.039182,45.944699&name=%E5%BA%B7%E7%9B%8A%E5%8D%87%E5%AE%A0%E7%89%A9%E9%97%A8%E8%AF%8A%28%E6%9C%A8%E5%85%B0%E5%BA%97%29&src=vetmap&coordinate=gaode&callnative=1"},{"name":"瑞康宠物医院(民主四道街店)","address":"中心路155号","phone":"13936371937","category":"医疗保健服务;动物医疗场所;宠物诊所","area":"","lng":128.041666,"lat":45.952586,"amap_id":"B0LUNA38HG","order":2,"prev_distance_km":0.898,"cumulative_distance_km":0.898,"amap_marker_url":"https://uri.amap.com/marker?position=128.041666,45.952586&name=%E7%91%9E%E5%BA%B7%E5%AE%A0%E7%89%A9%E5%8C%BB%E9%99%A2%28%E6%B0%91%E4%B8%BB%E5%9B%9B%E9%81%93%E8%A1%97%E5%BA%97%29&src=vetmap&coordinate=gaode&callnative=1"},{"name":"木兰县建国乡王兽医屯","address":"","phone":"","category":"医疗保健服务;动物医疗场所;兽医站","area":"","lng":127.977825,"lat":46.125525,"amap_id":"B0L0CCZL41","order":3,"prev_distance_km":19.851,"cumulative_distance_km":20.749,"amap_marker_url":"https://uri.amap.com/marker?position=127.977825,46.125525&name=%E6%9C%A8%E5%85%B0%E5%8E%BF%E5%BB%BA%E5%9B%BD%E4%B9%A1%E7%8E%8B%E5%85%BD%E5%8C%BB%E5%B1%AF&src=vetmap&coordinate=gaode&callnative=1"},{"name":"刘文兽药商店","address":"657乡道与满大公路交叉口东100米","phone":"","category":"购物服务;购物相关场所;购物相关场所|医疗保健服务;动物医疗场所;动物医疗场所","area":"","lng":127.728275,"lat":46.301675,"amap_id":"B0L0C70G0V","order":4,"prev_distance_km":27.429,"cumulative_distance_km":48.178,"amap_marker_url":"https://uri.amap.com/marker?position=127.728275,46.301675&name=%E5%88%98%E6%96%87%E5%85%BD%E8%8D%AF%E5%95%86%E5%BA%97&src=vetmap&coordinate=gaode&callnative=1"},{"name":"胜春兽药店","address":"庆木公路与中经路交叉口西80米","phone":"","category":"医疗保健服务;动物医疗场所;动物医疗场所","area":"","lng":127.871486,"lat":46.381437,"amap_id":"B0KUGKMQ50","order":5,"prev_distance_km":14.125,"cumulative_distance_km":62.303,"amap_marker_url":"https://uri.amap.com/marker?position=127.871486,46.381437&name=%E8%83%9C%E6%98%A5%E5%85%BD%E8%8D%AF%E5%BA%97&src=vetmap&coordinate=gaode&callnative=1"},{"name":"木兰县东兴蓄牧兽医站","address":"庆木公路与中经路交叉口西80米","phone":"","category":"医疗保健服务;动物医疗场所;兽医站","area":"","lng":127.871532,"lat":46.381399,"amap_id":"B0FFHQ6KHP","order":6,"prev_distance_km":0.006,"cumulative_distance_km":62.309,"amap_marker_url":"https://uri.amap.com/marker?position=127.871532,46.381399&name=%E6%9C%A8%E5%85%B0%E5%8E%BF%E4%B8%9C%E5%85%B4%E8%93%84%E7%89%A7%E5%85%BD%E5%8C%BB%E7%AB%99&src=vetmap&coordinate=gaode&callnative=1"},{"name":"王天红兽药店","address":"庆木公路与中经路交叉口西南40米","phone":"","category":"医疗保健服务;动物医疗场所;动物医疗场所","area":"","lng":127.872114,"lat":46.381596,"amap_id":"B0KDFY2727","order":7,"prev_distance_km":0.05,"cumulative_distance_km":62.358,"amap_marker_url":"https://uri.amap.com/marker?position=127.872114,46.381596&name=%E7%8E%8B%E5%A4%A9%E7%BA%A2%E5%85%BD%E8%8D%AF%E5%BA%97&src=vetmap&coordinate=gaode&callnative=1"}]}