{"summary":{"id":"d01849","province":"黑龙江省","city":"绥化市","district":"安达市","count":16,"total_distance_km":67.46,"coordinate_system":"GCJ-02 / Amap","generated_at":"2026-05-07 19:58:35"},"rows":[{"name":"鑫达康兽药店","address":"巩家粮油百货超市西侧","phone":"","category":"医疗保健服务;动物医疗场所;动物医疗场所","area":"","lng":125.017533,"lat":46.14349,"amap_id":"B0LADC8XO7","order":1,"prev_distance_km":0.0,"cumulative_distance_km":0.0,"amap_marker_url":"https://uri.amap.com/marker?position=125.017533,46.143490&name=%E9%91%AB%E8%BE%BE%E5%BA%B7%E5%85%BD%E8%8D%AF%E5%BA%97&src=vetmap&coordinate=gaode&callnative=1"},{"name":"盛索奥兽药店","address":"升平镇中心卫生院东侧180米","phone":"","category":"医疗保健服务;动物医疗场所;动物医疗场所","area":"","lng":125.275509,"lat":46.215522,"amap_id":"B0G1YLS7FT","order":2,"prev_distance_km":21.416,"cumulative_distance_km":21.416,"amap_marker_url":"https://uri.amap.com/marker?position=125.275509,46.215522&name=%E7%9B%9B%E7%B4%A2%E5%A5%A5%E5%85%BD%E8%8D%AF%E5%BA%97&src=vetmap&coordinate=gaode&callnative=1"},{"name":"宏泰动物门诊部","address":"央城杰座小区6号楼11号商服","phone":"18245771881","category":"医疗保健服务;动物医疗场所;宠物诊所","area":"","lng":125.332737,"lat":46.405456,"amap_id":"B0JULNHOBB","order":3,"prev_distance_km":21.572,"cumulative_distance_km":42.988,"amap_marker_url":"https://uri.amap.com/marker?position=125.332737,46.405456&name=%E5%AE%8F%E6%B3%B0%E5%8A%A8%E7%89%A9%E9%97%A8%E8%AF%8A%E9%83%A8&src=vetmap&coordinate=gaode&callnative=1"},{"name":"安达隆盛动物门诊","address":"金牛路世纪花园社区","phone":"13946955258;15945914360","category":"医疗保健服务;动物医疗场所;宠物诊所","area":"","lng":125.334882,"lat":46.406197,"amap_id":"B0FFJKVK49","order":4,"prev_distance_km":0.184,"cumulative_distance_km":43.172,"amap_marker_url":"https://uri.amap.com/marker?position=125.334882,46.406197&name=%E5%AE%89%E8%BE%BE%E9%9A%86%E7%9B%9B%E5%8A%A8%E7%89%A9%E9%97%A8%E8%AF%8A&src=vetmap&coordinate=gaode&callnative=1"},{"name":"鑫锋动物医院","address":"南横四道街世纪花园三号楼","phone":"13634898393","category":"医疗保健服务;动物医疗场所;宠物诊所","area":"","lng":125.335397,"lat":46.405844,"amap_id":"B0JGYMUTZH","order":5,"prev_distance_km":0.056,"cumulative_distance_km":43.228,"amap_marker_url":"https://uri.amap.com/marker?position=125.335397,46.405844&name=%E9%91%AB%E9%94%8B%E5%8A%A8%E7%89%A9%E5%8C%BB%E9%99%A2&src=vetmap&coordinate=gaode&callnative=1"},{"name":"团结兽药店","address":"南横街与敬牛路交汇处东南150米","phone":"15845975222","category":"医疗保健服务;动物医疗场所;动物医疗场所","area":"","lng":125.337047,"lat":46.406711,"amap_id":"B01C7004ER","order":6,"prev_distance_km":0.159,"cumulative_distance_km":43.387,"amap_marker_url":"https://uri.amap.com/marker?position=125.337047,46.406711&name=%E5%9B%A2%E7%BB%93%E5%85%BD%E8%8D%AF%E5%BA%97&src=vetmap&coordinate=gaode&callnative=1"},{"name":"腾飞兽药店","address":"南横五道街金点国际A栋六门","phone":"13946908108","category":"医疗保健服务;动物医疗场所;动物医疗场所","area":"","lng":125.336637,"lat":46.406986,"amap_id":"B0FFJKX970","order":7,"prev_distance_km":0.044,"cumulative_distance_km":43.431,"amap_marker_url":"https://uri.amap.com/marker?position=125.336637,46.406986&name=%E8%85%BE%E9%A3%9E%E5%85%BD%E8%8D%AF%E5%BA%97&src=vetmap&coordinate=gaode&callnative=1"},{"name":"尚宠动物医院(南横街店)","address":"南横街五六道街路南226号龙江网络电视台对面","phone":"13351756881;13351859993","category":"医疗保健服务;动物医疗场所;宠物诊所","area":"","lng":125.336769,"lat":46.407969,"amap_id":"B0FFLIHW5C","order":8,"prev_distance_km":0.11,"cumulative_distance_km":43.541,"amap_marker_url":"https://uri.amap.com/marker?position=125.336769,46.407969&name=%E5%B0%9A%E5%AE%A0%E5%8A%A8%E7%89%A9%E5%8C%BB%E9%99%A2%28%E5%8D%97%E6%A8%AA%E8%A1%97%E5%BA%97%29&src=vetmap&coordinate=gaode&callnative=1"},{"name":"华和威动物门诊","address":"金税花园西南门西北130米","phone":"0455-7568999;18245777183","category":"医疗保健服务;动物医疗场所;宠物诊所","area":"","lng":125.338244,"lat":46.40833,"amap_id":"B0G1YNRXS0","order":9,"prev_distance_km":0.12,"cumulative_distance_km":43.661,"amap_marker_url":"https://uri.amap.com/marker?position=125.338244,46.408330&name=%E5%8D%8E%E5%92%8C%E5%A8%81%E5%8A%A8%E7%89%A9%E9%97%A8%E8%AF%8A&src=vetmap&coordinate=gaode&callnative=1"},{"name":"益康动物医院","address":"南环五至六道街之间金点国际A5B号楼12门","phone":"13836850106;18204599799","category":"医疗保健服务;动物医疗场所;宠物诊所","area":"","lng":125.340684,"lat":46.405658,"amap_id":"B0FFKKC29Q","order":10,"prev_distance_km":0.351,"cumulative_distance_km":44.012,"amap_marker_url":"https://uri.amap.com/marker?position=125.340684,46.405658&name=%E7%9B%8A%E5%BA%B7%E5%8A%A8%E7%89%A9%E5%8C%BB%E9%99%A2&src=vetmap&coordinate=gaode&callnative=1"},{"name":"康悦宠物门诊部","address":"南环路","phone":"18249566797","category":"医疗保健服务;动物医疗场所;宠物诊所","area":"","lng":125.342185,"lat":46.406971,"amap_id":"B0LKJD258N","order":11,"prev_distance_km":0.186,"cumulative_distance_km":44.198,"amap_marker_url":"https://uri.amap.com/marker?position=125.342185,46.406971&name=%E5%BA%B7%E6%82%A6%E5%AE%A0%E7%89%A9%E9%97%A8%E8%AF%8A%E9%83%A8&src=vetmap&coordinate=gaode&callnative=1"},{"name":"洪波动物医院","address":"南横街与荷斯坦牛路交叉口西二十米","phone":"13845919798;18245787650","category":"医疗保健服务;动物医疗场所;宠物诊所","area":"","lng":125.340894,"lat":46.410671,"amap_id":"B0FFIA59XK","order":12,"prev_distance_km":0.423,"cumulative_distance_km":44.621,"amap_marker_url":"https://uri.amap.com/marker?position=125.340894,46.410671&name=%E6%B4%AA%E6%B3%A2%E5%8A%A8%E7%89%A9%E5%8C%BB%E9%99%A2&src=vetmap&coordinate=gaode&callnative=1"},{"name":"爱宠宠物美容","address":"南横街与荷斯坦牛路交叉口西南40米","phone":"13904860333","category":"医疗保健服务;动物医疗场所;动物医疗场所","area":"","lng":125.340782,"lat":46.410672,"amap_id":"B0FFGZUVXU","order":13,"prev_distance_km":0.009,"cumulative_distance_km":44.63,"amap_marker_url":"https://uri.amap.com/marker?position=125.340782,46.410672&name=%E7%88%B1%E5%AE%A0%E5%AE%A0%E7%89%A9%E7%BE%8E%E5%AE%B9&src=vetmap&coordinate=gaode&callnative=1"},{"name":"A宠康宠物门诊","address":"南横街与神牛路交叉口东北80米","phone":"","category":"医疗保健服务;动物医疗场所;宠物诊所","area":"","lng":125.338246,"lat":46.409189,"amap_id":"B0LD5156DB","order":14,"prev_distance_km":0.255,"cumulative_distance_km":44.884,"amap_marker_url":"https://uri.amap.com/marker?position=125.338246,46.409189&name=A%E5%AE%A0%E5%BA%B7%E5%AE%A0%E7%89%A9%E9%97%A8%E8%AF%8A&src=vetmap&coordinate=gaode&callnative=1"},{"name":"盛天泉畜禽兽药店","address":"北横街244号","phone":"0455-7243555;13329495333","category":"医疗保健服务;动物医疗场所;动物医疗场所","area":"北横街","lng":125.330518,"lat":46.413492,"amap_id":"B0FFHNN31Q","order":15,"prev_distance_km":0.762,"cumulative_distance_km":45.646,"amap_marker_url":"https://uri.amap.com/marker?position=125.330518,46.413492&name=%E7%9B%9B%E5%A4%A9%E6%B3%89%E7%95%9C%E7%A6%BD%E5%85%BD%E8%8D%AF%E5%BA%97&src=vetmap&coordinate=gaode&callnative=1"},{"name":"彩凤兽药店","address":"中本石油加油站西南侧210米","phone":"","category":"医疗保健服务;动物医疗场所;动物医疗场所","area":"","lng":125.474425,"lat":46.582825,"amap_id":"B0LGT7UAJE","order":16,"prev_distance_km":21.814,"cumulative_distance_km":67.46,"amap_marker_url":"https://uri.amap.com/marker?position=125.474425,46.582825&name=%E5%BD%A9%E5%87%A4%E5%85%BD%E8%8D%AF%E5%BA%97&src=vetmap&coordinate=gaode&callnative=1"}]}