{"summary":{"id":"d01823","province":"黑龙江省","city":"哈尔滨市","district":"香坊区","count":46,"route_count":1,"max_route_clinics":46,"total_distance_km":47.525,"coordinate_system":"GCJ-02 / Amap","generated_at":"2026-05-07 21:31:15"},"routes":[{"id":"r1","name":"第1段","count":46,"total_distance_km":47.525,"rows":[{"name":"成高子镇香福兽药店","address":"成高子镇人民政府东侧160米","phone":"","category":"医疗保健服务;动物医疗场所;动物医疗场所","area":"","lng":126.846776,"lat":45.698371,"amap_id":"B0JRD4Q821","order":1,"prev_distance_km":0.0,"cumulative_distance_km":0.0,"amap_marker_url":"https://uri.amap.com/marker?position=126.846776,45.698371&name=%E6%88%90%E9%AB%98%E5%AD%90%E9%95%87%E9%A6%99%E7%A6%8F%E5%85%BD%E8%8D%AF%E5%BA%97&src=vetmap&coordinate=gaode&callnative=1","route_id":"r1","route_name":"第1段"},{"name":"明霞兽药店","address":"成高子镇哈成路152号","phone":"13089703136","category":"医疗保健服务;动物医疗场所;动物医疗场所","area":"","lng":126.839368,"lat":45.699095,"amap_id":"B0G3F5JTMH","order":2,"prev_distance_km":0.581,"cumulative_distance_km":0.581,"amap_marker_url":"https://uri.amap.com/marker?position=126.839368,45.699095&name=%E6%98%8E%E9%9C%9E%E5%85%BD%E8%8D%AF%E5%BA%97&src=vetmap&coordinate=gaode&callnative=1","route_id":"r1","route_name":"第1段"},{"name":"安溢雅宠物诊所","address":"永泰城永兴路70号","phone":"0451-82059893;18545821518","category":"医疗保健服务;动物医疗场所;宠物诊所","area":"香福路","lng":126.763828,"lat":45.716806,"amap_id":"B0FFJ0CFSG","order":3,"prev_distance_km":6.187,"cumulative_distance_km":6.768,"amap_marker_url":"https://uri.amap.com/marker?position=126.763828,45.716806&name=%E5%AE%89%E6%BA%A2%E9%9B%85%E5%AE%A0%E7%89%A9%E8%AF%8A%E6%89%80&src=vetmap&coordinate=gaode&callnative=1","route_id":"r1","route_name":"第1段"},{"name":"黑龙江东北农大动物医院","address":"农科街16号","phone":"","category":"医疗保健服务;动物医疗场所;宠物诊所","area":"香福路","lng":126.763344,"lat":45.720575,"amap_id":"B0FFKULY3O","order":4,"prev_distance_km":0.421,"cumulative_distance_km":7.189,"amap_marker_url":"https://uri.amap.com/marker?position=126.763344,45.720575&name=%E9%BB%91%E9%BE%99%E6%B1%9F%E4%B8%9C%E5%8C%97%E5%86%9C%E5%A4%A7%E5%8A%A8%E7%89%A9%E5%8C%BB%E9%99%A2&src=vetmap&coordinate=gaode&callnative=1","route_id":"r1","route_name":"第1段"},{"name":"熙鑫宠物诊所","address":"ONE2号楼7门市猫狗绝育,猫粮狗粮,宠物疫苗接种,宠物保险,猫狗疫苗","phone":"15546155582","category":"医疗保健服务;动物医疗场所;宠物诊所","area":"","lng":126.767075,"lat":45.743125,"amap_id":"B0J6DAF2EC","order":5,"prev_distance_km":2.524,"cumulative_distance_km":9.713,"amap_marker_url":"https://uri.amap.com/marker?position=126.767075,45.743125&name=%E7%86%99%E9%91%AB%E5%AE%A0%E7%89%A9%E8%AF%8A%E6%89%80&src=vetmap&coordinate=gaode&callnative=1","route_id":"r1","route_name":"第1段"},{"name":"优爱宠物医院(金香路店)","address":"金香路138号","phone":"16645333321","category":"医疗保健服务;动物医疗场所;宠物诊所","area":"","lng":126.767646,"lat":45.745967,"amap_id":"B0H0RUB2GA","order":6,"prev_distance_km":0.319,"cumulative_distance_km":10.032,"amap_marker_url":"https://uri.amap.com/marker?position=126.767646,45.745967&name=%E4%BC%98%E7%88%B1%E5%AE%A0%E7%89%A9%E5%8C%BB%E9%99%A2%28%E9%87%91%E9%A6%99%E8%B7%AF%E5%BA%97%29&src=vetmap&coordinate=gaode&callnative=1","route_id":"r1","route_name":"第1段"},{"name":"中普兽药","address":"公滨路55号二楼B140号","phone":"0451-55110565","category":"医疗保健服务;动物医疗场所;兽医站","area":"","lng":126.751175,"lat":45.726475,"amap_id":"B0JDS7VE4I","order":7,"prev_distance_km":2.516,"cumulative_distance_km":12.549,"amap_marker_url":"https://uri.amap.com/marker?position=126.751175,45.726475&name=%E4%B8%AD%E6%99%AE%E5%85%BD%E8%8D%AF&src=vetmap&coordinate=gaode&callnative=1","route_id":"r1","route_name":"第1段"},{"name":"乐邦宠物综合门诊","address":"电碳路6号恒大悦珑湾20号楼20-2、20-3-103室","phone":"","category":"医疗保健服务;动物医疗场所;宠物诊所","area":"","lng":126.729083,"lat":45.71711,"amap_id":"B0L0DUNJJ6","order":8,"prev_distance_km":2.006,"cumulative_distance_km":14.555,"amap_marker_url":"https://uri.amap.com/marker?position=126.729083,45.717110&name=%E4%B9%90%E9%82%A6%E5%AE%A0%E7%89%A9%E7%BB%BC%E5%90%88%E9%97%A8%E8%AF%8A&src=vetmap&coordinate=gaode&callnative=1","route_id":"r1","route_name":"第1段"},{"name":"大东北动物医院","address":"互助街7-1号","phone":"15045024416","category":"医疗保健服务;动物医疗场所;宠物诊所","area":"","lng":126.729948,"lat":45.733356,"amap_id":"B0FFKFH4TO","order":9,"prev_distance_km":1.808,"cumulative_distance_km":16.363,"amap_marker_url":"https://uri.amap.com/marker?position=126.729948,45.733356&name=%E5%A4%A7%E4%B8%9C%E5%8C%97%E5%8A%A8%E7%89%A9%E5%8C%BB%E9%99%A2&src=vetmap&coordinate=gaode&callnative=1","route_id":"r1","route_name":"第1段"},{"name":"宠之爱科威动物诊疗中心医院(科威店)","address":"公滨路139号","phone":"","category":"医疗保健服务;动物医疗场所;宠物诊所","area":"","lng":126.724669,"lat":45.730031,"amap_id":"B0FFIUJNG4","order":10,"prev_distance_km":0.552,"cumulative_distance_km":16.915,"amap_marker_url":"https://uri.amap.com/marker?position=126.724669,45.730031&name=%E5%AE%A0%E4%B9%8B%E7%88%B1%E7%A7%91%E5%A8%81%E5%8A%A8%E7%89%A9%E8%AF%8A%E7%96%97%E4%B8%AD%E5%BF%83%E5%8C%BB%E9%99%A2%28%E7%A7%91%E5%A8%81%E5%BA%97%29&src=vetmap&coordinate=gaode&callnative=1","route_id":"r1","route_name":"第1段"},{"name":"科盛动物医院","address":"城东新居D区南门西80米","phone":"","category":"医疗保健服务;动物医疗场所;宠物诊所","area":"","lng":126.724638,"lat":45.730027,"amap_id":"B0L3A1XII0","order":11,"prev_distance_km":0.002,"cumulative_distance_km":16.917,"amap_marker_url":"https://uri.amap.com/marker?position=126.724638,45.730027&name=%E7%A7%91%E7%9B%9B%E5%8A%A8%E7%89%A9%E5%8C%BB%E9%99%A2&src=vetmap&coordinate=gaode&callnative=1","route_id":"r1","route_name":"第1段"},{"name":"圣腾动保","address":"公滨路162号","phone":"","category":"医疗保健服务;动物医疗场所;兽医站","area":"公滨路","lng":126.713718,"lat":45.730849,"amap_id":"B0FFFVNRLG","order":12,"prev_distance_km":0.853,"cumulative_distance_km":17.77,"amap_marker_url":"https://uri.amap.com/marker?position=126.713718,45.730849&name=%E5%9C%A3%E8%85%BE%E5%8A%A8%E4%BF%9D&src=vetmap&coordinate=gaode&callnative=1","route_id":"r1","route_name":"第1段"},{"name":"妙手宠物诊所","address":"延福街51号","phone":"0451-55100950;13945633240","category":"医疗保健服务;动物医疗场所;宠物诊所","area":"果园","lng":126.706511,"lat":45.728222,"amap_id":"B0FFH8MYNO","order":13,"prev_distance_km":0.631,"cumulative_distance_km":18.401,"amap_marker_url":"https://uri.amap.com/marker?position=126.706511,45.728222&name=%E5%A6%99%E6%89%8B%E5%AE%A0%E7%89%A9%E8%AF%8A%E6%89%80&src=vetmap&coordinate=gaode&callnative=1","route_id":"r1","route_name":"第1段"},{"name":"我宠我爱动物医院(安埠店)","address":"果园街67号","phone":"0451-87236120","category":"医疗保健服务;动物医疗场所;宠物诊所","area":"果园","lng":126.705065,"lat":45.728678,"amap_id":"B0FFI1SO5L","order":14,"prev_distance_km":0.123,"cumulative_distance_km":18.524,"amap_marker_url":"https://uri.amap.com/marker?position=126.705065,45.728678&name=%E6%88%91%E5%AE%A0%E6%88%91%E7%88%B1%E5%8A%A8%E7%89%A9%E5%8C%BB%E9%99%A2%28%E5%AE%89%E5%9F%A0%E5%BA%97%29&src=vetmap&coordinate=gaode&callnative=1","route_id":"r1","route_name":"第1段"},{"name":"博然宠物医院·犬证办理","address":"泰山路76号","phone":"0451-55181171","category":"医疗保健服务;动物医疗场所;宠物诊所","area":"泰山路","lng":126.701331,"lat":45.742053,"amap_id":"B0FFFAJML2","order":15,"prev_distance_km":1.515,"cumulative_distance_km":20.039,"amap_marker_url":"https://uri.amap.com/marker?position=126.701331,45.742053&name=%E5%8D%9A%E7%84%B6%E5%AE%A0%E7%89%A9%E5%8C%BB%E9%99%A2%C2%B7%E7%8A%AC%E8%AF%81%E5%8A%9E%E7%90%86&src=vetmap&coordinate=gaode&callnative=1","route_id":"r1","route_name":"第1段"},{"name":"秀派宠美宠物美容师培训中心","address":"安埠街道公滨路372号","phone":"","category":"医疗保健服务;动物医疗场所;宠物诊所","area":"公滨路","lng":126.694145,"lat":45.72974,"amap_id":"B0JDFHN41N","order":16,"prev_distance_km":1.478,"cumulative_distance_km":21.517,"amap_marker_url":"https://uri.amap.com/marker?position=126.694145,45.729740&name=%E7%A7%80%E6%B4%BE%E5%AE%A0%E7%BE%8E%E5%AE%A0%E7%89%A9%E7%BE%8E%E5%AE%B9%E5%B8%88%E5%9F%B9%E8%AE%AD%E4%B8%AD%E5%BF%83&src=vetmap&coordinate=gaode&callnative=1","route_id":"r1","route_name":"第1段"},{"name":"哈尔滨昌泰小动物诊所","address":"通站街附23-4号","phone":"","category":"医疗保健服务;动物医疗场所;宠物诊所","area":"安埠","lng":126.687834,"lat":45.723752,"amap_id":"B0FFG7TIF4","order":17,"prev_distance_km":0.827,"cumulative_distance_km":22.344,"amap_marker_url":"https://uri.amap.com/marker?position=126.687834,45.723752&name=%E5%93%88%E5%B0%94%E6%BB%A8%E6%98%8C%E6%B3%B0%E5%B0%8F%E5%8A%A8%E7%89%A9%E8%AF%8A%E6%89%80&src=vetmap&coordinate=gaode&callnative=1","route_id":"r1","route_name":"第1段"},{"name":"宠乐康动物诊所(香顺小区店)","address":"公滨路518-7号","phone":"0451-55623104;15546306586","category":"医疗保健服务;动物医疗场所;宠物诊所","area":"香坊大街","lng":126.678458,"lat":45.726478,"amap_id":"B0FFI8H2FG","order":18,"prev_distance_km":0.788,"cumulative_distance_km":23.132,"amap_marker_url":"https://uri.amap.com/marker?position=126.678458,45.726478&name=%E5%AE%A0%E4%B9%90%E5%BA%B7%E5%8A%A8%E7%89%A9%E8%AF%8A%E6%89%80%28%E9%A6%99%E9%A1%BA%E5%B0%8F%E5%8C%BA%E5%BA%97%29&src=vetmap&coordinate=gaode&callnative=1","route_id":"r1","route_name":"第1段"},{"name":"FCI宠物医院犬猫全科内外科","address":"菜艺街73号","phone":"13100950157","category":"医疗保健服务;动物医疗场所;宠物诊所","area":"六顺街","lng":126.683896,"lat":45.732449,"amap_id":"B0J26OX7LZ","order":19,"prev_distance_km":0.787,"cumulative_distance_km":23.919,"amap_marker_url":"https://uri.amap.com/marker?position=126.683896,45.732449&name=FCI%E5%AE%A0%E7%89%A9%E5%8C%BB%E9%99%A2%E7%8A%AC%E7%8C%AB%E5%85%A8%E7%A7%91%E5%86%85%E5%A4%96%E7%A7%91&src=vetmap&coordinate=gaode&callnative=1","route_id":"r1","route_name":"第1段"},{"name":"国际畜犬联盟宠物诊所","address":"红旗街道菜艺街73号","phone":"0451-55650906;13100950157","category":"医疗保健服务;动物医疗场所;宠物诊所","area":"六顺街","lng":126.683912,"lat":45.732468,"amap_id":"B0FFFAJG1Y","order":20,"prev_distance_km":0.002,"cumulative_distance_km":23.922,"amap_marker_url":"https://uri.amap.com/marker?position=126.683912,45.732468&name=%E5%9B%BD%E9%99%85%E7%95%9C%E7%8A%AC%E8%81%94%E7%9B%9F%E5%AE%A0%E7%89%A9%E8%AF%8A%E6%89%80&src=vetmap&coordinate=gaode&callnative=1","route_id":"r1","route_name":"第1段"},{"name":"旺优宠物·洗澡美容(香江月店)","address":"三辅街38号","phone":"18346282341","category":"医疗保健服务;动物医疗场所;宠物诊所","area":"六顺街","lng":126.6838,"lat":45.733292,"amap_id":"B0J2VUFP1Q","order":21,"prev_distance_km":0.092,"cumulative_distance_km":24.014,"amap_marker_url":"https://uri.amap.com/marker?position=126.683800,45.733292&name=%E6%97%BA%E4%BC%98%E5%AE%A0%E7%89%A9%C2%B7%E6%B4%97%E6%BE%A1%E7%BE%8E%E5%AE%B9%28%E9%A6%99%E6%B1%9F%E6%9C%88%E5%BA%97%29&src=vetmap&coordinate=gaode&callnative=1","route_id":"r1","route_name":"第1段"},{"name":"迦美宠物","address":"司徒街副110号(省医院地铁站1号口步行230米)","phone":"19545119315","category":"医疗保健服务;动物医疗场所;动物医疗场所","area":"珠江路","lng":126.677589,"lat":45.734944,"amap_id":"B0LDK9Q7B7","order":22,"prev_distance_km":0.516,"cumulative_distance_km":24.53,"amap_marker_url":"https://uri.amap.com/marker?position=126.677589,45.734944&name=%E8%BF%A6%E7%BE%8E%E5%AE%A0%E7%89%A9&src=vetmap&coordinate=gaode&callnative=1","route_id":"r1","route_name":"第1段"},{"name":"精灵宠物医院","address":"六顺街151号2楼","phone":"0451-51812727;19904512175","category":"医疗保健服务;动物医疗场所;宠物诊所","area":"珠江路","lng":126.676881,"lat":45.734654,"amap_id":"B0H6TC6BV8","order":23,"prev_distance_km":0.064,"cumulative_distance_km":24.593,"amap_marker_url":"https://uri.amap.com/marker?position=126.676881,45.734654&name=%E7%B2%BE%E7%81%B5%E5%AE%A0%E7%89%A9%E5%8C%BB%E9%99%A2&src=vetmap&coordinate=gaode&callnative=1","route_id":"r1","route_name":"第1段"},{"name":"紫晨宠物医院","address":"六顺街辅路与司徒街交叉口西80米","phone":"","category":"医疗保健服务;动物医疗场所;宠物诊所","area":"六顺街","lng":126.676775,"lat":45.734625,"amap_id":"B0L1BYYKEU","order":24,"prev_distance_km":0.009,"cumulative_distance_km":24.602,"amap_marker_url":"https://uri.amap.com/marker?position=126.676775,45.734625&name=%E7%B4%AB%E6%99%A8%E5%AE%A0%E7%89%A9%E5%8C%BB%E9%99%A2&src=vetmap&coordinate=gaode&callnative=1","route_id":"r1","route_name":"第1段"},{"name":"思萌宠物美容艺术学校","address":"香顺街84-1号","phone":"","category":"医疗保健服务;动物医疗场所;动物医疗场所","area":"六顺街","lng":126.67594,"lat":45.731114,"amap_id":"B0LDL7JZ92","order":25,"prev_distance_km":0.396,"cumulative_distance_km":24.998,"amap_marker_url":"https://uri.amap.com/marker?position=126.675940,45.731114&name=%E6%80%9D%E8%90%8C%E5%AE%A0%E7%89%A9%E7%BE%8E%E5%AE%B9%E8%89%BA%E6%9C%AF%E5%AD%A6%E6%A0%A1&src=vetmap&coordinate=gaode&callnative=1","route_id":"r1","route_name":"第1段"},{"name":"恩萌宠物美容艺术中心","address":"黑龙江省中医医院三辅院区东北门东南70米","phone":"","category":"医疗保健服务;动物医疗场所;动物医疗场所","area":"香顺街","lng":126.675973,"lat":45.73107,"amap_id":"B0LUZUT21N","order":26,"prev_distance_km":0.006,"cumulative_distance_km":25.003,"amap_marker_url":"https://uri.amap.com/marker?position=126.675973,45.731070&name=%E6%81%A9%E8%90%8C%E5%AE%A0%E7%89%A9%E7%BE%8E%E5%AE%B9%E8%89%BA%E6%9C%AF%E4%B8%AD%E5%BF%83&src=vetmap&coordinate=gaode&callnative=1","route_id":"r1","route_name":"第1段"},{"name":"权科宠物医院24小时犬猫医院","address":"香滨路52号","phone":"0451-55611518;15663860097","category":"医疗保健服务;动物医疗场所;宠物诊所","area":"","lng":126.669953,"lat":45.731483,"amap_id":"B0J67ZOIDO","order":27,"prev_distance_km":0.47,"cumulative_distance_km":25.473,"amap_marker_url":"https://uri.amap.com/marker?position=126.669953,45.731483&name=%E6%9D%83%E7%A7%91%E5%AE%A0%E7%89%A9%E5%8C%BB%E9%99%A224%E5%B0%8F%E6%97%B6%E7%8A%AC%E7%8C%AB%E5%8C%BB%E9%99%A2&src=vetmap&coordinate=gaode&callnative=1","route_id":"r1","route_name":"第1段"},{"name":"同心动物医院","address":"文端街8-7号","phone":"0451-86204918;15945151804","category":"医疗保健服务;动物医疗场所;宠物诊所","area":"","lng":126.654548,"lat":45.738613,"amap_id":"B0FFFAJ4Y6","order":28,"prev_distance_km":1.435,"cumulative_distance_km":26.907,"amap_marker_url":"https://uri.amap.com/marker?position=126.654548,45.738613&name=%E5%90%8C%E5%BF%83%E5%8A%A8%E7%89%A9%E5%8C%BB%E9%99%A2&src=vetmap&coordinate=gaode&callnative=1","route_id":"r1","route_name":"第1段"},{"name":"佑康宠物医院24h","address":"文景二道街128号","phone":"18686858895","category":"医疗保健服务;动物医疗场所;宠物诊所","area":"","lng":126.648966,"lat":45.733752,"amap_id":"B0I29CIMRC","order":29,"prev_distance_km":0.693,"cumulative_distance_km":27.6,"amap_marker_url":"https://uri.amap.com/marker?position=126.648966,45.733752&name=%E4%BD%91%E5%BA%B7%E5%AE%A0%E7%89%A9%E5%8C%BB%E9%99%A224h&src=vetmap&coordinate=gaode&callnative=1","route_id":"r1","route_name":"第1段"},{"name":"我宠我爱动物医院·犬猫异宠中心","address":"文政新区19栋1号门市","phone":"0451-82145120;18646182120","category":"医疗保健服务;动物医疗场所;宠物诊所","area":"文政","lng":126.643221,"lat":45.732232,"amap_id":"B0FFLP1JUN","order":30,"prev_distance_km":0.477,"cumulative_distance_km":28.077,"amap_marker_url":"https://uri.amap.com/marker?position=126.643221,45.732232&name=%E6%88%91%E5%AE%A0%E6%88%91%E7%88%B1%E5%8A%A8%E7%89%A9%E5%8C%BB%E9%99%A2%C2%B7%E7%8A%AC%E7%8C%AB%E5%BC%82%E5%AE%A0%E4%B8%AD%E5%BF%83&src=vetmap&coordinate=gaode&callnative=1","route_id":"r1","route_name":"第1段"},{"name":"天时宠物医院(乐松店)24h·急重症诊疗中心","address":"哈平路辅路与哈平二道街交叉口西南65米龙创睦邻8栋1层15号商服","phone":"17597366991","category":"医疗保健服务;动物医疗场所;宠物诊所","area":"","lng":126.646384,"lat":45.718857,"amap_id":"B0KR4S90BV","order":31,"prev_distance_km":1.507,"cumulative_distance_km":29.584,"amap_marker_url":"https://uri.amap.com/marker?position=126.646384,45.718857&name=%E5%A4%A9%E6%97%B6%E5%AE%A0%E7%89%A9%E5%8C%BB%E9%99%A2%28%E4%B9%90%E6%9D%BE%E5%BA%97%2924h%C2%B7%E6%80%A5%E9%87%8D%E7%97%87%E8%AF%8A%E7%96%97%E4%B8%AD%E5%BF%83&src=vetmap&coordinate=gaode&callnative=1","route_id":"r1","route_name":"第1段"},{"name":"仁仁爱宠物医院·24h急诊·急重症心脏·骨科·肿瘤转诊中心","address":"幸福路184号","phone":"15765545524","category":"医疗保健服务;动物医疗场所;宠物诊所","area":"","lng":126.648604,"lat":45.717526,"amap_id":"B0IR37KJ4I","order":32,"prev_distance_km":0.227,"cumulative_distance_km":29.812,"amap_marker_url":"https://uri.amap.com/marker?position=126.648604,45.717526&name=%E4%BB%81%E4%BB%81%E7%88%B1%E5%AE%A0%E7%89%A9%E5%8C%BB%E9%99%A2%C2%B724h%E6%80%A5%E8%AF%8A%C2%B7%E6%80%A5%E9%87%8D%E7%97%87%E5%BF%83%E8%84%8F%C2%B7%E9%AA%A8%E7%A7%91%C2%B7%E8%82%BF%E7%98%A4%E8%BD%AC%E8%AF%8A%E4%B8%AD%E5%BF%83&src=vetmap&coordinate=gaode&callnative=1","route_id":"r1","route_name":"第1段"},{"name":"贝尔宠物医院(三合路店)","address":"三合路283-285号","phone":"0451-87933175","category":"医疗保健服务;动物医疗场所;宠物诊所","area":"","lng":126.66082,"lat":45.705327,"amap_id":"B01C30KCLN","order":33,"prev_distance_km":1.655,"cumulative_distance_km":31.467,"amap_marker_url":"https://uri.amap.com/marker?position=126.660820,45.705327&name=%E8%B4%9D%E5%B0%94%E5%AE%A0%E7%89%A9%E5%8C%BB%E9%99%A2%28%E4%B8%89%E5%90%88%E8%B7%AF%E5%BA%97%29&src=vetmap&coordinate=gaode&callnative=1","route_id":"r1","route_name":"第1段"},{"name":"宠安鑫动物医院三合路院区","address":"三合路243号","phone":"15504637007","category":"医疗保健服务;动物医疗场所;宠物诊所","area":"","lng":126.66186,"lat":45.70679,"amap_id":"B0J16STZQ7","order":34,"prev_distance_km":0.182,"cumulative_distance_km":31.648,"amap_marker_url":"https://uri.amap.com/marker?position=126.661860,45.706790&name=%E5%AE%A0%E5%AE%89%E9%91%AB%E5%8A%A8%E7%89%A9%E5%8C%BB%E9%99%A2%E4%B8%89%E5%90%88%E8%B7%AF%E9%99%A2%E5%8C%BA&src=vetmap&coordinate=gaode&callnative=1","route_id":"r1","route_name":"第1段"},{"name":"爱格宠物医院","address":"通乡街211-4号","phone":"","category":"医疗保健服务;动物医疗场所;宠物诊所","area":"通乡","lng":126.688549,"lat":45.710064,"amap_id":"B0I3TM7STS","order":35,"prev_distance_km":2.104,"cumulative_distance_km":33.752,"amap_marker_url":"https://uri.amap.com/marker?position=126.688549,45.710064&name=%E7%88%B1%E6%A0%BC%E5%AE%A0%E7%89%A9%E5%8C%BB%E9%99%A2&src=vetmap&coordinate=gaode&callnative=1","route_id":"r1","route_name":"第1段"},{"name":"天越宠物医院","address":"进乡街东三三道街万科智慧未来城A区S1-11","phone":"0451-51026362;18182818941","category":"医疗保健服务;动物医疗场所;宠物诊所","area":"","lng":126.715836,"lat":45.693776,"amap_id":"B0KK0DED2T","order":36,"prev_distance_km":2.788,"cumulative_distance_km":36.54,"amap_marker_url":"https://uri.amap.com/marker?position=126.715836,45.693776&name=%E5%A4%A9%E8%B6%8A%E5%AE%A0%E7%89%A9%E5%8C%BB%E9%99%A2&src=vetmap&coordinate=gaode&callnative=1","route_id":"r1","route_name":"第1段"},{"name":"奥德宠物医院","address":"新诺街13号","phone":"0451-87936365;13086105555","category":"医疗保健服务;动物医疗场所;宠物诊所","area":"黎明","lng":126.712026,"lat":45.688918,"amap_id":"B0H2PSOVOH","order":37,"prev_distance_km":0.616,"cumulative_distance_km":37.156,"amap_marker_url":"https://uri.amap.com/marker?position=126.712026,45.688918&name=%E5%A5%A5%E5%BE%B7%E5%AE%A0%E7%89%A9%E5%8C%BB%E9%99%A2&src=vetmap&coordinate=gaode&callnative=1","route_id":"r1","route_name":"第1段"},{"name":"爱宠仕宠物诊所(立汇美罗湾)","address":"军立头道街5号","phone":"18641001671","category":"医疗保健服务;动物医疗场所;宠物诊所","area":"黎明","lng":126.692694,"lat":45.693002,"amap_id":"B0JGHZPHZZ","order":38,"prev_distance_km":1.569,"cumulative_distance_km":38.725,"amap_marker_url":"https://uri.amap.com/marker?position=126.692694,45.693002&name=%E7%88%B1%E5%AE%A0%E4%BB%95%E5%AE%A0%E7%89%A9%E8%AF%8A%E6%89%80%28%E7%AB%8B%E6%B1%87%E7%BE%8E%E7%BD%97%E6%B9%BE%29&src=vetmap&coordinate=gaode&callnative=1","route_id":"r1","route_name":"第1段"},{"name":"壹宠动物医院","address":"军立街71号","phone":"0451-87936195;18746000649","category":"医疗保健服务;动物医疗场所;宠物诊所","area":"黎明","lng":126.690491,"lat":45.691989,"amap_id":"B0G2X7MBSV","order":39,"prev_distance_km":0.205,"cumulative_distance_km":38.93,"amap_marker_url":"https://uri.amap.com/marker?position=126.690491,45.691989&name=%E5%A3%B9%E5%AE%A0%E5%8A%A8%E7%89%A9%E5%8C%BB%E9%99%A2&src=vetmap&coordinate=gaode&callnative=1","route_id":"r1","route_name":"第1段"},{"name":"云锦宠物","address":"格兰云天二期十号楼一单元","phone":"","category":"医疗保健服务;动物医疗场所;动物医疗场所","area":"黎明","lng":126.689744,"lat":45.697201,"amap_id":"B0L2VU87S7","order":40,"prev_distance_km":0.582,"cumulative_distance_km":39.512,"amap_marker_url":"https://uri.amap.com/marker?position=126.689744,45.697201&name=%E4%BA%91%E9%94%A6%E5%AE%A0%E7%89%A9&src=vetmap&coordinate=gaode&callnative=1","route_id":"r1","route_name":"第1段"},{"name":"佑宁动物医院","address":"星河路129号(进乡街地铁站1号口步行420米)","phone":"0451-51035806;15304642120","category":"医疗保健服务;动物医疗场所;宠物诊所","area":"进乡","lng":126.682892,"lat":45.703278,"amap_id":"B0J05RQJSM","order":41,"prev_distance_km":0.86,"cumulative_distance_km":40.372,"amap_marker_url":"https://uri.amap.com/marker?position=126.682892,45.703278&name=%E4%BD%91%E5%AE%81%E5%8A%A8%E7%89%A9%E5%8C%BB%E9%99%A2&src=vetmap&coordinate=gaode&callnative=1","route_id":"r1","route_name":"第1段"},{"name":"王之一动物门诊","address":"松海路恒大御景湾F3-113号","phone":"0451-82913240","category":"医疗保健服务;动物医疗场所;宠物诊所","area":"","lng":126.680022,"lat":45.702651,"amap_id":"B0G0DCA6TD","order":42,"prev_distance_km":0.234,"cumulative_distance_km":40.606,"amap_marker_url":"https://uri.amap.com/marker?position=126.680022,45.702651&name=%E7%8E%8B%E4%B9%8B%E4%B8%80%E5%8A%A8%E7%89%A9%E9%97%A8%E8%AF%8A&src=vetmap&coordinate=gaode&callnative=1","route_id":"r1","route_name":"第1段"},{"name":"来宠宠物诊所","address":"海富漫香林D6-1二单元101","phone":"15245090712;15545336635","category":"医疗保健服务;动物医疗场所;宠物诊所","area":"","lng":126.657609,"lat":45.68949,"amap_id":"B0H1UUXWFS","order":43,"prev_distance_km":2.274,"cumulative_distance_km":42.88,"amap_marker_url":"https://uri.amap.com/marker?position=126.657609,45.689490&name=%E6%9D%A5%E5%AE%A0%E5%AE%A0%E7%89%A9%E8%AF%8A%E6%89%80&src=vetmap&coordinate=gaode&callnative=1","route_id":"r1","route_name":"第1段"},{"name":"黑龙江省动物疫病预防与控制中心","address":"畜牧总站东南侧","phone":"","category":"医疗保健服务;动物医疗场所;动物医疗场所","area":"","lng":126.656088,"lat":45.652446,"amap_id":"B0FFHKJIT3","order":44,"prev_distance_km":4.121,"cumulative_distance_km":47.001,"amap_marker_url":"https://uri.amap.com/marker?position=126.656088,45.652446&name=%E9%BB%91%E9%BE%99%E6%B1%9F%E7%9C%81%E5%8A%A8%E7%89%A9%E7%96%AB%E7%97%85%E9%A2%84%E9%98%B2%E4%B8%8E%E6%8E%A7%E5%88%B6%E4%B8%AD%E5%BF%83&src=vetmap&coordinate=gaode&callnative=1","route_id":"r1","route_name":"第1段"},{"name":"哈药疫苗动物诊疗中心医院","address":"哈平路街道哈平路277号","phone":"0451-86664997","category":"医疗保健服务;动物医疗场所;宠物诊所","area":"","lng":126.655632,"lat":45.649831,"amap_id":"B0FFJP3VLM","order":45,"prev_distance_km":0.293,"cumulative_distance_km":47.294,"amap_marker_url":"https://uri.amap.com/marker?position=126.655632,45.649831&name=%E5%93%88%E8%8D%AF%E7%96%AB%E8%8B%97%E5%8A%A8%E7%89%A9%E8%AF%8A%E7%96%97%E4%B8%AD%E5%BF%83%E5%8C%BB%E9%99%A2&src=vetmap&coordinate=gaode&callnative=1","route_id":"r1","route_name":"第1段"},{"name":"爱力多动物诊所","address":"哈平路518号综合牧场小区","phone":"13624502798","category":"医疗保健服务;动物医疗场所;宠物诊所","area":"","lng":126.655116,"lat":45.647782,"amap_id":"B01C318CXB","order":46,"prev_distance_km":0.231,"cumulative_distance_km":47.525,"amap_marker_url":"https://uri.amap.com/marker?position=126.655116,45.647782&name=%E7%88%B1%E5%8A%9B%E5%A4%9A%E5%8A%A8%E7%89%A9%E8%AF%8A%E6%89%80&src=vetmap&coordinate=gaode&callnative=1","route_id":"r1","route_name":"第1段"}]}],"rows":[{"name":"成高子镇香福兽药店","address":"成高子镇人民政府东侧160米","phone":"","category":"医疗保健服务;动物医疗场所;动物医疗场所","area":"","lng":126.846776,"lat":45.698371,"amap_id":"B0JRD4Q821","order":1,"prev_distance_km":0.0,"cumulative_distance_km":0.0,"amap_marker_url":"https://uri.amap.com/marker?position=126.846776,45.698371&name=%E6%88%90%E9%AB%98%E5%AD%90%E9%95%87%E9%A6%99%E7%A6%8F%E5%85%BD%E8%8D%AF%E5%BA%97&src=vetmap&coordinate=gaode&callnative=1","route_id":"r1","route_name":"第1段","global_order":1},{"name":"明霞兽药店","address":"成高子镇哈成路152号","phone":"13089703136","category":"医疗保健服务;动物医疗场所;动物医疗场所","area":"","lng":126.839368,"lat":45.699095,"amap_id":"B0G3F5JTMH","order":2,"prev_distance_km":0.581,"cumulative_distance_km":0.581,"amap_marker_url":"https://uri.amap.com/marker?position=126.839368,45.699095&name=%E6%98%8E%E9%9C%9E%E5%85%BD%E8%8D%AF%E5%BA%97&src=vetmap&coordinate=gaode&callnative=1","route_id":"r1","route_name":"第1段","global_order":2},{"name":"安溢雅宠物诊所","address":"永泰城永兴路70号","phone":"0451-82059893;18545821518","category":"医疗保健服务;动物医疗场所;宠物诊所","area":"香福路","lng":126.763828,"lat":45.716806,"amap_id":"B0FFJ0CFSG","order":3,"prev_distance_km":6.187,"cumulative_distance_km":6.768,"amap_marker_url":"https://uri.amap.com/marker?position=126.763828,45.716806&name=%E5%AE%89%E6%BA%A2%E9%9B%85%E5%AE%A0%E7%89%A9%E8%AF%8A%E6%89%80&src=vetmap&coordinate=gaode&callnative=1","route_id":"r1","route_name":"第1段","global_order":3},{"name":"黑龙江东北农大动物医院","address":"农科街16号","phone":"","category":"医疗保健服务;动物医疗场所;宠物诊所","area":"香福路","lng":126.763344,"lat":45.720575,"amap_id":"B0FFKULY3O","order":4,"prev_distance_km":0.421,"cumulative_distance_km":7.189,"amap_marker_url":"https://uri.amap.com/marker?position=126.763344,45.720575&name=%E9%BB%91%E9%BE%99%E6%B1%9F%E4%B8%9C%E5%8C%97%E5%86%9C%E5%A4%A7%E5%8A%A8%E7%89%A9%E5%8C%BB%E9%99%A2&src=vetmap&coordinate=gaode&callnative=1","route_id":"r1","route_name":"第1段","global_order":4},{"name":"熙鑫宠物诊所","address":"ONE2号楼7门市猫狗绝育,猫粮狗粮,宠物疫苗接种,宠物保险,猫狗疫苗","phone":"15546155582","category":"医疗保健服务;动物医疗场所;宠物诊所","area":"","lng":126.767075,"lat":45.743125,"amap_id":"B0J6DAF2EC","order":5,"prev_distance_km":2.524,"cumulative_distance_km":9.713,"amap_marker_url":"https://uri.amap.com/marker?position=126.767075,45.743125&name=%E7%86%99%E9%91%AB%E5%AE%A0%E7%89%A9%E8%AF%8A%E6%89%80&src=vetmap&coordinate=gaode&callnative=1","route_id":"r1","route_name":"第1段","global_order":5},{"name":"优爱宠物医院(金香路店)","address":"金香路138号","phone":"16645333321","category":"医疗保健服务;动物医疗场所;宠物诊所","area":"","lng":126.767646,"lat":45.745967,"amap_id":"B0H0RUB2GA","order":6,"prev_distance_km":0.319,"cumulative_distance_km":10.032,"amap_marker_url":"https://uri.amap.com/marker?position=126.767646,45.745967&name=%E4%BC%98%E7%88%B1%E5%AE%A0%E7%89%A9%E5%8C%BB%E9%99%A2%28%E9%87%91%E9%A6%99%E8%B7%AF%E5%BA%97%29&src=vetmap&coordinate=gaode&callnative=1","route_id":"r1","route_name":"第1段","global_order":6},{"name":"中普兽药","address":"公滨路55号二楼B140号","phone":"0451-55110565","category":"医疗保健服务;动物医疗场所;兽医站","area":"","lng":126.751175,"lat":45.726475,"amap_id":"B0JDS7VE4I","order":7,"prev_distance_km":2.516,"cumulative_distance_km":12.549,"amap_marker_url":"https://uri.amap.com/marker?position=126.751175,45.726475&name=%E4%B8%AD%E6%99%AE%E5%85%BD%E8%8D%AF&src=vetmap&coordinate=gaode&callnative=1","route_id":"r1","route_name":"第1段","global_order":7},{"name":"乐邦宠物综合门诊","address":"电碳路6号恒大悦珑湾20号楼20-2、20-3-103室","phone":"","category":"医疗保健服务;动物医疗场所;宠物诊所","area":"","lng":126.729083,"lat":45.71711,"amap_id":"B0L0DUNJJ6","order":8,"prev_distance_km":2.006,"cumulative_distance_km":14.555,"amap_marker_url":"https://uri.amap.com/marker?position=126.729083,45.717110&name=%E4%B9%90%E9%82%A6%E5%AE%A0%E7%89%A9%E7%BB%BC%E5%90%88%E9%97%A8%E8%AF%8A&src=vetmap&coordinate=gaode&callnative=1","route_id":"r1","route_name":"第1段","global_order":8},{"name":"大东北动物医院","address":"互助街7-1号","phone":"15045024416","category":"医疗保健服务;动物医疗场所;宠物诊所","area":"","lng":126.729948,"lat":45.733356,"amap_id":"B0FFKFH4TO","order":9,"prev_distance_km":1.808,"cumulative_distance_km":16.363,"amap_marker_url":"https://uri.amap.com/marker?position=126.729948,45.733356&name=%E5%A4%A7%E4%B8%9C%E5%8C%97%E5%8A%A8%E7%89%A9%E5%8C%BB%E9%99%A2&src=vetmap&coordinate=gaode&callnative=1","route_id":"r1","route_name":"第1段","global_order":9},{"name":"宠之爱科威动物诊疗中心医院(科威店)","address":"公滨路139号","phone":"","category":"医疗保健服务;动物医疗场所;宠物诊所","area":"","lng":126.724669,"lat":45.730031,"amap_id":"B0FFIUJNG4","order":10,"prev_distance_km":0.552,"cumulative_distance_km":16.915,"amap_marker_url":"https://uri.amap.com/marker?position=126.724669,45.730031&name=%E5%AE%A0%E4%B9%8B%E7%88%B1%E7%A7%91%E5%A8%81%E5%8A%A8%E7%89%A9%E8%AF%8A%E7%96%97%E4%B8%AD%E5%BF%83%E5%8C%BB%E9%99%A2%28%E7%A7%91%E5%A8%81%E5%BA%97%29&src=vetmap&coordinate=gaode&callnative=1","route_id":"r1","route_name":"第1段","global_order":10},{"name":"科盛动物医院","address":"城东新居D区南门西80米","phone":"","category":"医疗保健服务;动物医疗场所;宠物诊所","area":"","lng":126.724638,"lat":45.730027,"amap_id":"B0L3A1XII0","order":11,"prev_distance_km":0.002,"cumulative_distance_km":16.917,"amap_marker_url":"https://uri.amap.com/marker?position=126.724638,45.730027&name=%E7%A7%91%E7%9B%9B%E5%8A%A8%E7%89%A9%E5%8C%BB%E9%99%A2&src=vetmap&coordinate=gaode&callnative=1","route_id":"r1","route_name":"第1段","global_order":11},{"name":"圣腾动保","address":"公滨路162号","phone":"","category":"医疗保健服务;动物医疗场所;兽医站","area":"公滨路","lng":126.713718,"lat":45.730849,"amap_id":"B0FFFVNRLG","order":12,"prev_distance_km":0.853,"cumulative_distance_km":17.77,"amap_marker_url":"https://uri.amap.com/marker?position=126.713718,45.730849&name=%E5%9C%A3%E8%85%BE%E5%8A%A8%E4%BF%9D&src=vetmap&coordinate=gaode&callnative=1","route_id":"r1","route_name":"第1段","global_order":12},{"name":"妙手宠物诊所","address":"延福街51号","phone":"0451-55100950;13945633240","category":"医疗保健服务;动物医疗场所;宠物诊所","area":"果园","lng":126.706511,"lat":45.728222,"amap_id":"B0FFH8MYNO","order":13,"prev_distance_km":0.631,"cumulative_distance_km":18.401,"amap_marker_url":"https://uri.amap.com/marker?position=126.706511,45.728222&name=%E5%A6%99%E6%89%8B%E5%AE%A0%E7%89%A9%E8%AF%8A%E6%89%80&src=vetmap&coordinate=gaode&callnative=1","route_id":"r1","route_name":"第1段","global_order":13},{"name":"我宠我爱动物医院(安埠店)","address":"果园街67号","phone":"0451-87236120","category":"医疗保健服务;动物医疗场所;宠物诊所","area":"果园","lng":126.705065,"lat":45.728678,"amap_id":"B0FFI1SO5L","order":14,"prev_distance_km":0.123,"cumulative_distance_km":18.524,"amap_marker_url":"https://uri.amap.com/marker?position=126.705065,45.728678&name=%E6%88%91%E5%AE%A0%E6%88%91%E7%88%B1%E5%8A%A8%E7%89%A9%E5%8C%BB%E9%99%A2%28%E5%AE%89%E5%9F%A0%E5%BA%97%29&src=vetmap&coordinate=gaode&callnative=1","route_id":"r1","route_name":"第1段","global_order":14},{"name":"博然宠物医院·犬证办理","address":"泰山路76号","phone":"0451-55181171","category":"医疗保健服务;动物医疗场所;宠物诊所","area":"泰山路","lng":126.701331,"lat":45.742053,"amap_id":"B0FFFAJML2","order":15,"prev_distance_km":1.515,"cumulative_distance_km":20.039,"amap_marker_url":"https://uri.amap.com/marker?position=126.701331,45.742053&name=%E5%8D%9A%E7%84%B6%E5%AE%A0%E7%89%A9%E5%8C%BB%E9%99%A2%C2%B7%E7%8A%AC%E8%AF%81%E5%8A%9E%E7%90%86&src=vetmap&coordinate=gaode&callnative=1","route_id":"r1","route_name":"第1段","global_order":15},{"name":"秀派宠美宠物美容师培训中心","address":"安埠街道公滨路372号","phone":"","category":"医疗保健服务;动物医疗场所;宠物诊所","area":"公滨路","lng":126.694145,"lat":45.72974,"amap_id":"B0JDFHN41N","order":16,"prev_distance_km":1.478,"cumulative_distance_km":21.517,"amap_marker_url":"https://uri.amap.com/marker?position=126.694145,45.729740&name=%E7%A7%80%E6%B4%BE%E5%AE%A0%E7%BE%8E%E5%AE%A0%E7%89%A9%E7%BE%8E%E5%AE%B9%E5%B8%88%E5%9F%B9%E8%AE%AD%E4%B8%AD%E5%BF%83&src=vetmap&coordinate=gaode&callnative=1","route_id":"r1","route_name":"第1段","global_order":16},{"name":"哈尔滨昌泰小动物诊所","address":"通站街附23-4号","phone":"","category":"医疗保健服务;动物医疗场所;宠物诊所","area":"安埠","lng":126.687834,"lat":45.723752,"amap_id":"B0FFG7TIF4","order":17,"prev_distance_km":0.827,"cumulative_distance_km":22.344,"amap_marker_url":"https://uri.amap.com/marker?position=126.687834,45.723752&name=%E5%93%88%E5%B0%94%E6%BB%A8%E6%98%8C%E6%B3%B0%E5%B0%8F%E5%8A%A8%E7%89%A9%E8%AF%8A%E6%89%80&src=vetmap&coordinate=gaode&callnative=1","route_id":"r1","route_name":"第1段","global_order":17},{"name":"宠乐康动物诊所(香顺小区店)","address":"公滨路518-7号","phone":"0451-55623104;15546306586","category":"医疗保健服务;动物医疗场所;宠物诊所","area":"香坊大街","lng":126.678458,"lat":45.726478,"amap_id":"B0FFI8H2FG","order":18,"prev_distance_km":0.788,"cumulative_distance_km":23.132,"amap_marker_url":"https://uri.amap.com/marker?position=126.678458,45.726478&name=%E5%AE%A0%E4%B9%90%E5%BA%B7%E5%8A%A8%E7%89%A9%E8%AF%8A%E6%89%80%28%E9%A6%99%E9%A1%BA%E5%B0%8F%E5%8C%BA%E5%BA%97%29&src=vetmap&coordinate=gaode&callnative=1","route_id":"r1","route_name":"第1段","global_order":18},{"name":"FCI宠物医院犬猫全科内外科","address":"菜艺街73号","phone":"13100950157","category":"医疗保健服务;动物医疗场所;宠物诊所","area":"六顺街","lng":126.683896,"lat":45.732449,"amap_id":"B0J26OX7LZ","order":19,"prev_distance_km":0.787,"cumulative_distance_km":23.919,"amap_marker_url":"https://uri.amap.com/marker?position=126.683896,45.732449&name=FCI%E5%AE%A0%E7%89%A9%E5%8C%BB%E9%99%A2%E7%8A%AC%E7%8C%AB%E5%85%A8%E7%A7%91%E5%86%85%E5%A4%96%E7%A7%91&src=vetmap&coordinate=gaode&callnative=1","route_id":"r1","route_name":"第1段","global_order":19},{"name":"国际畜犬联盟宠物诊所","address":"红旗街道菜艺街73号","phone":"0451-55650906;13100950157","category":"医疗保健服务;动物医疗场所;宠物诊所","area":"六顺街","lng":126.683912,"lat":45.732468,"amap_id":"B0FFFAJG1Y","order":20,"prev_distance_km":0.002,"cumulative_distance_km":23.922,"amap_marker_url":"https://uri.amap.com/marker?position=126.683912,45.732468&name=%E5%9B%BD%E9%99%85%E7%95%9C%E7%8A%AC%E8%81%94%E7%9B%9F%E5%AE%A0%E7%89%A9%E8%AF%8A%E6%89%80&src=vetmap&coordinate=gaode&callnative=1","route_id":"r1","route_name":"第1段","global_order":20},{"name":"旺优宠物·洗澡美容(香江月店)","address":"三辅街38号","phone":"18346282341","category":"医疗保健服务;动物医疗场所;宠物诊所","area":"六顺街","lng":126.6838,"lat":45.733292,"amap_id":"B0J2VUFP1Q","order":21,"prev_distance_km":0.092,"cumulative_distance_km":24.014,"amap_marker_url":"https://uri.amap.com/marker?position=126.683800,45.733292&name=%E6%97%BA%E4%BC%98%E5%AE%A0%E7%89%A9%C2%B7%E6%B4%97%E6%BE%A1%E7%BE%8E%E5%AE%B9%28%E9%A6%99%E6%B1%9F%E6%9C%88%E5%BA%97%29&src=vetmap&coordinate=gaode&callnative=1","route_id":"r1","route_name":"第1段","global_order":21},{"name":"迦美宠物","address":"司徒街副110号(省医院地铁站1号口步行230米)","phone":"19545119315","category":"医疗保健服务;动物医疗场所;动物医疗场所","area":"珠江路","lng":126.677589,"lat":45.734944,"amap_id":"B0LDK9Q7B7","order":22,"prev_distance_km":0.516,"cumulative_distance_km":24.53,"amap_marker_url":"https://uri.amap.com/marker?position=126.677589,45.734944&name=%E8%BF%A6%E7%BE%8E%E5%AE%A0%E7%89%A9&src=vetmap&coordinate=gaode&callnative=1","route_id":"r1","route_name":"第1段","global_order":22},{"name":"精灵宠物医院","address":"六顺街151号2楼","phone":"0451-51812727;19904512175","category":"医疗保健服务;动物医疗场所;宠物诊所","area":"珠江路","lng":126.676881,"lat":45.734654,"amap_id":"B0H6TC6BV8","order":23,"prev_distance_km":0.064,"cumulative_distance_km":24.593,"amap_marker_url":"https://uri.amap.com/marker?position=126.676881,45.734654&name=%E7%B2%BE%E7%81%B5%E5%AE%A0%E7%89%A9%E5%8C%BB%E9%99%A2&src=vetmap&coordinate=gaode&callnative=1","route_id":"r1","route_name":"第1段","global_order":23},{"name":"紫晨宠物医院","address":"六顺街辅路与司徒街交叉口西80米","phone":"","category":"医疗保健服务;动物医疗场所;宠物诊所","area":"六顺街","lng":126.676775,"lat":45.734625,"amap_id":"B0L1BYYKEU","order":24,"prev_distance_km":0.009,"cumulative_distance_km":24.602,"amap_marker_url":"https://uri.amap.com/marker?position=126.676775,45.734625&name=%E7%B4%AB%E6%99%A8%E5%AE%A0%E7%89%A9%E5%8C%BB%E9%99%A2&src=vetmap&coordinate=gaode&callnative=1","route_id":"r1","route_name":"第1段","global_order":24},{"name":"思萌宠物美容艺术学校","address":"香顺街84-1号","phone":"","category":"医疗保健服务;动物医疗场所;动物医疗场所","area":"六顺街","lng":126.67594,"lat":45.731114,"amap_id":"B0LDL7JZ92","order":25,"prev_distance_km":0.396,"cumulative_distance_km":24.998,"amap_marker_url":"https://uri.amap.com/marker?position=126.675940,45.731114&name=%E6%80%9D%E8%90%8C%E5%AE%A0%E7%89%A9%E7%BE%8E%E5%AE%B9%E8%89%BA%E6%9C%AF%E5%AD%A6%E6%A0%A1&src=vetmap&coordinate=gaode&callnative=1","route_id":"r1","route_name":"第1段","global_order":25},{"name":"恩萌宠物美容艺术中心","address":"黑龙江省中医医院三辅院区东北门东南70米","phone":"","category":"医疗保健服务;动物医疗场所;动物医疗场所","area":"香顺街","lng":126.675973,"lat":45.73107,"amap_id":"B0LUZUT21N","order":26,"prev_distance_km":0.006,"cumulative_distance_km":25.003,"amap_marker_url":"https://uri.amap.com/marker?position=126.675973,45.731070&name=%E6%81%A9%E8%90%8C%E5%AE%A0%E7%89%A9%E7%BE%8E%E5%AE%B9%E8%89%BA%E6%9C%AF%E4%B8%AD%E5%BF%83&src=vetmap&coordinate=gaode&callnative=1","route_id":"r1","route_name":"第1段","global_order":26},{"name":"权科宠物医院24小时犬猫医院","address":"香滨路52号","phone":"0451-55611518;15663860097","category":"医疗保健服务;动物医疗场所;宠物诊所","area":"","lng":126.669953,"lat":45.731483,"amap_id":"B0J67ZOIDO","order":27,"prev_distance_km":0.47,"cumulative_distance_km":25.473,"amap_marker_url":"https://uri.amap.com/marker?position=126.669953,45.731483&name=%E6%9D%83%E7%A7%91%E5%AE%A0%E7%89%A9%E5%8C%BB%E9%99%A224%E5%B0%8F%E6%97%B6%E7%8A%AC%E7%8C%AB%E5%8C%BB%E9%99%A2&src=vetmap&coordinate=gaode&callnative=1","route_id":"r1","route_name":"第1段","global_order":27},{"name":"同心动物医院","address":"文端街8-7号","phone":"0451-86204918;15945151804","category":"医疗保健服务;动物医疗场所;宠物诊所","area":"","lng":126.654548,"lat":45.738613,"amap_id":"B0FFFAJ4Y6","order":28,"prev_distance_km":1.435,"cumulative_distance_km":26.907,"amap_marker_url":"https://uri.amap.com/marker?position=126.654548,45.738613&name=%E5%90%8C%E5%BF%83%E5%8A%A8%E7%89%A9%E5%8C%BB%E9%99%A2&src=vetmap&coordinate=gaode&callnative=1","route_id":"r1","route_name":"第1段","global_order":28},{"name":"佑康宠物医院24h","address":"文景二道街128号","phone":"18686858895","category":"医疗保健服务;动物医疗场所;宠物诊所","area":"","lng":126.648966,"lat":45.733752,"amap_id":"B0I29CIMRC","order":29,"prev_distance_km":0.693,"cumulative_distance_km":27.6,"amap_marker_url":"https://uri.amap.com/marker?position=126.648966,45.733752&name=%E4%BD%91%E5%BA%B7%E5%AE%A0%E7%89%A9%E5%8C%BB%E9%99%A224h&src=vetmap&coordinate=gaode&callnative=1","route_id":"r1","route_name":"第1段","global_order":29},{"name":"我宠我爱动物医院·犬猫异宠中心","address":"文政新区19栋1号门市","phone":"0451-82145120;18646182120","category":"医疗保健服务;动物医疗场所;宠物诊所","area":"文政","lng":126.643221,"lat":45.732232,"amap_id":"B0FFLP1JUN","order":30,"prev_distance_km":0.477,"cumulative_distance_km":28.077,"amap_marker_url":"https://uri.amap.com/marker?position=126.643221,45.732232&name=%E6%88%91%E5%AE%A0%E6%88%91%E7%88%B1%E5%8A%A8%E7%89%A9%E5%8C%BB%E9%99%A2%C2%B7%E7%8A%AC%E7%8C%AB%E5%BC%82%E5%AE%A0%E4%B8%AD%E5%BF%83&src=vetmap&coordinate=gaode&callnative=1","route_id":"r1","route_name":"第1段","global_order":30},{"name":"天时宠物医院(乐松店)24h·急重症诊疗中心","address":"哈平路辅路与哈平二道街交叉口西南65米龙创睦邻8栋1层15号商服","phone":"17597366991","category":"医疗保健服务;动物医疗场所;宠物诊所","area":"","lng":126.646384,"lat":45.718857,"amap_id":"B0KR4S90BV","order":31,"prev_distance_km":1.507,"cumulative_distance_km":29.584,"amap_marker_url":"https://uri.amap.com/marker?position=126.646384,45.718857&name=%E5%A4%A9%E6%97%B6%E5%AE%A0%E7%89%A9%E5%8C%BB%E9%99%A2%28%E4%B9%90%E6%9D%BE%E5%BA%97%2924h%C2%B7%E6%80%A5%E9%87%8D%E7%97%87%E8%AF%8A%E7%96%97%E4%B8%AD%E5%BF%83&src=vetmap&coordinate=gaode&callnative=1","route_id":"r1","route_name":"第1段","global_order":31},{"name":"仁仁爱宠物医院·24h急诊·急重症心脏·骨科·肿瘤转诊中心","address":"幸福路184号","phone":"15765545524","category":"医疗保健服务;动物医疗场所;宠物诊所","area":"","lng":126.648604,"lat":45.717526,"amap_id":"B0IR37KJ4I","order":32,"prev_distance_km":0.227,"cumulative_distance_km":29.812,"amap_marker_url":"https://uri.amap.com/marker?position=126.648604,45.717526&name=%E4%BB%81%E4%BB%81%E7%88%B1%E5%AE%A0%E7%89%A9%E5%8C%BB%E9%99%A2%C2%B724h%E6%80%A5%E8%AF%8A%C2%B7%E6%80%A5%E9%87%8D%E7%97%87%E5%BF%83%E8%84%8F%C2%B7%E9%AA%A8%E7%A7%91%C2%B7%E8%82%BF%E7%98%A4%E8%BD%AC%E8%AF%8A%E4%B8%AD%E5%BF%83&src=vetmap&coordinate=gaode&callnative=1","route_id":"r1","route_name":"第1段","global_order":32},{"name":"贝尔宠物医院(三合路店)","address":"三合路283-285号","phone":"0451-87933175","category":"医疗保健服务;动物医疗场所;宠物诊所","area":"","lng":126.66082,"lat":45.705327,"amap_id":"B01C30KCLN","order":33,"prev_distance_km":1.655,"cumulative_distance_km":31.467,"amap_marker_url":"https://uri.amap.com/marker?position=126.660820,45.705327&name=%E8%B4%9D%E5%B0%94%E5%AE%A0%E7%89%A9%E5%8C%BB%E9%99%A2%28%E4%B8%89%E5%90%88%E8%B7%AF%E5%BA%97%29&src=vetmap&coordinate=gaode&callnative=1","route_id":"r1","route_name":"第1段","global_order":33},{"name":"宠安鑫动物医院三合路院区","address":"三合路243号","phone":"15504637007","category":"医疗保健服务;动物医疗场所;宠物诊所","area":"","lng":126.66186,"lat":45.70679,"amap_id":"B0J16STZQ7","order":34,"prev_distance_km":0.182,"cumulative_distance_km":31.648,"amap_marker_url":"https://uri.amap.com/marker?position=126.661860,45.706790&name=%E5%AE%A0%E5%AE%89%E9%91%AB%E5%8A%A8%E7%89%A9%E5%8C%BB%E9%99%A2%E4%B8%89%E5%90%88%E8%B7%AF%E9%99%A2%E5%8C%BA&src=vetmap&coordinate=gaode&callnative=1","route_id":"r1","route_name":"第1段","global_order":34},{"name":"爱格宠物医院","address":"通乡街211-4号","phone":"","category":"医疗保健服务;动物医疗场所;宠物诊所","area":"通乡","lng":126.688549,"lat":45.710064,"amap_id":"B0I3TM7STS","order":35,"prev_distance_km":2.104,"cumulative_distance_km":33.752,"amap_marker_url":"https://uri.amap.com/marker?position=126.688549,45.710064&name=%E7%88%B1%E6%A0%BC%E5%AE%A0%E7%89%A9%E5%8C%BB%E9%99%A2&src=vetmap&coordinate=gaode&callnative=1","route_id":"r1","route_name":"第1段","global_order":35},{"name":"天越宠物医院","address":"进乡街东三三道街万科智慧未来城A区S1-11","phone":"0451-51026362;18182818941","category":"医疗保健服务;动物医疗场所;宠物诊所","area":"","lng":126.715836,"lat":45.693776,"amap_id":"B0KK0DED2T","order":36,"prev_distance_km":2.788,"cumulative_distance_km":36.54,"amap_marker_url":"https://uri.amap.com/marker?position=126.715836,45.693776&name=%E5%A4%A9%E8%B6%8A%E5%AE%A0%E7%89%A9%E5%8C%BB%E9%99%A2&src=vetmap&coordinate=gaode&callnative=1","route_id":"r1","route_name":"第1段","global_order":36},{"name":"奥德宠物医院","address":"新诺街13号","phone":"0451-87936365;13086105555","category":"医疗保健服务;动物医疗场所;宠物诊所","area":"黎明","lng":126.712026,"lat":45.688918,"amap_id":"B0H2PSOVOH","order":37,"prev_distance_km":0.616,"cumulative_distance_km":37.156,"amap_marker_url":"https://uri.amap.com/marker?position=126.712026,45.688918&name=%E5%A5%A5%E5%BE%B7%E5%AE%A0%E7%89%A9%E5%8C%BB%E9%99%A2&src=vetmap&coordinate=gaode&callnative=1","route_id":"r1","route_name":"第1段","global_order":37},{"name":"爱宠仕宠物诊所(立汇美罗湾)","address":"军立头道街5号","phone":"18641001671","category":"医疗保健服务;动物医疗场所;宠物诊所","area":"黎明","lng":126.692694,"lat":45.693002,"amap_id":"B0JGHZPHZZ","order":38,"prev_distance_km":1.569,"cumulative_distance_km":38.725,"amap_marker_url":"https://uri.amap.com/marker?position=126.692694,45.693002&name=%E7%88%B1%E5%AE%A0%E4%BB%95%E5%AE%A0%E7%89%A9%E8%AF%8A%E6%89%80%28%E7%AB%8B%E6%B1%87%E7%BE%8E%E7%BD%97%E6%B9%BE%29&src=vetmap&coordinate=gaode&callnative=1","route_id":"r1","route_name":"第1段","global_order":38},{"name":"壹宠动物医院","address":"军立街71号","phone":"0451-87936195;18746000649","category":"医疗保健服务;动物医疗场所;宠物诊所","area":"黎明","lng":126.690491,"lat":45.691989,"amap_id":"B0G2X7MBSV","order":39,"prev_distance_km":0.205,"cumulative_distance_km":38.93,"amap_marker_url":"https://uri.amap.com/marker?position=126.690491,45.691989&name=%E5%A3%B9%E5%AE%A0%E5%8A%A8%E7%89%A9%E5%8C%BB%E9%99%A2&src=vetmap&coordinate=gaode&callnative=1","route_id":"r1","route_name":"第1段","global_order":39},{"name":"云锦宠物","address":"格兰云天二期十号楼一单元","phone":"","category":"医疗保健服务;动物医疗场所;动物医疗场所","area":"黎明","lng":126.689744,"lat":45.697201,"amap_id":"B0L2VU87S7","order":40,"prev_distance_km":0.582,"cumulative_distance_km":39.512,"amap_marker_url":"https://uri.amap.com/marker?position=126.689744,45.697201&name=%E4%BA%91%E9%94%A6%E5%AE%A0%E7%89%A9&src=vetmap&coordinate=gaode&callnative=1","route_id":"r1","route_name":"第1段","global_order":40},{"name":"佑宁动物医院","address":"星河路129号(进乡街地铁站1号口步行420米)","phone":"0451-51035806;15304642120","category":"医疗保健服务;动物医疗场所;宠物诊所","area":"进乡","lng":126.682892,"lat":45.703278,"amap_id":"B0J05RQJSM","order":41,"prev_distance_km":0.86,"cumulative_distance_km":40.372,"amap_marker_url":"https://uri.amap.com/marker?position=126.682892,45.703278&name=%E4%BD%91%E5%AE%81%E5%8A%A8%E7%89%A9%E5%8C%BB%E9%99%A2&src=vetmap&coordinate=gaode&callnative=1","route_id":"r1","route_name":"第1段","global_order":41},{"name":"王之一动物门诊","address":"松海路恒大御景湾F3-113号","phone":"0451-82913240","category":"医疗保健服务;动物医疗场所;宠物诊所","area":"","lng":126.680022,"lat":45.702651,"amap_id":"B0G0DCA6TD","order":42,"prev_distance_km":0.234,"cumulative_distance_km":40.606,"amap_marker_url":"https://uri.amap.com/marker?position=126.680022,45.702651&name=%E7%8E%8B%E4%B9%8B%E4%B8%80%E5%8A%A8%E7%89%A9%E9%97%A8%E8%AF%8A&src=vetmap&coordinate=gaode&callnative=1","route_id":"r1","route_name":"第1段","global_order":42},{"name":"来宠宠物诊所","address":"海富漫香林D6-1二单元101","phone":"15245090712;15545336635","category":"医疗保健服务;动物医疗场所;宠物诊所","area":"","lng":126.657609,"lat":45.68949,"amap_id":"B0H1UUXWFS","order":43,"prev_distance_km":2.274,"cumulative_distance_km":42.88,"amap_marker_url":"https://uri.amap.com/marker?position=126.657609,45.689490&name=%E6%9D%A5%E5%AE%A0%E5%AE%A0%E7%89%A9%E8%AF%8A%E6%89%80&src=vetmap&coordinate=gaode&callnative=1","route_id":"r1","route_name":"第1段","global_order":43},{"name":"黑龙江省动物疫病预防与控制中心","address":"畜牧总站东南侧","phone":"","category":"医疗保健服务;动物医疗场所;动物医疗场所","area":"","lng":126.656088,"lat":45.652446,"amap_id":"B0FFHKJIT3","order":44,"prev_distance_km":4.121,"cumulative_distance_km":47.001,"amap_marker_url":"https://uri.amap.com/marker?position=126.656088,45.652446&name=%E9%BB%91%E9%BE%99%E6%B1%9F%E7%9C%81%E5%8A%A8%E7%89%A9%E7%96%AB%E7%97%85%E9%A2%84%E9%98%B2%E4%B8%8E%E6%8E%A7%E5%88%B6%E4%B8%AD%E5%BF%83&src=vetmap&coordinate=gaode&callnative=1","route_id":"r1","route_name":"第1段","global_order":44},{"name":"哈药疫苗动物诊疗中心医院","address":"哈平路街道哈平路277号","phone":"0451-86664997","category":"医疗保健服务;动物医疗场所;宠物诊所","area":"","lng":126.655632,"lat":45.649831,"amap_id":"B0FFJP3VLM","order":45,"prev_distance_km":0.293,"cumulative_distance_km":47.294,"amap_marker_url":"https://uri.amap.com/marker?position=126.655632,45.649831&name=%E5%93%88%E8%8D%AF%E7%96%AB%E8%8B%97%E5%8A%A8%E7%89%A9%E8%AF%8A%E7%96%97%E4%B8%AD%E5%BF%83%E5%8C%BB%E9%99%A2&src=vetmap&coordinate=gaode&callnative=1","route_id":"r1","route_name":"第1段","global_order":45},{"name":"爱力多动物诊所","address":"哈平路518号综合牧场小区","phone":"13624502798","category":"医疗保健服务;动物医疗场所;宠物诊所","area":"","lng":126.655116,"lat":45.647782,"amap_id":"B01C318CXB","order":46,"prev_distance_km":0.231,"cumulative_distance_km":47.525,"amap_marker_url":"https://uri.amap.com/marker?position=126.655116,45.647782&name=%E7%88%B1%E5%8A%9B%E5%A4%9A%E5%8A%A8%E7%89%A9%E8%AF%8A%E6%89%80&src=vetmap&coordinate=gaode&callnative=1","route_id":"r1","route_name":"第1段","global_order":46}]}