{"summary":{"id":"d01847","province":"黑龙江省","city":"绥化市","district":"兰西县","count":23,"route_count":1,"max_route_clinics":23,"total_distance_km":128.68,"coordinate_system":"GCJ-02 / Amap","generated_at":"2026-05-07 21:31:16"},"routes":[{"id":"r1","name":"第1段","count":23,"total_distance_km":128.68,"rows":[{"name":"基良兽药店","address":"星火乡委员会西南侧100米","phone":"","category":"医疗保健服务;动物医疗场所;动物医疗场所","area":"","lng":125.782675,"lat":46.464425,"amap_id":"B0MBNXVIDN","order":1,"prev_distance_km":0.0,"cumulative_distance_km":0.0,"amap_marker_url":"https://uri.amap.com/marker?position=125.782675,46.464425&name=%E5%9F%BA%E8%89%AF%E5%85%BD%E8%8D%AF%E5%BA%97&src=vetmap&coordinate=gaode&callnative=1","route_id":"r1","route_name":"第1段"},{"name":"吕泽兽药店","address":"农机配件商店东侧","phone":"","category":"医疗保健服务;动物医疗场所;动物医疗场所","area":"","lng":125.863025,"lat":46.430775,"amap_id":"B0L0F97W8R","order":2,"prev_distance_km":7.204,"cumulative_distance_km":7.204,"amap_marker_url":"https://uri.amap.com/marker?position=125.863025,46.430775&name=%E5%90%95%E6%B3%BD%E5%85%BD%E8%8D%AF%E5%BA%97&src=vetmap&coordinate=gaode&callnative=1","route_id":"r1","route_name":"第1段"},{"name":"兰西县兰路兽药店","address":"平山镇213省道","phone":"13251553633","category":"医疗保健服务;动物医疗场所;动物医疗场所","area":"","lng":126.094415,"lat":46.392912,"amap_id":"B0L14122WK","order":3,"prev_distance_km":18.232,"cumulative_distance_km":25.436,"amap_marker_url":"https://uri.amap.com/marker?position=126.094415,46.392912&name=%E5%85%B0%E8%A5%BF%E5%8E%BF%E5%85%B0%E8%B7%AF%E5%85%BD%E8%8D%AF%E5%BA%97&src=vetmap&coordinate=gaode&callnative=1","route_id":"r1","route_name":"第1段"},{"name":"兰路兽药店","address":"168县道与708乡道交叉口西100米","phone":"","category":"医疗保健服务;动物医疗场所;动物医疗场所","area":"","lng":126.107325,"lat":46.390375,"amap_id":"B0L0V6HSTN","order":4,"prev_distance_km":1.03,"cumulative_distance_km":26.466,"amap_marker_url":"https://uri.amap.com/marker?position=126.107325,46.390375&name=%E5%85%B0%E8%B7%AF%E5%85%BD%E8%8D%AF%E5%BA%97&src=vetmap&coordinate=gaode&callnative=1","route_id":"r1","route_name":"第1段"},{"name":"红光镇兽药店","address":"中国石化红光加油站南侧240米","phone":"","category":"医疗保健服务;动物医疗场所;动物医疗场所","area":"","lng":126.288075,"lat":46.344175,"amap_id":"B0LUKRVN7J","order":5,"prev_distance_km":14.79,"cumulative_distance_km":41.255,"amap_marker_url":"https://uri.amap.com/marker?position=126.288075,46.344175&name=%E7%BA%A2%E5%85%89%E9%95%87%E5%85%BD%E8%8D%AF%E5%BA%97&src=vetmap&coordinate=gaode&callnative=1","route_id":"r1","route_name":"第1段"},{"name":"畜安兽药店","address":"兰西镇东环路茂新家园一楼","phone":"0455-5678552","category":"医疗保健服务;动物医疗场所;动物医疗场所","area":"","lng":126.302113,"lat":46.261693,"amap_id":"B0FFGAG539","order":6,"prev_distance_km":9.235,"cumulative_distance_km":50.49,"amap_marker_url":"https://uri.amap.com/marker?position=126.302113,46.261693&name=%E7%95%9C%E5%AE%89%E5%85%BD%E8%8D%AF%E5%BA%97&src=vetmap&coordinate=gaode&callnative=1","route_id":"r1","route_name":"第1段"},{"name":"黑马兽药店","address":"正阳街与麻城大道交叉口西北100米","phone":"15145737668","category":"医疗保健服务;动物医疗场所;动物医疗场所","area":"","lng":126.289644,"lat":46.261048,"amap_id":"B0FFHNLTD1","order":7,"prev_distance_km":0.961,"cumulative_distance_km":51.451,"amap_marker_url":"https://uri.amap.com/marker?position=126.289644,46.261048&name=%E9%BB%91%E9%A9%AC%E5%85%BD%E8%8D%AF%E5%BA%97&src=vetmap&coordinate=gaode&callnative=1","route_id":"r1","route_name":"第1段"},{"name":"由兴久兽药店","address":"兰西县妇幼保健院西南门旁","phone":"0455-5629508","category":"医疗保健服务;动物医疗场所;动物医疗场所","area":"","lng":126.29153,"lat":46.251202,"amap_id":"B01C70MI5L","order":8,"prev_distance_km":1.104,"cumulative_distance_km":52.556,"amap_marker_url":"https://uri.amap.com/marker?position=126.291530,46.251202&name=%E7%94%B1%E5%85%B4%E4%B9%85%E5%85%BD%E8%8D%AF%E5%BA%97&src=vetmap&coordinate=gaode&callnative=1","route_id":"r1","route_name":"第1段"},{"name":"爱宠动物医院","address":"兰西县农民工就业服务局正对面","phone":"0455-5391222;15246576677","category":"医疗保健服务;动物医疗场所;宠物诊所","area":"","lng":126.290914,"lat":46.250931,"amap_id":"B0FFJW9SH1","order":9,"prev_distance_km":0.056,"cumulative_distance_km":52.612,"amap_marker_url":"https://uri.amap.com/marker?position=126.290914,46.250931&name=%E7%88%B1%E5%AE%A0%E5%8A%A8%E7%89%A9%E5%8C%BB%E9%99%A2&src=vetmap&coordinate=gaode&callnative=1","route_id":"r1","route_name":"第1段"},{"name":"家旺兽药店","address":"畜牧兽医局1楼","phone":"15845052155;18245861556","category":"医疗保健服务;动物医疗场所;动物医疗场所","area":"","lng":126.29155,"lat":46.250574,"amap_id":"B01C70MI16","order":10,"prev_distance_km":0.063,"cumulative_distance_km":52.675,"amap_marker_url":"https://uri.amap.com/marker?position=126.291550,46.250574&name=%E5%AE%B6%E6%97%BA%E5%85%BD%E8%8D%AF%E5%BA%97&src=vetmap&coordinate=gaode&callnative=1","route_id":"r1","route_name":"第1段"},{"name":"大北农兽药店","address":"怡景家园西门旁","phone":"0455-5620027;18245864777","category":"医疗保健服务;动物医疗场所;动物医疗场所","area":"","lng":126.291624,"lat":46.249542,"amap_id":"B01C70MI5H","order":11,"prev_distance_km":0.115,"cumulative_distance_km":52.79,"amap_marker_url":"https://uri.amap.com/marker?position=126.291624,46.249542&name=%E5%A4%A7%E5%8C%97%E5%86%9C%E5%85%BD%E8%8D%AF%E5%BA%97&src=vetmap&coordinate=gaode&callnative=1","route_id":"r1","route_name":"第1段"},{"name":"王晓峰医康兽药店","address":"怡景家园西门南50米","phone":"","category":"医疗保健服务;动物医疗场所;动物医疗场所","area":"","lng":126.291685,"lat":46.249157,"amap_id":"B0IUDCHII9","order":12,"prev_distance_km":0.043,"cumulative_distance_km":52.833,"amap_marker_url":"https://uri.amap.com/marker?position=126.291685,46.249157&name=%E7%8E%8B%E6%99%93%E5%B3%B0%E5%8C%BB%E5%BA%B7%E5%85%BD%E8%8D%AF%E5%BA%97&src=vetmap&coordinate=gaode&callnative=1","route_id":"r1","route_name":"第1段"},{"name":"张靖兽药店","address":"正阳街凯旋城商服","phone":"0455-5626240;13836429185","category":"医疗保健服务;动物医疗场所;兽医站","area":"","lng":126.2918,"lat":46.246349,"amap_id":"B0FFFYPMXD","order":13,"prev_distance_km":0.312,"cumulative_distance_km":53.145,"amap_marker_url":"https://uri.amap.com/marker?position=126.291800,46.246349&name=%E5%BC%A0%E9%9D%96%E5%85%BD%E8%8D%AF%E5%BA%97&src=vetmap&coordinate=gaode&callnative=1","route_id":"r1","route_name":"第1段"},{"name":"恒爱宠物医院","address":"福乾新城南门11号","phone":"18746577176","category":"医疗保健服务;动物医疗场所;宠物诊所","area":"","lng":126.288186,"lat":46.248893,"amap_id":"B0FFISFBDO","order":14,"prev_distance_km":0.397,"cumulative_distance_km":53.542,"amap_marker_url":"https://uri.amap.com/marker?position=126.288186,46.248893&name=%E6%81%92%E7%88%B1%E5%AE%A0%E7%89%A9%E5%8C%BB%E9%99%A2&src=vetmap&coordinate=gaode&callnative=1","route_id":"r1","route_name":"第1段"},{"name":"福康动物医院","address":"加州戈雅二期36B栋5号商服","phone":"15765776725","category":"医疗保健服务;动物医疗场所;宠物诊所","area":"","lng":126.286899,"lat":46.248336,"amap_id":"B0HRK5AG99","order":15,"prev_distance_km":0.117,"cumulative_distance_km":53.659,"amap_marker_url":"https://uri.amap.com/marker?position=126.286899,46.248336&name=%E7%A6%8F%E5%BA%B7%E5%8A%A8%E7%89%A9%E5%8C%BB%E9%99%A2&src=vetmap&coordinate=gaode&callnative=1","route_id":"r1","route_name":"第1段"},{"name":"瑞庆兽药商店","address":"168县道与哈黑路辅路交叉口西北60米","phone":"","category":"医疗保健服务;动物医疗场所;动物医疗场所","area":"","lng":126.272125,"lat":46.259475,"amap_id":"B0LRD658CM","order":16,"prev_distance_km":1.681,"cumulative_distance_km":55.339,"amap_marker_url":"https://uri.amap.com/marker?position=126.272125,46.259475&name=%E7%91%9E%E5%BA%86%E5%85%BD%E8%8D%AF%E5%95%86%E5%BA%97&src=vetmap&coordinate=gaode&callnative=1","route_id":"r1","route_name":"第1段"},{"name":"乐牧兽药店","address":"宫威家园北商服高层1号门","phone":"13766763989","category":"医疗保健服务;动物医疗场所;动物医疗场所","area":"","lng":126.271484,"lat":46.259117,"amap_id":"B0FFJRZ7P3","order":17,"prev_distance_km":0.063,"cumulative_distance_km":55.403,"amap_marker_url":"https://uri.amap.com/marker?position=126.271484,46.259117&name=%E4%B9%90%E7%89%A7%E5%85%BD%E8%8D%AF%E5%BA%97&src=vetmap&coordinate=gaode&callnative=1","route_id":"r1","route_name":"第1段"},{"name":"福民兽药店","address":"平山路口西300米路南","phone":"13846793534","category":"医疗保健服务;动物医疗场所;动物医疗场所","area":"","lng":126.268879,"lat":46.260318,"amap_id":"B0J259OZ6D","order":18,"prev_distance_km":0.241,"cumulative_distance_km":55.643,"amap_marker_url":"https://uri.amap.com/marker?position=126.268879,46.260318&name=%E7%A6%8F%E6%B0%91%E5%85%BD%E8%8D%AF%E5%BA%97&src=vetmap&coordinate=gaode&callnative=1","route_id":"r1","route_name":"第1段"},{"name":"百畜兽药店","address":"奋斗镇","phone":"15134589270","category":"医疗保健服务;动物医疗场所;动物医疗场所","area":"","lng":126.106931,"lat":46.232856,"amap_id":"B0L3VHIGMX","order":19,"prev_distance_km":12.822,"cumulative_distance_km":68.466,"amap_marker_url":"https://uri.amap.com/marker?position=126.106931,46.232856&name=%E7%99%BE%E7%95%9C%E5%85%BD%E8%8D%AF%E5%BA%97&src=vetmap&coordinate=gaode&callnative=1","route_id":"r1","route_name":"第1段"},{"name":"陶百权兽药店","address":"黑大公路与712乡道交叉口东南100米","phone":"","category":"医疗保健服务;动物医疗场所;动物医疗场所","area":"","lng":126.288125,"lat":46.115525,"amap_id":"B0LBL9RM63","order":20,"prev_distance_km":19.101,"cumulative_distance_km":87.567,"amap_marker_url":"https://uri.amap.com/marker?position=126.288125,46.115525&name=%E9%99%B6%E7%99%BE%E6%9D%83%E5%85%BD%E8%8D%AF%E5%BA%97&src=vetmap&coordinate=gaode&callnative=1","route_id":"r1","route_name":"第1段"},{"name":"陈雷兽药店","address":"兰河乡十字街东50米","phone":"","category":"医疗保健服务;动物医疗场所;动物医疗场所","area":"","lng":126.442449,"lat":46.235393,"amap_id":"B0KABS3XOE","order":21,"prev_distance_km":17.856,"cumulative_distance_km":105.423,"amap_marker_url":"https://uri.amap.com/marker?position=126.442449,46.235393&name=%E9%99%88%E9%9B%B7%E5%85%BD%E8%8D%AF%E5%BA%97&src=vetmap&coordinate=gaode&callnative=1","route_id":"r1","route_name":"第1段"},{"name":"骏腾兽药店","address":"临江镇卫生院南侧","phone":"","category":"医疗保健服务;动物医疗场所;动物医疗场所","area":"","lng":126.471725,"lat":46.442275,"amap_id":"B0L2R7NVHA","order":22,"prev_distance_km":23.114,"cumulative_distance_km":128.537,"amap_marker_url":"https://uri.amap.com/marker?position=126.471725,46.442275&name=%E9%AA%8F%E8%85%BE%E5%85%BD%E8%8D%AF%E5%BA%97&src=vetmap&coordinate=gaode&callnative=1","route_id":"r1","route_name":"第1段"},{"name":"张洪林兽药店","address":"焱城家园西南侧110米","phone":"","category":"医疗保健服务;动物医疗场所;动物医疗场所","area":"","lng":126.472985,"lat":46.443217,"amap_id":"B0G2BOBUXJ","order":23,"prev_distance_km":0.142,"cumulative_distance_km":128.68,"amap_marker_url":"https://uri.amap.com/marker?position=126.472985,46.443217&name=%E5%BC%A0%E6%B4%AA%E6%9E%97%E5%85%BD%E8%8D%AF%E5%BA%97&src=vetmap&coordinate=gaode&callnative=1","route_id":"r1","route_name":"第1段"}]}],"rows":[{"name":"基良兽药店","address":"星火乡委员会西南侧100米","phone":"","category":"医疗保健服务;动物医疗场所;动物医疗场所","area":"","lng":125.782675,"lat":46.464425,"amap_id":"B0MBNXVIDN","order":1,"prev_distance_km":0.0,"cumulative_distance_km":0.0,"amap_marker_url":"https://uri.amap.com/marker?position=125.782675,46.464425&name=%E5%9F%BA%E8%89%AF%E5%85%BD%E8%8D%AF%E5%BA%97&src=vetmap&coordinate=gaode&callnative=1","route_id":"r1","route_name":"第1段","global_order":1},{"name":"吕泽兽药店","address":"农机配件商店东侧","phone":"","category":"医疗保健服务;动物医疗场所;动物医疗场所","area":"","lng":125.863025,"lat":46.430775,"amap_id":"B0L0F97W8R","order":2,"prev_distance_km":7.204,"cumulative_distance_km":7.204,"amap_marker_url":"https://uri.amap.com/marker?position=125.863025,46.430775&name=%E5%90%95%E6%B3%BD%E5%85%BD%E8%8D%AF%E5%BA%97&src=vetmap&coordinate=gaode&callnative=1","route_id":"r1","route_name":"第1段","global_order":2},{"name":"兰西县兰路兽药店","address":"平山镇213省道","phone":"13251553633","category":"医疗保健服务;动物医疗场所;动物医疗场所","area":"","lng":126.094415,"lat":46.392912,"amap_id":"B0L14122WK","order":3,"prev_distance_km":18.232,"cumulative_distance_km":25.436,"amap_marker_url":"https://uri.amap.com/marker?position=126.094415,46.392912&name=%E5%85%B0%E8%A5%BF%E5%8E%BF%E5%85%B0%E8%B7%AF%E5%85%BD%E8%8D%AF%E5%BA%97&src=vetmap&coordinate=gaode&callnative=1","route_id":"r1","route_name":"第1段","global_order":3},{"name":"兰路兽药店","address":"168县道与708乡道交叉口西100米","phone":"","category":"医疗保健服务;动物医疗场所;动物医疗场所","area":"","lng":126.107325,"lat":46.390375,"amap_id":"B0L0V6HSTN","order":4,"prev_distance_km":1.03,"cumulative_distance_km":26.466,"amap_marker_url":"https://uri.amap.com/marker?position=126.107325,46.390375&name=%E5%85%B0%E8%B7%AF%E5%85%BD%E8%8D%AF%E5%BA%97&src=vetmap&coordinate=gaode&callnative=1","route_id":"r1","route_name":"第1段","global_order":4},{"name":"红光镇兽药店","address":"中国石化红光加油站南侧240米","phone":"","category":"医疗保健服务;动物医疗场所;动物医疗场所","area":"","lng":126.288075,"lat":46.344175,"amap_id":"B0LUKRVN7J","order":5,"prev_distance_km":14.79,"cumulative_distance_km":41.255,"amap_marker_url":"https://uri.amap.com/marker?position=126.288075,46.344175&name=%E7%BA%A2%E5%85%89%E9%95%87%E5%85%BD%E8%8D%AF%E5%BA%97&src=vetmap&coordinate=gaode&callnative=1","route_id":"r1","route_name":"第1段","global_order":5},{"name":"畜安兽药店","address":"兰西镇东环路茂新家园一楼","phone":"0455-5678552","category":"医疗保健服务;动物医疗场所;动物医疗场所","area":"","lng":126.302113,"lat":46.261693,"amap_id":"B0FFGAG539","order":6,"prev_distance_km":9.235,"cumulative_distance_km":50.49,"amap_marker_url":"https://uri.amap.com/marker?position=126.302113,46.261693&name=%E7%95%9C%E5%AE%89%E5%85%BD%E8%8D%AF%E5%BA%97&src=vetmap&coordinate=gaode&callnative=1","route_id":"r1","route_name":"第1段","global_order":6},{"name":"黑马兽药店","address":"正阳街与麻城大道交叉口西北100米","phone":"15145737668","category":"医疗保健服务;动物医疗场所;动物医疗场所","area":"","lng":126.289644,"lat":46.261048,"amap_id":"B0FFHNLTD1","order":7,"prev_distance_km":0.961,"cumulative_distance_km":51.451,"amap_marker_url":"https://uri.amap.com/marker?position=126.289644,46.261048&name=%E9%BB%91%E9%A9%AC%E5%85%BD%E8%8D%AF%E5%BA%97&src=vetmap&coordinate=gaode&callnative=1","route_id":"r1","route_name":"第1段","global_order":7},{"name":"由兴久兽药店","address":"兰西县妇幼保健院西南门旁","phone":"0455-5629508","category":"医疗保健服务;动物医疗场所;动物医疗场所","area":"","lng":126.29153,"lat":46.251202,"amap_id":"B01C70MI5L","order":8,"prev_distance_km":1.104,"cumulative_distance_km":52.556,"amap_marker_url":"https://uri.amap.com/marker?position=126.291530,46.251202&name=%E7%94%B1%E5%85%B4%E4%B9%85%E5%85%BD%E8%8D%AF%E5%BA%97&src=vetmap&coordinate=gaode&callnative=1","route_id":"r1","route_name":"第1段","global_order":8},{"name":"爱宠动物医院","address":"兰西县农民工就业服务局正对面","phone":"0455-5391222;15246576677","category":"医疗保健服务;动物医疗场所;宠物诊所","area":"","lng":126.290914,"lat":46.250931,"amap_id":"B0FFJW9SH1","order":9,"prev_distance_km":0.056,"cumulative_distance_km":52.612,"amap_marker_url":"https://uri.amap.com/marker?position=126.290914,46.250931&name=%E7%88%B1%E5%AE%A0%E5%8A%A8%E7%89%A9%E5%8C%BB%E9%99%A2&src=vetmap&coordinate=gaode&callnative=1","route_id":"r1","route_name":"第1段","global_order":9},{"name":"家旺兽药店","address":"畜牧兽医局1楼","phone":"15845052155;18245861556","category":"医疗保健服务;动物医疗场所;动物医疗场所","area":"","lng":126.29155,"lat":46.250574,"amap_id":"B01C70MI16","order":10,"prev_distance_km":0.063,"cumulative_distance_km":52.675,"amap_marker_url":"https://uri.amap.com/marker?position=126.291550,46.250574&name=%E5%AE%B6%E6%97%BA%E5%85%BD%E8%8D%AF%E5%BA%97&src=vetmap&coordinate=gaode&callnative=1","route_id":"r1","route_name":"第1段","global_order":10},{"name":"大北农兽药店","address":"怡景家园西门旁","phone":"0455-5620027;18245864777","category":"医疗保健服务;动物医疗场所;动物医疗场所","area":"","lng":126.291624,"lat":46.249542,"amap_id":"B01C70MI5H","order":11,"prev_distance_km":0.115,"cumulative_distance_km":52.79,"amap_marker_url":"https://uri.amap.com/marker?position=126.291624,46.249542&name=%E5%A4%A7%E5%8C%97%E5%86%9C%E5%85%BD%E8%8D%AF%E5%BA%97&src=vetmap&coordinate=gaode&callnative=1","route_id":"r1","route_name":"第1段","global_order":11},{"name":"王晓峰医康兽药店","address":"怡景家园西门南50米","phone":"","category":"医疗保健服务;动物医疗场所;动物医疗场所","area":"","lng":126.291685,"lat":46.249157,"amap_id":"B0IUDCHII9","order":12,"prev_distance_km":0.043,"cumulative_distance_km":52.833,"amap_marker_url":"https://uri.amap.com/marker?position=126.291685,46.249157&name=%E7%8E%8B%E6%99%93%E5%B3%B0%E5%8C%BB%E5%BA%B7%E5%85%BD%E8%8D%AF%E5%BA%97&src=vetmap&coordinate=gaode&callnative=1","route_id":"r1","route_name":"第1段","global_order":12},{"name":"张靖兽药店","address":"正阳街凯旋城商服","phone":"0455-5626240;13836429185","category":"医疗保健服务;动物医疗场所;兽医站","area":"","lng":126.2918,"lat":46.246349,"amap_id":"B0FFFYPMXD","order":13,"prev_distance_km":0.312,"cumulative_distance_km":53.145,"amap_marker_url":"https://uri.amap.com/marker?position=126.291800,46.246349&name=%E5%BC%A0%E9%9D%96%E5%85%BD%E8%8D%AF%E5%BA%97&src=vetmap&coordinate=gaode&callnative=1","route_id":"r1","route_name":"第1段","global_order":13},{"name":"恒爱宠物医院","address":"福乾新城南门11号","phone":"18746577176","category":"医疗保健服务;动物医疗场所;宠物诊所","area":"","lng":126.288186,"lat":46.248893,"amap_id":"B0FFISFBDO","order":14,"prev_distance_km":0.397,"cumulative_distance_km":53.542,"amap_marker_url":"https://uri.amap.com/marker?position=126.288186,46.248893&name=%E6%81%92%E7%88%B1%E5%AE%A0%E7%89%A9%E5%8C%BB%E9%99%A2&src=vetmap&coordinate=gaode&callnative=1","route_id":"r1","route_name":"第1段","global_order":14},{"name":"福康动物医院","address":"加州戈雅二期36B栋5号商服","phone":"15765776725","category":"医疗保健服务;动物医疗场所;宠物诊所","area":"","lng":126.286899,"lat":46.248336,"amap_id":"B0HRK5AG99","order":15,"prev_distance_km":0.117,"cumulative_distance_km":53.659,"amap_marker_url":"https://uri.amap.com/marker?position=126.286899,46.248336&name=%E7%A6%8F%E5%BA%B7%E5%8A%A8%E7%89%A9%E5%8C%BB%E9%99%A2&src=vetmap&coordinate=gaode&callnative=1","route_id":"r1","route_name":"第1段","global_order":15},{"name":"瑞庆兽药商店","address":"168县道与哈黑路辅路交叉口西北60米","phone":"","category":"医疗保健服务;动物医疗场所;动物医疗场所","area":"","lng":126.272125,"lat":46.259475,"amap_id":"B0LRD658CM","order":16,"prev_distance_km":1.681,"cumulative_distance_km":55.339,"amap_marker_url":"https://uri.amap.com/marker?position=126.272125,46.259475&name=%E7%91%9E%E5%BA%86%E5%85%BD%E8%8D%AF%E5%95%86%E5%BA%97&src=vetmap&coordinate=gaode&callnative=1","route_id":"r1","route_name":"第1段","global_order":16},{"name":"乐牧兽药店","address":"宫威家园北商服高层1号门","phone":"13766763989","category":"医疗保健服务;动物医疗场所;动物医疗场所","area":"","lng":126.271484,"lat":46.259117,"amap_id":"B0FFJRZ7P3","order":17,"prev_distance_km":0.063,"cumulative_distance_km":55.403,"amap_marker_url":"https://uri.amap.com/marker?position=126.271484,46.259117&name=%E4%B9%90%E7%89%A7%E5%85%BD%E8%8D%AF%E5%BA%97&src=vetmap&coordinate=gaode&callnative=1","route_id":"r1","route_name":"第1段","global_order":17},{"name":"福民兽药店","address":"平山路口西300米路南","phone":"13846793534","category":"医疗保健服务;动物医疗场所;动物医疗场所","area":"","lng":126.268879,"lat":46.260318,"amap_id":"B0J259OZ6D","order":18,"prev_distance_km":0.241,"cumulative_distance_km":55.643,"amap_marker_url":"https://uri.amap.com/marker?position=126.268879,46.260318&name=%E7%A6%8F%E6%B0%91%E5%85%BD%E8%8D%AF%E5%BA%97&src=vetmap&coordinate=gaode&callnative=1","route_id":"r1","route_name":"第1段","global_order":18},{"name":"百畜兽药店","address":"奋斗镇","phone":"15134589270","category":"医疗保健服务;动物医疗场所;动物医疗场所","area":"","lng":126.106931,"lat":46.232856,"amap_id":"B0L3VHIGMX","order":19,"prev_distance_km":12.822,"cumulative_distance_km":68.466,"amap_marker_url":"https://uri.amap.com/marker?position=126.106931,46.232856&name=%E7%99%BE%E7%95%9C%E5%85%BD%E8%8D%AF%E5%BA%97&src=vetmap&coordinate=gaode&callnative=1","route_id":"r1","route_name":"第1段","global_order":19},{"name":"陶百权兽药店","address":"黑大公路与712乡道交叉口东南100米","phone":"","category":"医疗保健服务;动物医疗场所;动物医疗场所","area":"","lng":126.288125,"lat":46.115525,"amap_id":"B0LBL9RM63","order":20,"prev_distance_km":19.101,"cumulative_distance_km":87.567,"amap_marker_url":"https://uri.amap.com/marker?position=126.288125,46.115525&name=%E9%99%B6%E7%99%BE%E6%9D%83%E5%85%BD%E8%8D%AF%E5%BA%97&src=vetmap&coordinate=gaode&callnative=1","route_id":"r1","route_name":"第1段","global_order":20},{"name":"陈雷兽药店","address":"兰河乡十字街东50米","phone":"","category":"医疗保健服务;动物医疗场所;动物医疗场所","area":"","lng":126.442449,"lat":46.235393,"amap_id":"B0KABS3XOE","order":21,"prev_distance_km":17.856,"cumulative_distance_km":105.423,"amap_marker_url":"https://uri.amap.com/marker?position=126.442449,46.235393&name=%E9%99%88%E9%9B%B7%E5%85%BD%E8%8D%AF%E5%BA%97&src=vetmap&coordinate=gaode&callnative=1","route_id":"r1","route_name":"第1段","global_order":21},{"name":"骏腾兽药店","address":"临江镇卫生院南侧","phone":"","category":"医疗保健服务;动物医疗场所;动物医疗场所","area":"","lng":126.471725,"lat":46.442275,"amap_id":"B0L2R7NVHA","order":22,"prev_distance_km":23.114,"cumulative_distance_km":128.537,"amap_marker_url":"https://uri.amap.com/marker?position=126.471725,46.442275&name=%E9%AA%8F%E8%85%BE%E5%85%BD%E8%8D%AF%E5%BA%97&src=vetmap&coordinate=gaode&callnative=1","route_id":"r1","route_name":"第1段","global_order":22},{"name":"张洪林兽药店","address":"焱城家园西南侧110米","phone":"","category":"医疗保健服务;动物医疗场所;动物医疗场所","area":"","lng":126.472985,"lat":46.443217,"amap_id":"B0G2BOBUXJ","order":23,"prev_distance_km":0.142,"cumulative_distance_km":128.68,"amap_marker_url":"https://uri.amap.com/marker?position=126.472985,46.443217&name=%E5%BC%A0%E6%B4%AA%E6%9E%97%E5%85%BD%E8%8D%AF%E5%BA%97&src=vetmap&coordinate=gaode&callnative=1","route_id":"r1","route_name":"第1段","global_order":23}]}