{"summary":{"id":"d01819","province":"黑龙江省","city":"哈尔滨市","district":"通河县","count":7,"route_count":1,"max_route_clinics":7,"total_distance_km":2.085,"coordinate_system":"GCJ-02 / Amap","generated_at":"2026-05-08 19:50:01"},"routes":[{"id":"r1","name":"第1段","count":7,"total_distance_km":2.085,"rows":[{"name":"宠爱有家瑞博动物诊所","address":"隆达山大街与布谷街交叉口西南40米","phone":"13654675686;13654675800","category":"医疗保健服务;动物医疗场所;宠物诊所","area":"","lng":128.749218,"lat":45.981886,"amap_id":"B0FFKTSPSP","order":1,"prev_distance_km":0.0,"cumulative_distance_km":0.0,"amap_marker_url":"https://uri.amap.com/marker?position=128.749218,45.981886&name=%E5%AE%A0%E7%88%B1%E6%9C%89%E5%AE%B6%E7%91%9E%E5%8D%9A%E5%8A%A8%E7%89%A9%E8%AF%8A%E6%89%80&src=vetmap&coordinate=gaode&callnative=1","route_id":"r1","route_name":"第1段"},{"name":"关爱宠物诊所(弘程时尚购物中心店)","address":"隆达小区北门旁","phone":"13945199367","category":"医疗保健服务;动物医疗场所;宠物诊所","area":"","lng":128.752981,"lat":45.978164,"amap_id":"B0FFL5FECE","order":2,"prev_distance_km":0.506,"cumulative_distance_km":0.506,"amap_marker_url":"https://uri.amap.com/marker?position=128.752981,45.978164&name=%E5%85%B3%E7%88%B1%E5%AE%A0%E7%89%A9%E8%AF%8A%E6%89%80%28%E5%BC%98%E7%A8%8B%E6%97%B6%E5%B0%9A%E8%B4%AD%E7%89%A9%E4%B8%AD%E5%BF%83%E5%BA%97%29&src=vetmap&coordinate=gaode&callnative=1","route_id":"r1","route_name":"第1段"},{"name":"金鹏动物医院","address":"隆达小区南门旁","phone":"","category":"医疗保健服务;动物医疗场所;宠物诊所","area":"","lng":128.753252,"lat":45.97729,"amap_id":"B0L375LYR1","order":3,"prev_distance_km":0.099,"cumulative_distance_km":0.605,"amap_marker_url":"https://uri.amap.com/marker?position=128.753252,45.977290&name=%E9%87%91%E9%B9%8F%E5%8A%A8%E7%89%A9%E5%8C%BB%E9%99%A2&src=vetmap&coordinate=gaode&callnative=1","route_id":"r1","route_name":"第1段"},{"name":"仁爱动物医院","address":"金街东北侧","phone":"13101510654;13206575157","category":"医疗保健服务;动物医疗场所;宠物诊所","area":"","lng":128.7575,"lat":45.976272,"amap_id":"B0GUOA3LDF","order":4,"prev_distance_km":0.347,"cumulative_distance_km":0.952,"amap_marker_url":"https://uri.amap.com/marker?position=128.757500,45.976272&name=%E4%BB%81%E7%88%B1%E5%8A%A8%E7%89%A9%E5%8C%BB%E9%99%A2&src=vetmap&coordinate=gaode&callnative=1","route_id":"r1","route_name":"第1段"},{"name":"爱宠佳动物医院","address":"丁香街地税小区厢房门市南东4门市","phone":"19846449151","category":"医疗保健服务;动物医疗场所;宠物诊所","area":"","lng":128.751726,"lat":45.972157,"amap_id":"B0KDFC3UUM","order":5,"prev_distance_km":0.639,"cumulative_distance_km":1.592,"amap_marker_url":"https://uri.amap.com/marker?position=128.751726,45.972157&name=%E7%88%B1%E5%AE%A0%E4%BD%B3%E5%8A%A8%E7%89%A9%E5%8C%BB%E9%99%A2&src=vetmap&coordinate=gaode&callnative=1","route_id":"r1","route_name":"第1段"},{"name":"平哥动物诊所","address":"铧子山大街江畔花园21号楼3门市","phone":"15146418848","category":"医疗保健服务;动物医疗场所;宠物诊所","area":"","lng":128.745525,"lat":45.972025,"amap_id":"B0H62UY8S1","order":6,"prev_distance_km":0.479,"cumulative_distance_km":2.071,"amap_marker_url":"https://uri.amap.com/marker?position=128.745525,45.972025&name=%E5%B9%B3%E5%93%A5%E5%8A%A8%E7%89%A9%E8%AF%8A%E6%89%80&src=vetmap&coordinate=gaode&callnative=1","route_id":"r1","route_name":"第1段"},{"name":"康益升宠物医院","address":"江畔花园三期","phone":"17614509010","category":"医疗保健服务;动物医疗场所;宠物诊所","area":"","lng":128.745388,"lat":45.972111,"amap_id":"B0KR2ZLGLJ","order":7,"prev_distance_km":0.014,"cumulative_distance_km":2.085,"amap_marker_url":"https://uri.amap.com/marker?position=128.745388,45.972111&name=%E5%BA%B7%E7%9B%8A%E5%8D%87%E5%AE%A0%E7%89%A9%E5%8C%BB%E9%99%A2&src=vetmap&coordinate=gaode&callnative=1","route_id":"r1","route_name":"第1段"}]}],"rows":[{"name":"宠爱有家瑞博动物诊所","address":"隆达山大街与布谷街交叉口西南40米","phone":"13654675686;13654675800","category":"医疗保健服务;动物医疗场所;宠物诊所","area":"","lng":128.749218,"lat":45.981886,"amap_id":"B0FFKTSPSP","order":1,"prev_distance_km":0.0,"cumulative_distance_km":0.0,"amap_marker_url":"https://uri.amap.com/marker?position=128.749218,45.981886&name=%E5%AE%A0%E7%88%B1%E6%9C%89%E5%AE%B6%E7%91%9E%E5%8D%9A%E5%8A%A8%E7%89%A9%E8%AF%8A%E6%89%80&src=vetmap&coordinate=gaode&callnative=1","route_id":"r1","route_name":"第1段","global_order":1},{"name":"关爱宠物诊所(弘程时尚购物中心店)","address":"隆达小区北门旁","phone":"13945199367","category":"医疗保健服务;动物医疗场所;宠物诊所","area":"","lng":128.752981,"lat":45.978164,"amap_id":"B0FFL5FECE","order":2,"prev_distance_km":0.506,"cumulative_distance_km":0.506,"amap_marker_url":"https://uri.amap.com/marker?position=128.752981,45.978164&name=%E5%85%B3%E7%88%B1%E5%AE%A0%E7%89%A9%E8%AF%8A%E6%89%80%28%E5%BC%98%E7%A8%8B%E6%97%B6%E5%B0%9A%E8%B4%AD%E7%89%A9%E4%B8%AD%E5%BF%83%E5%BA%97%29&src=vetmap&coordinate=gaode&callnative=1","route_id":"r1","route_name":"第1段","global_order":2},{"name":"金鹏动物医院","address":"隆达小区南门旁","phone":"","category":"医疗保健服务;动物医疗场所;宠物诊所","area":"","lng":128.753252,"lat":45.97729,"amap_id":"B0L375LYR1","order":3,"prev_distance_km":0.099,"cumulative_distance_km":0.605,"amap_marker_url":"https://uri.amap.com/marker?position=128.753252,45.977290&name=%E9%87%91%E9%B9%8F%E5%8A%A8%E7%89%A9%E5%8C%BB%E9%99%A2&src=vetmap&coordinate=gaode&callnative=1","route_id":"r1","route_name":"第1段","global_order":3},{"name":"仁爱动物医院","address":"金街东北侧","phone":"13101510654;13206575157","category":"医疗保健服务;动物医疗场所;宠物诊所","area":"","lng":128.7575,"lat":45.976272,"amap_id":"B0GUOA3LDF","order":4,"prev_distance_km":0.347,"cumulative_distance_km":0.952,"amap_marker_url":"https://uri.amap.com/marker?position=128.757500,45.976272&name=%E4%BB%81%E7%88%B1%E5%8A%A8%E7%89%A9%E5%8C%BB%E9%99%A2&src=vetmap&coordinate=gaode&callnative=1","route_id":"r1","route_name":"第1段","global_order":4},{"name":"爱宠佳动物医院","address":"丁香街地税小区厢房门市南东4门市","phone":"19846449151","category":"医疗保健服务;动物医疗场所;宠物诊所","area":"","lng":128.751726,"lat":45.972157,"amap_id":"B0KDFC3UUM","order":5,"prev_distance_km":0.639,"cumulative_distance_km":1.592,"amap_marker_url":"https://uri.amap.com/marker?position=128.751726,45.972157&name=%E7%88%B1%E5%AE%A0%E4%BD%B3%E5%8A%A8%E7%89%A9%E5%8C%BB%E9%99%A2&src=vetmap&coordinate=gaode&callnative=1","route_id":"r1","route_name":"第1段","global_order":5},{"name":"平哥动物诊所","address":"铧子山大街江畔花园21号楼3门市","phone":"15146418848","category":"医疗保健服务;动物医疗场所;宠物诊所","area":"","lng":128.745525,"lat":45.972025,"amap_id":"B0H62UY8S1","order":6,"prev_distance_km":0.479,"cumulative_distance_km":2.071,"amap_marker_url":"https://uri.amap.com/marker?position=128.745525,45.972025&name=%E5%B9%B3%E5%93%A5%E5%8A%A8%E7%89%A9%E8%AF%8A%E6%89%80&src=vetmap&coordinate=gaode&callnative=1","route_id":"r1","route_name":"第1段","global_order":6},{"name":"康益升宠物医院","address":"江畔花园三期","phone":"17614509010","category":"医疗保健服务;动物医疗场所;宠物诊所","area":"","lng":128.745388,"lat":45.972111,"amap_id":"B0KR2ZLGLJ","order":7,"prev_distance_km":0.014,"cumulative_distance_km":2.085,"amap_marker_url":"https://uri.amap.com/marker?position=128.745388,45.972111&name=%E5%BA%B7%E7%9B%8A%E5%8D%87%E5%AE%A0%E7%89%A9%E5%8C%BB%E9%99%A2&src=vetmap&coordinate=gaode&callnative=1","route_id":"r1","route_name":"第1段","global_order":7}]}