{"summary":{"id":"d01841","province":"黑龙江省","city":"牡丹江市","district":"海林市","count":9,"total_distance_km":56.999,"coordinate_system":"GCJ-02 / Amap","generated_at":"2026-05-07 20:24:34"},"rows":[{"name":"道南兽医室","address":"山市镇卫生院西侧230米","phone":"","category":"医疗保健服务;动物医疗场所;兽医站","area":"","lng":129.100822,"lat":44.576669,"amap_id":"B0HR06K0X0","order":1,"prev_distance_km":0.0,"cumulative_distance_km":0.0,"amap_marker_url":"https://uri.amap.com/marker?position=129.100822,44.576669&name=%E9%81%93%E5%8D%97%E5%85%BD%E5%8C%BB%E5%AE%A4&src=vetmap&coordinate=gaode&callnative=1"},{"name":"民星动物诊所(和平小区12号楼店)","address":"海林镇和平小区12号楼","phone":"13019066545","category":"医疗保健服务;动物医疗场所;宠物诊所","area":"","lng":129.385294,"lat":44.574025,"amap_id":"B01C50O9GD","order":2,"prev_distance_km":22.534,"cumulative_distance_km":22.534,"amap_marker_url":"https://uri.amap.com/marker?position=129.385294,44.574025&name=%E6%B0%91%E6%98%9F%E5%8A%A8%E7%89%A9%E8%AF%8A%E6%89%80%28%E5%92%8C%E5%B9%B3%E5%B0%8F%E5%8C%BA12%E5%8F%B7%E6%A5%BC%E5%BA%97%29&src=vetmap&coordinate=gaode&callnative=1"},{"name":"诚承恩宠动物诊所","address":"俊景园南门东南90米","phone":"15734533308","category":"医疗保健服务;动物医疗场所;宠物诊所","area":"","lng":129.389011,"lat":44.576697,"amap_id":"B0JUCKXH40","order":3,"prev_distance_km":0.418,"cumulative_distance_km":22.952,"amap_marker_url":"https://uri.amap.com/marker?position=129.389011,44.576697&name=%E8%AF%9A%E6%89%BF%E6%81%A9%E5%AE%A0%E5%8A%A8%E7%89%A9%E8%AF%8A%E6%89%80&src=vetmap&coordinate=gaode&callnative=1"},{"name":"宠康动物诊所","address":"中国农业发展银行(海林市支行)对面","phone":"0453-5870999;16256633888","category":"医疗保健服务;动物医疗场所;宠物诊所","area":"","lng":129.388615,"lat":44.572892,"amap_id":"B0HUOCGSXB","order":4,"prev_distance_km":0.424,"cumulative_distance_km":23.377,"amap_marker_url":"https://uri.amap.com/marker?position=129.388615,44.572892&name=%E5%AE%A0%E5%BA%B7%E5%8A%A8%E7%89%A9%E8%AF%8A%E6%89%80&src=vetmap&coordinate=gaode&callnative=1"},{"name":"王超兽药店","address":"海浪路与英雄街交叉口东南80米","phone":"","category":"医疗保健服务;动物医疗场所;动物医疗场所","area":"","lng":129.39105,"lat":44.56835,"amap_id":"B0KU1NJRIK","order":5,"prev_distance_km":0.541,"cumulative_distance_km":23.917,"amap_marker_url":"https://uri.amap.com/marker?position=129.391050,44.568350&name=%E7%8E%8B%E8%B6%85%E5%85%BD%E8%8D%AF%E5%BA%97&src=vetmap&coordinate=gaode&callnative=1"},{"name":"木子宠物诊所(尚品家园店)","address":"尚品家园楼下门市雪原公园对面","phone":"18324532220;18346372220","category":"医疗保健服务;动物医疗场所;宠物诊所","area":"","lng":129.399514,"lat":44.576741,"amap_id":"B0FFHZ6FPE","order":6,"prev_distance_km":1.149,"cumulative_distance_km":25.066,"amap_marker_url":"https://uri.amap.com/marker?position=129.399514,44.576741&name=%E6%9C%A8%E5%AD%90%E5%AE%A0%E7%89%A9%E8%AF%8A%E6%89%80%28%E5%B0%9A%E5%93%81%E5%AE%B6%E5%9B%AD%E5%BA%97%29&src=vetmap&coordinate=gaode&callnative=1"},{"name":"康康动物诊所","address":"丽海城市花园东门南侧","phone":"18845319108","category":"医疗保健服务;动物医疗场所;宠物诊所","area":"","lng":129.400191,"lat":44.582221,"amap_id":"B0J3UL2M36","order":7,"prev_distance_km":0.612,"cumulative_distance_km":25.678,"amap_marker_url":"https://uri.amap.com/marker?position=129.400191,44.582221&name=%E5%BA%B7%E5%BA%B7%E5%8A%A8%E7%89%A9%E8%AF%8A%E6%89%80&src=vetmap&coordinate=gaode&callnative=1"},{"name":"弘达兽药店","address":"友谊路与柴双路交叉口北340米","phone":"","category":"医疗保健服务;动物医疗场所;动物医疗场所","area":"","lng":129.689475,"lat":44.769775,"amap_id":"B0LGKXQK7K","order":8,"prev_distance_km":30.954,"cumulative_distance_km":56.632,"amap_marker_url":"https://uri.amap.com/marker?position=129.689475,44.769775&name=%E5%BC%98%E8%BE%BE%E5%85%BD%E8%8D%AF%E5%BA%97&src=vetmap&coordinate=gaode&callnative=1"},{"name":"海林市柴河镇畜牧兽医综合服务站","address":"柴河林业局第一小学北侧130米","phone":"","category":"医疗保健服务;动物医疗场所;兽医站","area":"","lng":129.690127,"lat":44.773043,"amap_id":"B0FFG4PO9S","order":9,"prev_distance_km":0.367,"cumulative_distance_km":56.999,"amap_marker_url":"https://uri.amap.com/marker?position=129.690127,44.773043&name=%E6%B5%B7%E6%9E%97%E5%B8%82%E6%9F%B4%E6%B2%B3%E9%95%87%E7%95%9C%E7%89%A7%E5%85%BD%E5%8C%BB%E7%BB%BC%E5%90%88%E6%9C%8D%E5%8A%A1%E7%AB%99&src=vetmap&coordinate=gaode&callnative=1"}]}