{"summary":{"id":"d01848","province":"黑龙江省","city":"绥化市","district":"北林区","count":25,"total_distance_km":83.06,"coordinate_system":"GCJ-02 / Amap","generated_at":"2026-05-07 19:58:35"},"rows":[{"name":"龙腾兽药店","address":"014乡道与167县道交叉口东北180米","phone":"","category":"医疗保健服务;动物医疗场所;动物医疗场所","area":"","lng":127.100725,"lat":46.959125,"amap_id":"B0L1BAZ08Y","order":1,"prev_distance_km":0.0,"cumulative_distance_km":0.0,"amap_marker_url":"https://uri.amap.com/marker?position=127.100725,46.959125&name=%E9%BE%99%E8%85%BE%E5%85%BD%E8%8D%AF%E5%BA%97&src=vetmap&coordinate=gaode&callnative=1"},{"name":"王黑子兽药店","address":"双河镇人民政府东侧130米","phone":"","category":"医疗保健服务;动物医疗场所;动物医疗场所","area":"","lng":127.172942,"lat":46.884566,"amap_id":"B0KRKD3FBT","order":2,"prev_distance_km":9.941,"cumulative_distance_km":9.941,"amap_marker_url":"https://uri.amap.com/marker?position=127.172942,46.884566&name=%E7%8E%8B%E9%BB%91%E5%AD%90%E5%85%BD%E8%8D%AF%E5%BA%97&src=vetmap&coordinate=gaode&callnative=1"},{"name":"东子兽药店","address":"韵达秦家镇服务站西北侧150米","phone":"","category":"医疗保健服务;动物医疗场所;动物医疗场所","area":"","lng":127.004489,"lat":46.800673,"amap_id":"B0G1ZK06ED","order":3,"prev_distance_km":15.848,"cumulative_distance_km":25.789,"amap_marker_url":"https://uri.amap.com/marker?position=127.004489,46.800673&name=%E4%B8%9C%E5%AD%90%E5%85%BD%E8%8D%AF%E5%BA%97&src=vetmap&coordinate=gaode&callnative=1"},{"name":"慈爱宠物诊所","address":"黄河北路421号","phone":"0455-7855958;13069960065","category":"医疗保健服务;动物医疗场所;宠物诊所","area":"黄河北路","lng":126.973114,"lat":46.65094,"amap_id":"B0FFH6TPMX","order":4,"prev_distance_km":16.82,"cumulative_distance_km":42.609,"amap_marker_url":"https://uri.amap.com/marker?position=126.973114,46.650940&name=%E6%85%88%E7%88%B1%E5%AE%A0%E7%89%A9%E8%AF%8A%E6%89%80&src=vetmap&coordinate=gaode&callnative=1"},{"name":"伴侣宠物医院(北林店)","address":"黄河北路福乾花园一期1号商层6号商服","phone":"0455-8351881","category":"医疗保健服务;动物医疗场所;宠物诊所","area":"黄河北路","lng":126.968746,"lat":46.649141,"amap_id":"B0FFHAJX9Y","order":5,"prev_distance_km":0.389,"cumulative_distance_km":42.998,"amap_marker_url":"https://uri.amap.com/marker?position=126.968746,46.649141&name=%E4%BC%B4%E4%BE%A3%E5%AE%A0%E7%89%A9%E5%8C%BB%E9%99%A2%28%E5%8C%97%E6%9E%97%E5%BA%97%29&src=vetmap&coordinate=gaode&callnative=1"},{"name":"北方宠物医院","address":"黄河路西祥和街北祥和大厦2号商服","phone":"0455-8777120;15636918810","category":"医疗保健服务;动物医疗场所;宠物诊所","area":"黄河北路","lng":126.974454,"lat":46.639759,"amap_id":"B0FFHFUM4P","order":6,"prev_distance_km":1.131,"cumulative_distance_km":44.129,"amap_marker_url":"https://uri.amap.com/marker?position=126.974454,46.639759&name=%E5%8C%97%E6%96%B9%E5%AE%A0%E7%89%A9%E5%8C%BB%E9%99%A2&src=vetmap&coordinate=gaode&callnative=1"},{"name":"小动物全科诊疗中心","address":"祥和西街与平安胡同交叉口东北40米","phone":"","category":"医疗保健服务;动物医疗场所;宠物诊所","area":"北四东路","lng":126.974525,"lat":46.639747,"amap_id":"B0KD4O13XU","order":7,"prev_distance_km":0.006,"cumulative_distance_km":44.134,"amap_marker_url":"https://uri.amap.com/marker?position=126.974525,46.639747&name=%E5%B0%8F%E5%8A%A8%E7%89%A9%E5%85%A8%E7%A7%91%E8%AF%8A%E7%96%97%E4%B8%AD%E5%BF%83&src=vetmap&coordinate=gaode&callnative=1"},{"name":"朴龙石宠物诊所","address":"中兴西大街92号农发行小区西数第五栋商服","phone":"0455-8313022","category":"医疗保健服务;动物医疗场所;宠物诊所|医疗保健服务;动物医疗场所;兽医站","area":"中兴","lng":126.973237,"lat":46.632772,"amap_id":"B0FFG742PJ","order":8,"prev_distance_km":0.782,"cumulative_distance_km":44.916,"amap_marker_url":"https://uri.amap.com/marker?position=126.973237,46.632772&name=%E6%9C%B4%E9%BE%99%E7%9F%B3%E5%AE%A0%E7%89%A9%E8%AF%8A%E6%89%80&src=vetmap&coordinate=gaode&callnative=1"},{"name":"安迪宠物医院","address":"绥化市人民检察院东南门西南60米","phone":"15104554296","category":"医疗保健服务;动物医疗场所;宠物诊所","area":"中兴","lng":126.974121,"lat":46.632627,"amap_id":"B0HU7SX37Q","order":9,"prev_distance_km":0.069,"cumulative_distance_km":44.986,"amap_marker_url":"https://uri.amap.com/marker?position=126.974121,46.632627&name=%E5%AE%89%E8%BF%AA%E5%AE%A0%E7%89%A9%E5%8C%BB%E9%99%A2&src=vetmap&coordinate=gaode&callnative=1"},{"name":"刘玮兽医诊所","address":"中兴西大街62号","phone":"0455-8215575;13836453252","category":"医疗保健服务;动物医疗场所;兽医站","area":"西城","lng":126.975086,"lat":46.633257,"amap_id":"B0FFFWAOOQ","order":10,"prev_distance_km":0.102,"cumulative_distance_km":45.087,"amap_marker_url":"https://uri.amap.com/marker?position=126.975086,46.633257&name=%E5%88%98%E7%8E%AE%E5%85%BD%E5%8C%BB%E8%AF%8A%E6%89%80&src=vetmap&coordinate=gaode&callnative=1"},{"name":"好牧医兽药店","address":"局直北林区中兴西大街60号","phone":"13339459209","category":"医疗保健服务;动物医疗场所;动物医疗场所","area":"中兴","lng":126.975301,"lat":46.633753,"amap_id":"B0GKB4CD41","order":11,"prev_distance_km":0.058,"cumulative_distance_km":45.145,"amap_marker_url":"https://uri.amap.com/marker?position=126.975301,46.633753&name=%E5%A5%BD%E7%89%A7%E5%8C%BB%E5%85%BD%E8%8D%AF%E5%BA%97&src=vetmap&coordinate=gaode&callnative=1"},{"name":"安贝乐宠物门诊","address":"团结街12委3组1510-003-104八三小区b栋4号","phone":"13359620304;15226504341;15344659625","category":"医疗保健服务;动物医疗场所;宠物诊所","area":"北三东路","lng":126.989275,"lat":46.641754,"amap_id":"B0M6HHAR2V","order":12,"prev_distance_km":1.389,"cumulative_distance_km":46.534,"amap_marker_url":"https://uri.amap.com/marker?position=126.989275,46.641754&name=%E5%AE%89%E8%B4%9D%E4%B9%90%E5%AE%A0%E7%89%A9%E9%97%A8%E8%AF%8A&src=vetmap&coordinate=gaode&callnative=1"},{"name":"澜金宠物会馆","address":"物资成尚典国际9号楼","phone":"","category":"医疗保健服务;动物医疗场所;动物医疗场所","area":"","lng":126.990195,"lat":46.647812,"amap_id":"B0L31SU7MP","order":13,"prev_distance_km":0.677,"cumulative_distance_km":47.211,"amap_marker_url":"https://uri.amap.com/marker?position=126.990195,46.647812&name=%E6%BE%9C%E9%87%91%E5%AE%A0%E7%89%A9%E4%BC%9A%E9%A6%86&src=vetmap&coordinate=gaode&callnative=1"},{"name":"咪雨贝精品宠物美容","address":"嘉美三期十一号楼6号商服","phone":"18045581521","category":"医疗保健服务;动物医疗场所;动物医疗场所","area":"","lng":127.00619,"lat":46.64098,"amap_id":"B0FFI6FSRW","order":14,"prev_distance_km":1.438,"cumulative_distance_km":48.649,"amap_marker_url":"https://uri.amap.com/marker?position=127.006190,46.640980&name=%E5%92%AA%E9%9B%A8%E8%B4%9D%E7%B2%BE%E5%93%81%E5%AE%A0%E7%89%A9%E7%BE%8E%E5%AE%B9&src=vetmap&coordinate=gaode&callnative=1"},{"name":"誉诚动物诊所(金谷街)","address":"北三东路嘉美二期10号楼道北42号商服","phone":"0455-8560838;15946100605","category":"医疗保健服务;动物医疗场所;宠物诊所","area":"","lng":127.006644,"lat":46.6413,"amap_id":"B0FFL247SS","order":15,"prev_distance_km":0.05,"cumulative_distance_km":48.699,"amap_marker_url":"https://uri.amap.com/marker?position=127.006644,46.641300&name=%E8%AA%89%E8%AF%9A%E5%8A%A8%E7%89%A9%E8%AF%8A%E6%89%80%28%E9%87%91%E8%B0%B7%E8%A1%97%29&src=vetmap&coordinate=gaode&callnative=1"},{"name":"博轩兽药店","address":"嘉美小区北苑西北门东北170米","phone":"","category":"医疗保健服务;动物医疗场所;动物医疗场所","area":"","lng":127.008425,"lat":46.641175,"amap_id":"B0L0ZRFTXV","order":16,"prev_distance_km":0.137,"cumulative_distance_km":48.836,"amap_marker_url":"https://uri.amap.com/marker?position=127.008425,46.641175&name=%E5%8D%9A%E8%BD%A9%E5%85%BD%E8%8D%AF%E5%BA%97&src=vetmap&coordinate=gaode&callnative=1"},{"name":"绥化专业宠物医疗","address":"庆丰街与三马路交叉口东40米","phone":"","category":"医疗保健服务;动物医疗场所;宠物诊所","area":"","lng":127.009497,"lat":46.641925,"amap_id":"B0LAZ1XHKB","order":17,"prev_distance_km":0.117,"cumulative_distance_km":48.952,"amap_marker_url":"https://uri.amap.com/marker?position=127.009497,46.641925&name=%E7%BB%A5%E5%8C%96%E4%B8%93%E4%B8%9A%E5%AE%A0%E7%89%A9%E5%8C%BB%E7%96%97&src=vetmap&coordinate=gaode&callnative=1"},{"name":"辉煌兽药店","address":"紫来办事处二马路","phone":"0455-2966478;13664650905","category":"医疗保健服务;动物医疗场所;动物医疗场所","area":"","lng":127.00968,"lat":46.639173,"amap_id":"B0FFGTBIFO","order":18,"prev_distance_km":0.306,"cumulative_distance_km":49.259,"amap_marker_url":"https://uri.amap.com/marker?position=127.009680,46.639173&name=%E8%BE%89%E7%85%8C%E5%85%BD%E8%8D%AF%E5%BA%97&src=vetmap&coordinate=gaode&callnative=1"},{"name":"德康宠物门诊","address":"嘉美小区北苑西北门西南130米","phone":"13314559924","category":"医疗保健服务;动物医疗场所;宠物诊所","area":"","lng":127.00691,"lat":46.639591,"amap_id":"B0L2DR9NHE","order":19,"prev_distance_km":0.217,"cumulative_distance_km":49.475,"amap_marker_url":"https://uri.amap.com/marker?position=127.006910,46.639591&name=%E5%BE%B7%E5%BA%B7%E5%AE%A0%E7%89%A9%E9%97%A8%E8%AF%8A&src=vetmap&coordinate=gaode&callnative=1"},{"name":"嘉美宠物医院(人和街店)","address":"人东风街跟三马路的交口54号","phone":"0455-2875155;18704555807","category":"医疗保健服务;动物医疗场所;宠物诊所","area":"","lng":127.006611,"lat":46.639571,"amap_id":"B0KDOCVLG7","order":20,"prev_distance_km":0.023,"cumulative_distance_km":49.498,"amap_marker_url":"https://uri.amap.com/marker?position=127.006611,46.639571&name=%E5%98%89%E7%BE%8E%E5%AE%A0%E7%89%A9%E5%8C%BB%E9%99%A2%28%E4%BA%BA%E5%92%8C%E8%A1%97%E5%BA%97%29&src=vetmap&coordinate=gaode&callnative=1"},{"name":"都市宠儿宠物养护中心(福润家园店)","address":"三马路21号","phone":"0455-8725222;13091565898;13836401302","category":"医疗保健服务;动物医疗场所;动物医疗场所","area":"中兴","lng":127.006144,"lat":46.638384,"amap_id":"B0FFG35U1J","order":21,"prev_distance_km":0.137,"cumulative_distance_km":49.635,"amap_marker_url":"https://uri.amap.com/marker?position=127.006144,46.638384&name=%E9%83%BD%E5%B8%82%E5%AE%A0%E5%84%BF%E5%AE%A0%E7%89%A9%E5%85%BB%E6%8A%A4%E4%B8%AD%E5%BF%83%28%E7%A6%8F%E6%B6%A6%E5%AE%B6%E5%9B%AD%E5%BA%97%29&src=vetmap&coordinate=gaode&callnative=1"},{"name":"商服老蒋兽药店","address":"广源街与幸福胡同交叉口东北20米","phone":"","category":"医疗保健服务;动物医疗场所;动物医疗场所","area":"","lng":127.005255,"lat":46.634309,"amap_id":"B0J0UO7RKI","order":22,"prev_distance_km":0.458,"cumulative_distance_km":50.093,"amap_marker_url":"https://uri.amap.com/marker?position=127.005255,46.634309&name=%E5%95%86%E6%9C%8D%E8%80%81%E8%92%8B%E5%85%BD%E8%8D%AF%E5%BA%97&src=vetmap&coordinate=gaode&callnative=1"},{"name":"鑫宠源·宠物(金鼎福源店)","address":"金鼎福源7栋10号商服","phone":"15184559119","category":"医疗保健服务;动物医疗场所;动物医疗场所","area":"","lng":126.994179,"lat":46.630438,"amap_id":"B0LU6LKUFE","order":23,"prev_distance_km":0.949,"cumulative_distance_km":51.042,"amap_marker_url":"https://uri.amap.com/marker?position=126.994179,46.630438&name=%E9%91%AB%E5%AE%A0%E6%BA%90%C2%B7%E5%AE%A0%E7%89%A9%28%E9%87%91%E9%BC%8E%E7%A6%8F%E6%BA%90%E5%BA%97%29&src=vetmap&coordinate=gaode&callnative=1"},{"name":"铂瑞宠物门诊","address":"铂金学府287号商服","phone":"18845163481","category":"医疗保健服务;动物医疗场所;宠物诊所","area":"","lng":126.997477,"lat":46.6249,"amap_id":"B0L1DZTA6W","order":24,"prev_distance_km":0.665,"cumulative_distance_km":51.707,"amap_marker_url":"https://uri.amap.com/marker?position=126.997477,46.624900&name=%E9%93%82%E7%91%9E%E5%AE%A0%E7%89%A9%E9%97%A8%E8%AF%8A&src=vetmap&coordinate=gaode&callnative=1"},{"name":"鸿运兽药店","address":"003乡道与222国道交叉口西220米","phone":"","category":"医疗保健服务;动物医疗场所;动物医疗场所","area":"","lng":126.705923,"lat":46.426752,"amap_id":"B0G2BXCPS0","order":25,"prev_distance_km":31.353,"cumulative_distance_km":83.06,"amap_marker_url":"https://uri.amap.com/marker?position=126.705923,46.426752&name=%E9%B8%BF%E8%BF%90%E5%85%BD%E8%8D%AF%E5%BA%97&src=vetmap&coordinate=gaode&callnative=1"}]}