{"summary":{"id":"d01839","province":"黑龙江省","city":"牡丹江市","district":"宁安市","count":7,"total_distance_km":37.737,"coordinate_system":"GCJ-02 / Amap","generated_at":"2026-05-07 20:24:34"},"rows":[{"name":"宁安市仁爱动物诊所","address":"新街路308号","phone":"","category":"医疗保健服务;动物医疗场所;宠物诊所","area":"","lng":129.475803,"lat":44.352937,"amap_id":"B0KUTU5H20","order":1,"prev_distance_km":0.0,"cumulative_distance_km":0.0,"amap_marker_url":"https://uri.amap.com/marker?position=129.475803,44.352937&name=%E5%AE%81%E5%AE%89%E5%B8%82%E4%BB%81%E7%88%B1%E5%8A%A8%E7%89%A9%E8%AF%8A%E6%89%80&src=vetmap&coordinate=gaode&callnative=1"},{"name":"医康动物医院(镜泊湖大街)","address":"镜泊鑫新家园1号楼24号","phone":"0453-7617222","category":"医疗保健服务;动物医疗场所;宠物诊所","area":"","lng":129.468736,"lat":44.351873,"amap_id":"B01C50OLJE","order":2,"prev_distance_km":0.574,"cumulative_distance_km":0.574,"amap_marker_url":"https://uri.amap.com/marker?position=129.468736,44.351873&name=%E5%8C%BB%E5%BA%B7%E5%8A%A8%E7%89%A9%E5%8C%BB%E9%99%A2%28%E9%95%9C%E6%B3%8A%E6%B9%96%E5%A4%A7%E8%A1%97%29&src=vetmap&coordinate=gaode&callnative=1"},{"name":"宁安市君成兽药店","address":"通江路东317号","phone":"0453-7686267;15645332929","category":"医疗保健服务;动物医疗场所;兽医站","area":"","lng":129.467913,"lat":44.350603,"amap_id":"B0FFG2HI7D","order":3,"prev_distance_km":0.156,"cumulative_distance_km":0.73,"amap_marker_url":"https://uri.amap.com/marker?position=129.467913,44.350603&name=%E5%AE%81%E5%AE%89%E5%B8%82%E5%90%9B%E6%88%90%E5%85%BD%E8%8D%AF%E5%BA%97&src=vetmap&coordinate=gaode&callnative=1"},{"name":"宁安市牟老师兽药店","address":"","phone":"18745315350","category":"医疗保健服务;动物医疗场所;动物医疗场所","area":"","lng":129.467702,"lat":44.35027,"amap_id":"B0HRDBW0AI","order":4,"prev_distance_km":0.041,"cumulative_distance_km":0.771,"amap_marker_url":"https://uri.amap.com/marker?position=129.467702,44.350270&name=%E5%AE%81%E5%AE%89%E5%B8%82%E7%89%9F%E8%80%81%E5%B8%88%E5%85%BD%E8%8D%AF%E5%BA%97&src=vetmap&coordinate=gaode&callnative=1"},{"name":"国辉动物医院","address":"团结街与文化路交叉口西20米","phone":"18246312456;18845328866","category":"医疗保健服务;动物医疗场所;宠物诊所","area":"","lng":129.46566,"lat":44.345678,"amap_id":"B0GDLNEZDO","order":5,"prev_distance_km":0.536,"cumulative_distance_km":1.306,"amap_marker_url":"https://uri.amap.com/marker?position=129.465660,44.345678&name=%E5%9B%BD%E8%BE%89%E5%8A%A8%E7%89%A9%E5%8C%BB%E9%99%A2&src=vetmap&coordinate=gaode&callnative=1"},{"name":"博爱宠物医院(团结路店)","address":"团结路与振兴路交叉口东北50米","phone":"15045336403;15046312575","category":"医疗保健服务;动物医疗场所;宠物诊所","area":"","lng":129.215923,"lat":44.11335,"amap_id":"B0FFG50FV2","order":6,"prev_distance_km":32.609,"cumulative_distance_km":33.915,"amap_marker_url":"https://uri.amap.com/marker?position=129.215923,44.113350&name=%E5%8D%9A%E7%88%B1%E5%AE%A0%E7%89%A9%E5%8C%BB%E9%99%A2%28%E5%9B%A2%E7%BB%93%E8%B7%AF%E5%BA%97%29&src=vetmap&coordinate=gaode&callnative=1"},{"name":"渤海兽医站","address":"渤海镇龙泉卫生所中医馆西侧","phone":"","category":"医疗保健服务;动物医疗场所;兽医站","area":"","lng":129.169625,"lat":44.122125,"amap_id":"B0L2BCKYJ6","order":7,"prev_distance_km":3.823,"cumulative_distance_km":37.737,"amap_marker_url":"https://uri.amap.com/marker?position=129.169625,44.122125&name=%E6%B8%A4%E6%B5%B7%E5%85%BD%E5%8C%BB%E7%AB%99&src=vetmap&coordinate=gaode&callnative=1"}]}