{"summary":{"id":"d01836","province":"黑龙江省","city":"大庆市","district":"龙凤区","count":23,"route_count":1,"max_route_clinics":23,"total_distance_km":30.618,"coordinate_system":"GCJ-02 / Amap","generated_at":"2026-05-07 21:31:16"},"routes":[{"id":"r1","name":"第1段","count":23,"total_distance_km":30.618,"rows":[{"name":"善宠宠物门诊","address":"呈祥路与馨园路交叉口西南300米","phone":"","category":"医疗保健服务;动物医疗场所;宠物诊所","area":"","lng":125.189145,"lat":46.459356,"amap_id":"B0JG3X2TRM","order":1,"prev_distance_km":0.0,"cumulative_distance_km":0.0,"amap_marker_url":"https://uri.amap.com/marker?position=125.189145,46.459356&name=%E5%96%84%E5%AE%A0%E5%AE%A0%E7%89%A9%E9%97%A8%E8%AF%8A&src=vetmap&coordinate=gaode&callnative=1","route_id":"r1","route_name":"第1段"},{"name":"瑞派宠物医院","address":"龙华路与龙建街交叉口东120米","phone":"","category":"医疗保健服务;动物医疗场所;宠物诊所","area":"","lng":125.126008,"lat":46.526143,"amap_id":"B0LAJZNT3W","order":2,"prev_distance_km":8.861,"cumulative_distance_km":8.861,"amap_marker_url":"https://uri.amap.com/marker?position=125.126008,46.526143&name=%E7%91%9E%E6%B4%BE%E5%AE%A0%E7%89%A9%E5%8C%BB%E9%99%A2&src=vetmap&coordinate=gaode&callnative=1","route_id":"r1","route_name":"第1段"},{"name":"瑞派宠物医院(大庆龙凤分院)","address":"龙华路2-59号一层5门","phone":"0459-6234637;13251592817","category":"医疗保健服务;动物医疗场所;宠物诊所","area":"","lng":125.119865,"lat":46.528992,"amap_id":"B0J2R9RWWX","order":3,"prev_distance_km":0.567,"cumulative_distance_km":9.427,"amap_marker_url":"https://uri.amap.com/marker?position=125.119865,46.528992&name=%E7%91%9E%E6%B4%BE%E5%AE%A0%E7%89%A9%E5%8C%BB%E9%99%A2%28%E5%A4%A7%E5%BA%86%E9%BE%99%E5%87%A4%E5%88%86%E9%99%A2%29&src=vetmap&coordinate=gaode&callnative=1","route_id":"r1","route_name":"第1段"},{"name":"仁爱有家宠物医院","address":"凤阳路107号凤阳小区1-4","phone":"13304695993","category":"医疗保健服务;动物医疗场所;宠物诊所","area":"","lng":125.111653,"lat":46.533558,"amap_id":"B0KACAVYYS","order":4,"prev_distance_km":0.808,"cumulative_distance_km":10.235,"amap_marker_url":"https://uri.amap.com/marker?position=125.111653,46.533558&name=%E4%BB%81%E7%88%B1%E6%9C%89%E5%AE%B6%E5%AE%A0%E7%89%A9%E5%8C%BB%E9%99%A2&src=vetmap&coordinate=gaode&callnative=1","route_id":"r1","route_name":"第1段"},{"name":"庆嘉宠物诊所","address":"汇宏悦澜湾商服s16-4门","phone":"18245708868","category":"医疗保健服务;动物医疗场所;宠物诊所","area":"","lng":125.150222,"lat":46.542196,"amap_id":"B0KK45THZG","order":5,"prev_distance_km":3.103,"cumulative_distance_km":13.338,"amap_marker_url":"https://uri.amap.com/marker?position=125.150222,46.542196&name=%E5%BA%86%E5%98%89%E5%AE%A0%E7%89%A9%E8%AF%8A%E6%89%80&src=vetmap&coordinate=gaode&callnative=1","route_id":"r1","route_name":"第1段"},{"name":"仁术宠物医院","address":"汇宏悦澜湾s5-2商服","phone":"15246101207","category":"医疗保健服务;动物医疗场所;宠物诊所","area":"","lng":125.147322,"lat":46.546892,"amap_id":"B0I6N7NY3S","order":6,"prev_distance_km":0.567,"cumulative_distance_km":13.905,"amap_marker_url":"https://uri.amap.com/marker?position=125.147322,46.546892&name=%E4%BB%81%E6%9C%AF%E5%AE%A0%E7%89%A9%E5%8C%BB%E9%99%A2&src=vetmap&coordinate=gaode&callnative=1","route_id":"r1","route_name":"第1段"},{"name":"小宠当家宠物医院","address":"东城领秀B区F栋商服龙达路13号","phone":"13836875532","category":"医疗保健服务;动物医疗场所;宠物诊所","area":"东城","lng":125.137981,"lat":46.553435,"amap_id":"B0M665B5BB","order":7,"prev_distance_km":1.02,"cumulative_distance_km":14.925,"amap_marker_url":"https://uri.amap.com/marker?position=125.137981,46.553435&name=%E5%B0%8F%E5%AE%A0%E5%BD%93%E5%AE%B6%E5%AE%A0%E7%89%A9%E5%8C%BB%E9%99%A2&src=vetmap&coordinate=gaode&callnative=1","route_id":"r1","route_name":"第1段"},{"name":"我宠我爱宠物医院(东城领秀店)","address":"龙凤北大街288号","phone":"15845813120","category":"医疗保健服务;动物医疗场所;宠物诊所","area":"东城","lng":125.134031,"lat":46.555818,"amap_id":"B0HK4D17N4","order":8,"prev_distance_km":0.402,"cumulative_distance_km":15.326,"amap_marker_url":"https://uri.amap.com/marker?position=125.134031,46.555818&name=%E6%88%91%E5%AE%A0%E6%88%91%E7%88%B1%E5%AE%A0%E7%89%A9%E5%8C%BB%E9%99%A2%28%E4%B8%9C%E5%9F%8E%E9%A2%86%E7%A7%80%E5%BA%97%29&src=vetmap&coordinate=gaode&callnative=1","route_id":"r1","route_name":"第1段"},{"name":"爱侣宠物门诊(新起航分店)","address":"龙政路3-5号华溪龙城二期42号楼5号商服","phone":"13069607576","category":"医疗保健服务;动物医疗场所;宠物诊所","area":"东城","lng":125.13765,"lat":46.559791,"amap_id":"B0FFHK0SHH","order":9,"prev_distance_km":0.521,"cumulative_distance_km":15.848,"amap_marker_url":"https://uri.amap.com/marker?position=125.137650,46.559791&name=%E7%88%B1%E4%BE%A3%E5%AE%A0%E7%89%A9%E9%97%A8%E8%AF%8A%28%E6%96%B0%E8%B5%B7%E8%88%AA%E5%88%86%E5%BA%97%29&src=vetmap&coordinate=gaode&callnative=1","route_id":"r1","route_name":"第1段"},{"name":"医宠堂宠物医院(东城领秀店)","address":"锦绣园M座101号","phone":"0459-6088666","category":"医疗保健服务;动物医疗场所;宠物诊所","area":"东城","lng":125.134359,"lat":46.560871,"amap_id":"B0FFK4TCJI","order":10,"prev_distance_km":0.279,"cumulative_distance_km":16.126,"amap_marker_url":"https://uri.amap.com/marker?position=125.134359,46.560871&name=%E5%8C%BB%E5%AE%A0%E5%A0%82%E5%AE%A0%E7%89%A9%E5%8C%BB%E9%99%A2%28%E4%B8%9C%E5%9F%8E%E9%A2%86%E7%A7%80%E5%BA%97%29&src=vetmap&coordinate=gaode&callnative=1","route_id":"r1","route_name":"第1段"},{"name":"万康动物门诊","address":"新村纬二路282号","phone":"0459-6299122;13136809120;13352598350","category":"医疗保健服务;动物医疗场所;宠物诊所","area":"纬二路","lng":125.12581,"lat":46.581529,"amap_id":"B0IUCHVTF0","order":11,"prev_distance_km":2.388,"cumulative_distance_km":18.515,"amap_marker_url":"https://uri.amap.com/marker?position=125.125810,46.581529&name=%E4%B8%87%E5%BA%B7%E5%8A%A8%E7%89%A9%E9%97%A8%E8%AF%8A&src=vetmap&coordinate=gaode&callnative=1","route_id":"r1","route_name":"第1段"},{"name":"天旗动物门诊部","address":"龙凤区开发区水岸家园3号楼06号商服天旗动物门诊部","phone":"13339476860","category":"医疗保健服务;动物医疗场所;宠物诊所","area":"","lng":125.126721,"lat":46.58579,"amap_id":"B0KKU53LY9","order":12,"prev_distance_km":0.479,"cumulative_distance_km":18.994,"amap_marker_url":"https://uri.amap.com/marker?position=125.126721,46.585790&name=%E5%A4%A9%E6%97%97%E5%8A%A8%E7%89%A9%E9%97%A8%E8%AF%8A%E9%83%A8&src=vetmap&coordinate=gaode&callnative=1","route_id":"r1","route_name":"第1段"},{"name":"吉吉乐园宠物门诊","address":"科技路44号","phone":"18746687918","category":"医疗保健服务;动物医疗场所;宠物诊所","area":"湖滨","lng":125.133454,"lat":46.586704,"amap_id":"B0H3V7786F","order":13,"prev_distance_km":0.524,"cumulative_distance_km":19.518,"amap_marker_url":"https://uri.amap.com/marker?position=125.133454,46.586704&name=%E5%90%89%E5%90%89%E4%B9%90%E5%9B%AD%E5%AE%A0%E7%89%A9%E9%97%A8%E8%AF%8A&src=vetmap&coordinate=gaode&callnative=1","route_id":"r1","route_name":"第1段"},{"name":"道格宠物医院(振富小区店)","address":"振富小区10-23楼下","phone":"13694605000","category":"医疗保健服务;动物医疗场所;宠物诊所","area":"纬二路","lng":125.134037,"lat":46.580352,"amap_id":"B0FFLBSWM1","order":14,"prev_distance_km":0.708,"cumulative_distance_km":20.226,"amap_marker_url":"https://uri.amap.com/marker?position=125.134037,46.580352&name=%E9%81%93%E6%A0%BC%E5%AE%A0%E7%89%A9%E5%8C%BB%E9%99%A2%28%E6%8C%AF%E5%AF%8C%E5%B0%8F%E5%8C%BA%E5%BA%97%29&src=vetmap&coordinate=gaode&callnative=1","route_id":"r1","route_name":"第1段"},{"name":"康安宠物医院","address":"建设路229号新华园小区商服","phone":"15636988595","category":"医疗保健服务;动物医疗场所;宠物诊所","area":"湖滨","lng":125.137603,"lat":46.58044,"amap_id":"B0FFHOO5UY","order":15,"prev_distance_km":0.273,"cumulative_distance_km":20.498,"amap_marker_url":"https://uri.amap.com/marker?position=125.137603,46.580440&name=%E5%BA%B7%E5%AE%89%E5%AE%A0%E7%89%A9%E5%8C%BB%E9%99%A2&src=vetmap&coordinate=gaode&callnative=1","route_id":"r1","route_name":"第1段"},{"name":"钟爱宠物医院(景程分院)","address":"高新区银府寓园15号(纬二路271号)","phone":"0459-6189108;18245978805;18945905019","category":"医疗保健服务;动物医疗场所;宠物诊所","area":"纬二路","lng":125.138036,"lat":46.575413,"amap_id":"B0G3Z9UHER","order":16,"prev_distance_km":0.56,"cumulative_distance_km":21.058,"amap_marker_url":"https://uri.amap.com/marker?position=125.138036,46.575413&name=%E9%92%9F%E7%88%B1%E5%AE%A0%E7%89%A9%E5%8C%BB%E9%99%A2%28%E6%99%AF%E7%A8%8B%E5%88%86%E9%99%A2%29&src=vetmap&coordinate=gaode&callnative=1","route_id":"r1","route_name":"第1段"},{"name":"融幸宠物","address":"融公馆西侧A2-33商服","phone":"15645921125;15845848803","category":"医疗保健服务;动物医疗场所;动物医疗场所","area":"","lng":125.170993,"lat":46.566774,"amap_id":"B0IR15SV8C","order":17,"prev_distance_km":2.696,"cumulative_distance_km":23.755,"amap_marker_url":"https://uri.amap.com/marker?position=125.170993,46.566774&name=%E8%9E%8D%E5%B9%B8%E5%AE%A0%E7%89%A9&src=vetmap&coordinate=gaode&callnative=1","route_id":"r1","route_name":"第1段"},{"name":"黑龙江八一农垦大学-动物科技学院教学动物医院","address":"新阳路2号","phone":"","category":"医疗保健服务;动物医疗场所;宠物诊所","area":"","lng":125.166242,"lat":46.586648,"amap_id":"B0FFK9KYKZ","order":18,"prev_distance_km":2.24,"cumulative_distance_km":25.994,"amap_marker_url":"https://uri.amap.com/marker?position=125.166242,46.586648&name=%E9%BB%91%E9%BE%99%E6%B1%9F%E5%85%AB%E4%B8%80%E5%86%9C%E5%9E%A6%E5%A4%A7%E5%AD%A6-%E5%8A%A8%E7%89%A9%E7%A7%91%E6%8A%80%E5%AD%A6%E9%99%A2%E6%95%99%E5%AD%A6%E5%8A%A8%E7%89%A9%E5%8C%BB%E9%99%A2&src=vetmap&coordinate=gaode&callnative=1","route_id":"r1","route_name":"第1段"},{"name":"农垦大学动物医院","address":"新风路与科创街交叉口北500米","phone":"15524503325","category":"医疗保健服务;动物医疗场所;动物医疗场所","area":"","lng":125.16622,"lat":46.586745,"amap_id":"B0FFFA87WR","order":19,"prev_distance_km":0.011,"cumulative_distance_km":26.005,"amap_marker_url":"https://uri.amap.com/marker?position=125.166220,46.586745&name=%E5%86%9C%E5%9E%A6%E5%A4%A7%E5%AD%A6%E5%8A%A8%E7%89%A9%E5%8C%BB%E9%99%A2&src=vetmap&coordinate=gaode&callnative=1","route_id":"r1","route_name":"第1段"},{"name":"恩宠动物医院","address":"秀水路46号","phone":"13936980459","category":"医疗保健服务;动物医疗场所;宠物诊所","area":"","lng":125.158264,"lat":46.603736,"amap_id":"B0K3M7RQXX","order":20,"prev_distance_km":1.985,"cumulative_distance_km":27.99,"amap_marker_url":"https://uri.amap.com/marker?position=125.158264,46.603736&name=%E6%81%A9%E5%AE%A0%E5%8A%A8%E7%89%A9%E5%8C%BB%E9%99%A2&src=vetmap&coordinate=gaode&callnative=1","route_id":"r1","route_name":"第1段"},{"name":"医宠堂宠物医院(嫩水家园店)","address":"生态大街40号","phone":"0459-7605666","category":"医疗保健服务;动物医疗场所;宠物诊所","area":"","lng":125.15795,"lat":46.609262,"amap_id":"B0H6YD9R2Y","order":21,"prev_distance_km":0.615,"cumulative_distance_km":28.605,"amap_marker_url":"https://uri.amap.com/marker?position=125.157950,46.609262&name=%E5%8C%BB%E5%AE%A0%E5%A0%82%E5%AE%A0%E7%89%A9%E5%8C%BB%E9%99%A2%28%E5%AB%A9%E6%B0%B4%E5%AE%B6%E5%9B%AD%E5%BA%97%29&src=vetmap&coordinate=gaode&callnative=1","route_id":"r1","route_name":"第1段"},{"name":"酷派特宠物用品超市","address":"湖滨教师花园e39号楼对面滨州东街4-8号","phone":"0459-6615001;13674596070","category":"医疗保健服务;动物医疗场所;宠物诊所","area":"","lng":125.151799,"lat":46.621508,"amap_id":"B01CB0NB3N","order":22,"prev_distance_km":1.44,"cumulative_distance_km":30.045,"amap_marker_url":"https://uri.amap.com/marker?position=125.151799,46.621508&name=%E9%85%B7%E6%B4%BE%E7%89%B9%E5%AE%A0%E7%89%A9%E7%94%A8%E5%93%81%E8%B6%85%E5%B8%82&src=vetmap&coordinate=gaode&callnative=1","route_id":"r1","route_name":"第1段"},{"name":"谭医生宠物门诊","address":"湖滨教师花园A02-6号商服","phone":"15045951534","category":"医疗保健服务;动物医疗场所;宠物诊所","area":"","lng":125.152821,"lat":46.626611,"amap_id":"B0IKUSZQUZ","order":23,"prev_distance_km":0.573,"cumulative_distance_km":30.618,"amap_marker_url":"https://uri.amap.com/marker?position=125.152821,46.626611&name=%E8%B0%AD%E5%8C%BB%E7%94%9F%E5%AE%A0%E7%89%A9%E9%97%A8%E8%AF%8A&src=vetmap&coordinate=gaode&callnative=1","route_id":"r1","route_name":"第1段"}]}],"rows":[{"name":"善宠宠物门诊","address":"呈祥路与馨园路交叉口西南300米","phone":"","category":"医疗保健服务;动物医疗场所;宠物诊所","area":"","lng":125.189145,"lat":46.459356,"amap_id":"B0JG3X2TRM","order":1,"prev_distance_km":0.0,"cumulative_distance_km":0.0,"amap_marker_url":"https://uri.amap.com/marker?position=125.189145,46.459356&name=%E5%96%84%E5%AE%A0%E5%AE%A0%E7%89%A9%E9%97%A8%E8%AF%8A&src=vetmap&coordinate=gaode&callnative=1","route_id":"r1","route_name":"第1段","global_order":1},{"name":"瑞派宠物医院","address":"龙华路与龙建街交叉口东120米","phone":"","category":"医疗保健服务;动物医疗场所;宠物诊所","area":"","lng":125.126008,"lat":46.526143,"amap_id":"B0LAJZNT3W","order":2,"prev_distance_km":8.861,"cumulative_distance_km":8.861,"amap_marker_url":"https://uri.amap.com/marker?position=125.126008,46.526143&name=%E7%91%9E%E6%B4%BE%E5%AE%A0%E7%89%A9%E5%8C%BB%E9%99%A2&src=vetmap&coordinate=gaode&callnative=1","route_id":"r1","route_name":"第1段","global_order":2},{"name":"瑞派宠物医院(大庆龙凤分院)","address":"龙华路2-59号一层5门","phone":"0459-6234637;13251592817","category":"医疗保健服务;动物医疗场所;宠物诊所","area":"","lng":125.119865,"lat":46.528992,"amap_id":"B0J2R9RWWX","order":3,"prev_distance_km":0.567,"cumulative_distance_km":9.427,"amap_marker_url":"https://uri.amap.com/marker?position=125.119865,46.528992&name=%E7%91%9E%E6%B4%BE%E5%AE%A0%E7%89%A9%E5%8C%BB%E9%99%A2%28%E5%A4%A7%E5%BA%86%E9%BE%99%E5%87%A4%E5%88%86%E9%99%A2%29&src=vetmap&coordinate=gaode&callnative=1","route_id":"r1","route_name":"第1段","global_order":3},{"name":"仁爱有家宠物医院","address":"凤阳路107号凤阳小区1-4","phone":"13304695993","category":"医疗保健服务;动物医疗场所;宠物诊所","area":"","lng":125.111653,"lat":46.533558,"amap_id":"B0KACAVYYS","order":4,"prev_distance_km":0.808,"cumulative_distance_km":10.235,"amap_marker_url":"https://uri.amap.com/marker?position=125.111653,46.533558&name=%E4%BB%81%E7%88%B1%E6%9C%89%E5%AE%B6%E5%AE%A0%E7%89%A9%E5%8C%BB%E9%99%A2&src=vetmap&coordinate=gaode&callnative=1","route_id":"r1","route_name":"第1段","global_order":4},{"name":"庆嘉宠物诊所","address":"汇宏悦澜湾商服s16-4门","phone":"18245708868","category":"医疗保健服务;动物医疗场所;宠物诊所","area":"","lng":125.150222,"lat":46.542196,"amap_id":"B0KK45THZG","order":5,"prev_distance_km":3.103,"cumulative_distance_km":13.338,"amap_marker_url":"https://uri.amap.com/marker?position=125.150222,46.542196&name=%E5%BA%86%E5%98%89%E5%AE%A0%E7%89%A9%E8%AF%8A%E6%89%80&src=vetmap&coordinate=gaode&callnative=1","route_id":"r1","route_name":"第1段","global_order":5},{"name":"仁术宠物医院","address":"汇宏悦澜湾s5-2商服","phone":"15246101207","category":"医疗保健服务;动物医疗场所;宠物诊所","area":"","lng":125.147322,"lat":46.546892,"amap_id":"B0I6N7NY3S","order":6,"prev_distance_km":0.567,"cumulative_distance_km":13.905,"amap_marker_url":"https://uri.amap.com/marker?position=125.147322,46.546892&name=%E4%BB%81%E6%9C%AF%E5%AE%A0%E7%89%A9%E5%8C%BB%E9%99%A2&src=vetmap&coordinate=gaode&callnative=1","route_id":"r1","route_name":"第1段","global_order":6},{"name":"小宠当家宠物医院","address":"东城领秀B区F栋商服龙达路13号","phone":"13836875532","category":"医疗保健服务;动物医疗场所;宠物诊所","area":"东城","lng":125.137981,"lat":46.553435,"amap_id":"B0M665B5BB","order":7,"prev_distance_km":1.02,"cumulative_distance_km":14.925,"amap_marker_url":"https://uri.amap.com/marker?position=125.137981,46.553435&name=%E5%B0%8F%E5%AE%A0%E5%BD%93%E5%AE%B6%E5%AE%A0%E7%89%A9%E5%8C%BB%E9%99%A2&src=vetmap&coordinate=gaode&callnative=1","route_id":"r1","route_name":"第1段","global_order":7},{"name":"我宠我爱宠物医院(东城领秀店)","address":"龙凤北大街288号","phone":"15845813120","category":"医疗保健服务;动物医疗场所;宠物诊所","area":"东城","lng":125.134031,"lat":46.555818,"amap_id":"B0HK4D17N4","order":8,"prev_distance_km":0.402,"cumulative_distance_km":15.326,"amap_marker_url":"https://uri.amap.com/marker?position=125.134031,46.555818&name=%E6%88%91%E5%AE%A0%E6%88%91%E7%88%B1%E5%AE%A0%E7%89%A9%E5%8C%BB%E9%99%A2%28%E4%B8%9C%E5%9F%8E%E9%A2%86%E7%A7%80%E5%BA%97%29&src=vetmap&coordinate=gaode&callnative=1","route_id":"r1","route_name":"第1段","global_order":8},{"name":"爱侣宠物门诊(新起航分店)","address":"龙政路3-5号华溪龙城二期42号楼5号商服","phone":"13069607576","category":"医疗保健服务;动物医疗场所;宠物诊所","area":"东城","lng":125.13765,"lat":46.559791,"amap_id":"B0FFHK0SHH","order":9,"prev_distance_km":0.521,"cumulative_distance_km":15.848,"amap_marker_url":"https://uri.amap.com/marker?position=125.137650,46.559791&name=%E7%88%B1%E4%BE%A3%E5%AE%A0%E7%89%A9%E9%97%A8%E8%AF%8A%28%E6%96%B0%E8%B5%B7%E8%88%AA%E5%88%86%E5%BA%97%29&src=vetmap&coordinate=gaode&callnative=1","route_id":"r1","route_name":"第1段","global_order":9},{"name":"医宠堂宠物医院(东城领秀店)","address":"锦绣园M座101号","phone":"0459-6088666","category":"医疗保健服务;动物医疗场所;宠物诊所","area":"东城","lng":125.134359,"lat":46.560871,"amap_id":"B0FFK4TCJI","order":10,"prev_distance_km":0.279,"cumulative_distance_km":16.126,"amap_marker_url":"https://uri.amap.com/marker?position=125.134359,46.560871&name=%E5%8C%BB%E5%AE%A0%E5%A0%82%E5%AE%A0%E7%89%A9%E5%8C%BB%E9%99%A2%28%E4%B8%9C%E5%9F%8E%E9%A2%86%E7%A7%80%E5%BA%97%29&src=vetmap&coordinate=gaode&callnative=1","route_id":"r1","route_name":"第1段","global_order":10},{"name":"万康动物门诊","address":"新村纬二路282号","phone":"0459-6299122;13136809120;13352598350","category":"医疗保健服务;动物医疗场所;宠物诊所","area":"纬二路","lng":125.12581,"lat":46.581529,"amap_id":"B0IUCHVTF0","order":11,"prev_distance_km":2.388,"cumulative_distance_km":18.515,"amap_marker_url":"https://uri.amap.com/marker?position=125.125810,46.581529&name=%E4%B8%87%E5%BA%B7%E5%8A%A8%E7%89%A9%E9%97%A8%E8%AF%8A&src=vetmap&coordinate=gaode&callnative=1","route_id":"r1","route_name":"第1段","global_order":11},{"name":"天旗动物门诊部","address":"龙凤区开发区水岸家园3号楼06号商服天旗动物门诊部","phone":"13339476860","category":"医疗保健服务;动物医疗场所;宠物诊所","area":"","lng":125.126721,"lat":46.58579,"amap_id":"B0KKU53LY9","order":12,"prev_distance_km":0.479,"cumulative_distance_km":18.994,"amap_marker_url":"https://uri.amap.com/marker?position=125.126721,46.585790&name=%E5%A4%A9%E6%97%97%E5%8A%A8%E7%89%A9%E9%97%A8%E8%AF%8A%E9%83%A8&src=vetmap&coordinate=gaode&callnative=1","route_id":"r1","route_name":"第1段","global_order":12},{"name":"吉吉乐园宠物门诊","address":"科技路44号","phone":"18746687918","category":"医疗保健服务;动物医疗场所;宠物诊所","area":"湖滨","lng":125.133454,"lat":46.586704,"amap_id":"B0H3V7786F","order":13,"prev_distance_km":0.524,"cumulative_distance_km":19.518,"amap_marker_url":"https://uri.amap.com/marker?position=125.133454,46.586704&name=%E5%90%89%E5%90%89%E4%B9%90%E5%9B%AD%E5%AE%A0%E7%89%A9%E9%97%A8%E8%AF%8A&src=vetmap&coordinate=gaode&callnative=1","route_id":"r1","route_name":"第1段","global_order":13},{"name":"道格宠物医院(振富小区店)","address":"振富小区10-23楼下","phone":"13694605000","category":"医疗保健服务;动物医疗场所;宠物诊所","area":"纬二路","lng":125.134037,"lat":46.580352,"amap_id":"B0FFLBSWM1","order":14,"prev_distance_km":0.708,"cumulative_distance_km":20.226,"amap_marker_url":"https://uri.amap.com/marker?position=125.134037,46.580352&name=%E9%81%93%E6%A0%BC%E5%AE%A0%E7%89%A9%E5%8C%BB%E9%99%A2%28%E6%8C%AF%E5%AF%8C%E5%B0%8F%E5%8C%BA%E5%BA%97%29&src=vetmap&coordinate=gaode&callnative=1","route_id":"r1","route_name":"第1段","global_order":14},{"name":"康安宠物医院","address":"建设路229号新华园小区商服","phone":"15636988595","category":"医疗保健服务;动物医疗场所;宠物诊所","area":"湖滨","lng":125.137603,"lat":46.58044,"amap_id":"B0FFHOO5UY","order":15,"prev_distance_km":0.273,"cumulative_distance_km":20.498,"amap_marker_url":"https://uri.amap.com/marker?position=125.137603,46.580440&name=%E5%BA%B7%E5%AE%89%E5%AE%A0%E7%89%A9%E5%8C%BB%E9%99%A2&src=vetmap&coordinate=gaode&callnative=1","route_id":"r1","route_name":"第1段","global_order":15},{"name":"钟爱宠物医院(景程分院)","address":"高新区银府寓园15号(纬二路271号)","phone":"0459-6189108;18245978805;18945905019","category":"医疗保健服务;动物医疗场所;宠物诊所","area":"纬二路","lng":125.138036,"lat":46.575413,"amap_id":"B0G3Z9UHER","order":16,"prev_distance_km":0.56,"cumulative_distance_km":21.058,"amap_marker_url":"https://uri.amap.com/marker?position=125.138036,46.575413&name=%E9%92%9F%E7%88%B1%E5%AE%A0%E7%89%A9%E5%8C%BB%E9%99%A2%28%E6%99%AF%E7%A8%8B%E5%88%86%E9%99%A2%29&src=vetmap&coordinate=gaode&callnative=1","route_id":"r1","route_name":"第1段","global_order":16},{"name":"融幸宠物","address":"融公馆西侧A2-33商服","phone":"15645921125;15845848803","category":"医疗保健服务;动物医疗场所;动物医疗场所","area":"","lng":125.170993,"lat":46.566774,"amap_id":"B0IR15SV8C","order":17,"prev_distance_km":2.696,"cumulative_distance_km":23.755,"amap_marker_url":"https://uri.amap.com/marker?position=125.170993,46.566774&name=%E8%9E%8D%E5%B9%B8%E5%AE%A0%E7%89%A9&src=vetmap&coordinate=gaode&callnative=1","route_id":"r1","route_name":"第1段","global_order":17},{"name":"黑龙江八一农垦大学-动物科技学院教学动物医院","address":"新阳路2号","phone":"","category":"医疗保健服务;动物医疗场所;宠物诊所","area":"","lng":125.166242,"lat":46.586648,"amap_id":"B0FFK9KYKZ","order":18,"prev_distance_km":2.24,"cumulative_distance_km":25.994,"amap_marker_url":"https://uri.amap.com/marker?position=125.166242,46.586648&name=%E9%BB%91%E9%BE%99%E6%B1%9F%E5%85%AB%E4%B8%80%E5%86%9C%E5%9E%A6%E5%A4%A7%E5%AD%A6-%E5%8A%A8%E7%89%A9%E7%A7%91%E6%8A%80%E5%AD%A6%E9%99%A2%E6%95%99%E5%AD%A6%E5%8A%A8%E7%89%A9%E5%8C%BB%E9%99%A2&src=vetmap&coordinate=gaode&callnative=1","route_id":"r1","route_name":"第1段","global_order":18},{"name":"农垦大学动物医院","address":"新风路与科创街交叉口北500米","phone":"15524503325","category":"医疗保健服务;动物医疗场所;动物医疗场所","area":"","lng":125.16622,"lat":46.586745,"amap_id":"B0FFFA87WR","order":19,"prev_distance_km":0.011,"cumulative_distance_km":26.005,"amap_marker_url":"https://uri.amap.com/marker?position=125.166220,46.586745&name=%E5%86%9C%E5%9E%A6%E5%A4%A7%E5%AD%A6%E5%8A%A8%E7%89%A9%E5%8C%BB%E9%99%A2&src=vetmap&coordinate=gaode&callnative=1","route_id":"r1","route_name":"第1段","global_order":19},{"name":"恩宠动物医院","address":"秀水路46号","phone":"13936980459","category":"医疗保健服务;动物医疗场所;宠物诊所","area":"","lng":125.158264,"lat":46.603736,"amap_id":"B0K3M7RQXX","order":20,"prev_distance_km":1.985,"cumulative_distance_km":27.99,"amap_marker_url":"https://uri.amap.com/marker?position=125.158264,46.603736&name=%E6%81%A9%E5%AE%A0%E5%8A%A8%E7%89%A9%E5%8C%BB%E9%99%A2&src=vetmap&coordinate=gaode&callnative=1","route_id":"r1","route_name":"第1段","global_order":20},{"name":"医宠堂宠物医院(嫩水家园店)","address":"生态大街40号","phone":"0459-7605666","category":"医疗保健服务;动物医疗场所;宠物诊所","area":"","lng":125.15795,"lat":46.609262,"amap_id":"B0H6YD9R2Y","order":21,"prev_distance_km":0.615,"cumulative_distance_km":28.605,"amap_marker_url":"https://uri.amap.com/marker?position=125.157950,46.609262&name=%E5%8C%BB%E5%AE%A0%E5%A0%82%E5%AE%A0%E7%89%A9%E5%8C%BB%E9%99%A2%28%E5%AB%A9%E6%B0%B4%E5%AE%B6%E5%9B%AD%E5%BA%97%29&src=vetmap&coordinate=gaode&callnative=1","route_id":"r1","route_name":"第1段","global_order":21},{"name":"酷派特宠物用品超市","address":"湖滨教师花园e39号楼对面滨州东街4-8号","phone":"0459-6615001;13674596070","category":"医疗保健服务;动物医疗场所;宠物诊所","area":"","lng":125.151799,"lat":46.621508,"amap_id":"B01CB0NB3N","order":22,"prev_distance_km":1.44,"cumulative_distance_km":30.045,"amap_marker_url":"https://uri.amap.com/marker?position=125.151799,46.621508&name=%E9%85%B7%E6%B4%BE%E7%89%B9%E5%AE%A0%E7%89%A9%E7%94%A8%E5%93%81%E8%B6%85%E5%B8%82&src=vetmap&coordinate=gaode&callnative=1","route_id":"r1","route_name":"第1段","global_order":22},{"name":"谭医生宠物门诊","address":"湖滨教师花园A02-6号商服","phone":"15045951534","category":"医疗保健服务;动物医疗场所;宠物诊所","area":"","lng":125.152821,"lat":46.626611,"amap_id":"B0IKUSZQUZ","order":23,"prev_distance_km":0.573,"cumulative_distance_km":30.618,"amap_marker_url":"https://uri.amap.com/marker?position=125.152821,46.626611&name=%E8%B0%AD%E5%8C%BB%E7%94%9F%E5%AE%A0%E7%89%A9%E9%97%A8%E8%AF%8A&src=vetmap&coordinate=gaode&callnative=1","route_id":"r1","route_name":"第1段","global_order":23}]}