{"summary":{"id":"d01852","province":"黑龙江省","city":"绥化市","district":"望奎县","count":21,"total_distance_km":98.847,"coordinate_system":"GCJ-02 / Amap","generated_at":"2026-05-07 19:58:35"},"rows":[{"name":"黑龙江省希望动物医院","address":"东门四望路北侧","phone":"19304557033","category":"医疗保健服务;动物医疗场所;宠物诊所","area":"","lng":126.509555,"lat":46.836823,"amap_id":"B0H0VU14FQ","order":1,"prev_distance_km":0.0,"cumulative_distance_km":0.0,"amap_marker_url":"https://uri.amap.com/marker?position=126.509555,46.836823&name=%E9%BB%91%E9%BE%99%E6%B1%9F%E7%9C%81%E5%B8%8C%E6%9C%9B%E5%8A%A8%E7%89%A9%E5%8C%BB%E9%99%A2&src=vetmap&coordinate=gaode&callnative=1"},{"name":"科牧兽药店","address":"中央大街与解放路交叉口东220米","phone":"","category":"医疗保健服务;动物医疗场所;动物医疗场所","area":"","lng":126.494125,"lat":46.835675,"amap_id":"B0L1ABI8LQ","order":2,"prev_distance_km":1.181,"cumulative_distance_km":1.181,"amap_marker_url":"https://uri.amap.com/marker?position=126.494125,46.835675&name=%E7%A7%91%E7%89%A7%E5%85%BD%E8%8D%AF%E5%BA%97&src=vetmap&coordinate=gaode&callnative=1"},{"name":"旭日宠物门诊","address":"解放路红十字医院对面","phone":"18945363970","category":"医疗保健服务;动物医疗场所;宠物诊所","area":"","lng":126.49142,"lat":46.834201,"amap_id":"B01C70MRPF","order":3,"prev_distance_km":0.263,"cumulative_distance_km":1.444,"amap_marker_url":"https://uri.amap.com/marker?position=126.491420,46.834201&name=%E6%97%AD%E6%97%A5%E5%AE%A0%E7%89%A9%E9%97%A8%E8%AF%8A&src=vetmap&coordinate=gaode&callnative=1"},{"name":"汪旺宠物诊所","address":"望奎镇中央大街144号人寿保险对面","phone":"13054252223","category":"医疗保健服务;动物医疗场所;宠物诊所","area":"","lng":126.488938,"lat":46.835109,"amap_id":"B0FFHYID7Q","order":4,"prev_distance_km":0.214,"cumulative_distance_km":1.658,"amap_marker_url":"https://uri.amap.com/marker?position=126.488938,46.835109&name=%E6%B1%AA%E6%97%BA%E5%AE%A0%E7%89%A9%E8%AF%8A%E6%89%80&src=vetmap&coordinate=gaode&callnative=1"},{"name":"六旺兽医门诊","address":"奋斗路与花园街交叉口西北20米","phone":"","category":"医疗保健服务;动物医疗场所;兽医站","area":"","lng":126.481339,"lat":46.840993,"amap_id":"B0FFH98B7J","order":5,"prev_distance_km":0.873,"cumulative_distance_km":2.531,"amap_marker_url":"https://uri.amap.com/marker?position=126.481339,46.840993&name=%E5%85%AD%E6%97%BA%E5%85%BD%E5%8C%BB%E9%97%A8%E8%AF%8A&src=vetmap&coordinate=gaode&callnative=1"},{"name":"臻爱宠物诊所","address":"卫生路280号","phone":"17614559631","category":"医疗保健服务;动物医疗场所;宠物诊所","area":"","lng":126.470649,"lat":46.834764,"amap_id":"B0L21SSOOU","order":6,"prev_distance_km":1.068,"cumulative_distance_km":3.599,"amap_marker_url":"https://uri.amap.com/marker?position=126.470649,46.834764&name=%E8%87%BB%E7%88%B1%E5%AE%A0%E7%89%A9%E8%AF%8A%E6%89%80&src=vetmap&coordinate=gaode&callnative=1"},{"name":"潼心宠物诊所","address":"同源小区北门旁","phone":"15945550521","category":"医疗保健服务;动物医疗场所;宠物诊所","area":"","lng":126.484992,"lat":46.831074,"amap_id":"B0FFKCB8D1","order":7,"prev_distance_km":1.166,"cumulative_distance_km":4.765,"amap_marker_url":"https://uri.amap.com/marker?position=126.484992,46.831074&name=%E6%BD%BC%E5%BF%83%E5%AE%A0%E7%89%A9%E8%AF%8A%E6%89%80&src=vetmap&coordinate=gaode&callnative=1"},{"name":"畜安兽药店(同源小区店)","address":"望奎镇奋斗路131号附近","phone":"0455-6483639;13258588631","category":"医疗保健服务;动物医疗场所;动物医疗场所","area":"","lng":126.484134,"lat":46.830608,"amap_id":"B0FFG45Q1T","order":8,"prev_distance_km":0.083,"cumulative_distance_km":4.848,"amap_marker_url":"https://uri.amap.com/marker?position=126.484134,46.830608&name=%E7%95%9C%E5%AE%89%E5%85%BD%E8%8D%AF%E5%BA%97%28%E5%90%8C%E6%BA%90%E5%B0%8F%E5%8C%BA%E5%BA%97%29&src=vetmap&coordinate=gaode&callnative=1"},{"name":"邦牧兽药店","address":"405乡道与408乡道交叉口西120米","phone":"","category":"医疗保健服务;动物医疗场所;动物医疗场所","area":"","lng":126.452775,"lat":46.660375,"amap_id":"B0MBBCWCBD","order":9,"prev_distance_km":19.079,"cumulative_distance_km":23.927,"amap_marker_url":"https://uri.amap.com/marker?position=126.452775,46.660375&name=%E9%82%A6%E7%89%A7%E5%85%BD%E8%8D%AF%E5%BA%97&src=vetmap&coordinate=gaode&callnative=1"},{"name":"昌隆兽药店","address":"卫星镇十字街东50米","phone":"","category":"医疗保健服务;动物医疗场所;动物医疗场所","area":"","lng":126.661954,"lat":46.720788,"amap_id":"B0LG6ZD63T","order":10,"prev_distance_km":17.311,"cumulative_distance_km":41.239,"amap_marker_url":"https://uri.amap.com/marker?position=126.661954,46.720788&name=%E6%98%8C%E9%9A%86%E5%85%BD%E8%8D%AF%E5%BA%97&src=vetmap&coordinate=gaode&callnative=1"},{"name":"慧锋兽药店","address":"卫星一四望路与203国道交叉口东80米","phone":"","category":"医疗保健服务;动物医疗场所;动物医疗场所","area":"","lng":126.662053,"lat":46.720713,"amap_id":"B0KRPHUFKS","order":11,"prev_distance_km":0.011,"cumulative_distance_km":41.25,"amap_marker_url":"https://uri.amap.com/marker?position=126.662053,46.720713&name=%E6%85%A7%E9%94%8B%E5%85%BD%E8%8D%AF%E5%BA%97&src=vetmap&coordinate=gaode&callnative=1"},{"name":"张丛兽药店","address":"卫星一四望路与409乡道交叉口西北260米","phone":"","category":"医疗保健服务;动物医疗场所;动物医疗场所","area":"","lng":126.834375,"lat":46.829925,"amap_id":"B0LAU77DGA","order":12,"prev_distance_km":17.88,"cumulative_distance_km":59.129,"amap_marker_url":"https://uri.amap.com/marker?position=126.834375,46.829925&name=%E5%BC%A0%E4%B8%9B%E5%85%BD%E8%8D%AF%E5%BA%97&src=vetmap&coordinate=gaode&callnative=1"},{"name":"安牧兽药店","address":"海丰镇中学东南侧270米","phone":"","category":"医疗保健服务;动物医疗场所;动物医疗场所","area":"","lng":126.834225,"lat":46.831525,"amap_id":"B0L3ASUYV9","order":13,"prev_distance_km":0.178,"cumulative_distance_km":59.308,"amap_marker_url":"https://uri.amap.com/marker?position=126.834225,46.831525&name=%E5%AE%89%E7%89%A7%E5%85%BD%E8%8D%AF%E5%BA%97&src=vetmap&coordinate=gaode&callnative=1"},{"name":"关爽兽药店","address":"东升乡412乡道","phone":"13163649944","category":"医疗保健服务;动物医疗场所;动物医疗场所","area":"","lng":126.891233,"lat":47.006664,"amap_id":"B0L1TO4X20","order":14,"prev_distance_km":19.95,"cumulative_distance_km":79.258,"amap_marker_url":"https://uri.amap.com/marker?position=126.891233,47.006664&name=%E5%85%B3%E7%88%BD%E5%85%BD%E8%8D%AF%E5%BA%97&src=vetmap&coordinate=gaode&callnative=1"},{"name":"宁辉兽药店","address":"416乡道东南30米","phone":"","category":"医疗保健服务;动物医疗场所;动物医疗场所","area":"","lng":126.816106,"lat":46.993173,"amap_id":"B0GRJGKZ8X","order":15,"prev_distance_km":5.891,"cumulative_distance_km":85.149,"amap_marker_url":"https://uri.amap.com/marker?position=126.816106,46.993173&name=%E5%AE%81%E8%BE%89%E5%85%BD%E8%8D%AF%E5%BA%97&src=vetmap&coordinate=gaode&callnative=1"},{"name":"邹康兽药店","address":"416乡道与404乡道交叉口东北300米","phone":"","category":"医疗保健服务;动物医疗场所;动物医疗场所","area":"","lng":126.813343,"lat":46.991388,"amap_id":"B0M6H7C2KC","order":16,"prev_distance_km":0.289,"cumulative_distance_km":85.438,"amap_marker_url":"https://uri.amap.com/marker?position=126.813343,46.991388&name=%E9%82%B9%E5%BA%B7%E5%85%BD%E8%8D%AF%E5%BA%97&src=vetmap&coordinate=gaode&callnative=1"},{"name":"鲸鹰兽药店","address":"惠七满族镇退役军人服务站西侧50米","phone":"","category":"医疗保健服务;动物医疗场所;动物医疗场所","area":"","lng":126.675177,"lat":47.05415,"amap_id":"B0KRPH895M","order":17,"prev_distance_km":12.585,"cumulative_distance_km":98.023,"amap_marker_url":"https://uri.amap.com/marker?position=126.675177,47.054150&name=%E9%B2%B8%E9%B9%B0%E5%85%BD%E8%8D%AF%E5%BA%97&src=vetmap&coordinate=gaode&callnative=1"},{"name":"小曲兽药店","address":"401乡道与404乡道交叉口南200米","phone":"","category":"医疗保健服务;动物医疗场所;动物医疗场所","area":"","lng":126.675156,"lat":47.056971,"amap_id":"B0KRKDAR4M","order":18,"prev_distance_km":0.314,"cumulative_distance_km":98.337,"amap_marker_url":"https://uri.amap.com/marker?position=126.675156,47.056971&name=%E5%B0%8F%E6%9B%B2%E5%85%BD%E8%8D%AF%E5%BA%97&src=vetmap&coordinate=gaode&callnative=1"},{"name":"孙波兽药店","address":"幸福路","phone":"","category":"医疗保健服务;动物医疗场所;动物医疗场所","area":"","lng":126.6753,"lat":47.058045,"amap_id":"B0GRTPDGFH","order":19,"prev_distance_km":0.12,"cumulative_distance_km":98.457,"amap_marker_url":"https://uri.amap.com/marker?position=126.675300,47.058045&name=%E5%AD%99%E6%B3%A2%E5%85%BD%E8%8D%AF%E5%BA%97&src=vetmap&coordinate=gaode&callnative=1"},{"name":"王越兽药店","address":"幸福路","phone":"","category":"医疗保健服务;动物医疗场所;动物医疗场所","area":"","lng":126.67515,"lat":47.058275,"amap_id":"B0GRTYEHOW","order":20,"prev_distance_km":0.028,"cumulative_distance_km":98.485,"amap_marker_url":"https://uri.amap.com/marker?position=126.675150,47.058275&name=%E7%8E%8B%E8%B6%8A%E5%85%BD%E8%8D%AF%E5%BA%97&src=vetmap&coordinate=gaode&callnative=1"},{"name":"望奎县凤林兽药店","address":"惠七满族镇中学东南侧210米","phone":"","category":"医疗保健服务;动物医疗场所;动物医疗场所","area":"","lng":126.674775,"lat":47.061525,"amap_id":"B0M6AL0FSU","order":21,"prev_distance_km":0.362,"cumulative_distance_km":98.847,"amap_marker_url":"https://uri.amap.com/marker?position=126.674775,47.061525&name=%E6%9C%9B%E5%A5%8E%E5%8E%BF%E5%87%A4%E6%9E%97%E5%85%BD%E8%8D%AF%E5%BA%97&src=vetmap&coordinate=gaode&callnative=1"}]}