{"summary":{"id":"d01920","province":"云南省","city":"大理白族自治州","district":"祥云县","count":6,"route_count":1,"max_route_clinics":6,"total_distance_km":21.919,"coordinate_system":"GCJ-02 / Amap","generated_at":"2026-05-08 19:39:01"},"routes":[{"id":"r1","name":"第1段","count":6,"total_distance_km":21.919,"rows":[{"name":"云洋动保刘厂分店","address":"刘厂镇大波那街","phone":"13769212230","category":"医疗保健服务;动物医疗场所;动物医疗场所","area":"","lng":100.758621,"lat":25.490956,"amap_id":"B0L6UCFBY6","order":1,"prev_distance_km":0.0,"cumulative_distance_km":0.0,"amap_marker_url":"https://uri.amap.com/marker?position=100.758621,25.490956&name=%E4%BA%91%E6%B4%8B%E5%8A%A8%E4%BF%9D%E5%88%98%E5%8E%82%E5%88%86%E5%BA%97&src=vetmap&coordinate=gaode&callnative=1","route_id":"r1","route_name":"第1段"},{"name":"祥云禽兴农牧科技有限公司","address":"兴云路与龙祥路交叉口北20米","phone":"13577879200;15087269168","category":"医疗保健服务;动物医疗场所;兽医站","area":"","lng":100.564792,"lat":25.473179,"amap_id":"B0FFGAX0SK","order":2,"prev_distance_km":19.556,"cumulative_distance_km":19.556,"amap_marker_url":"https://uri.amap.com/marker?position=100.564792,25.473179&name=%E7%A5%A5%E4%BA%91%E7%A6%BD%E5%85%B4%E5%86%9C%E7%89%A7%E7%A7%91%E6%8A%80%E6%9C%89%E9%99%90%E5%85%AC%E5%8F%B8&src=vetmap&coordinate=gaode&callnative=1","route_id":"r1","route_name":"第1段"},{"name":"优祥宠物诊所","address":"中恒润园5幢-商铺","phone":"13529394194","category":"医疗保健服务;动物医疗场所;宠物诊所","area":"","lng":100.56846,"lat":25.479123,"amap_id":"B0IGC7EXPW","order":3,"prev_distance_km":0.757,"cumulative_distance_km":20.313,"amap_marker_url":"https://uri.amap.com/marker?position=100.568460,25.479123&name=%E4%BC%98%E7%A5%A5%E5%AE%A0%E7%89%A9%E8%AF%8A%E6%89%80&src=vetmap&coordinate=gaode&callnative=1","route_id":"r1","route_name":"第1段"},{"name":"祥云忠爱宠物医院","address":"阳光城C区步行街C2A16","phone":"15125036404","category":"医疗保健服务;动物医疗场所;宠物诊所","area":"","lng":100.564726,"lat":25.481291,"amap_id":"B0K267YQFC","order":4,"prev_distance_km":0.446,"cumulative_distance_km":20.759,"amap_marker_url":"https://uri.amap.com/marker?position=100.564726,25.481291&name=%E7%A5%A5%E4%BA%91%E5%BF%A0%E7%88%B1%E5%AE%A0%E7%89%A9%E5%8C%BB%E9%99%A2&src=vetmap&coordinate=gaode&callnative=1","route_id":"r1","route_name":"第1段"},{"name":"宠悦小动物诊疗","address":"兴云路11号","phone":"18487391808","category":"医疗保健服务;动物医疗场所;宠物诊所","area":"","lng":100.562974,"lat":25.481548,"amap_id":"B0GKGLA6OE","order":5,"prev_distance_km":0.178,"cumulative_distance_km":20.937,"amap_marker_url":"https://uri.amap.com/marker?position=100.562974,25.481548&name=%E5%AE%A0%E6%82%A6%E5%B0%8F%E5%8A%A8%E7%89%A9%E8%AF%8A%E7%96%97&src=vetmap&coordinate=gaode&callnative=1","route_id":"r1","route_name":"第1段"},{"name":"动物检疫申报点","address":"飞龙别院东北侧210米","phone":"","category":"医疗保健服务;动物医疗场所;动物医疗场所","area":"","lng":100.556486,"lat":25.488162,"amap_id":"B0KBUSAPLJ","order":6,"prev_distance_km":0.982,"cumulative_distance_km":21.919,"amap_marker_url":"https://uri.amap.com/marker?position=100.556486,25.488162&name=%E5%8A%A8%E7%89%A9%E6%A3%80%E7%96%AB%E7%94%B3%E6%8A%A5%E7%82%B9&src=vetmap&coordinate=gaode&callnative=1","route_id":"r1","route_name":"第1段"}]}],"rows":[{"name":"云洋动保刘厂分店","address":"刘厂镇大波那街","phone":"13769212230","category":"医疗保健服务;动物医疗场所;动物医疗场所","area":"","lng":100.758621,"lat":25.490956,"amap_id":"B0L6UCFBY6","order":1,"prev_distance_km":0.0,"cumulative_distance_km":0.0,"amap_marker_url":"https://uri.amap.com/marker?position=100.758621,25.490956&name=%E4%BA%91%E6%B4%8B%E5%8A%A8%E4%BF%9D%E5%88%98%E5%8E%82%E5%88%86%E5%BA%97&src=vetmap&coordinate=gaode&callnative=1","route_id":"r1","route_name":"第1段","global_order":1},{"name":"祥云禽兴农牧科技有限公司","address":"兴云路与龙祥路交叉口北20米","phone":"13577879200;15087269168","category":"医疗保健服务;动物医疗场所;兽医站","area":"","lng":100.564792,"lat":25.473179,"amap_id":"B0FFGAX0SK","order":2,"prev_distance_km":19.556,"cumulative_distance_km":19.556,"amap_marker_url":"https://uri.amap.com/marker?position=100.564792,25.473179&name=%E7%A5%A5%E4%BA%91%E7%A6%BD%E5%85%B4%E5%86%9C%E7%89%A7%E7%A7%91%E6%8A%80%E6%9C%89%E9%99%90%E5%85%AC%E5%8F%B8&src=vetmap&coordinate=gaode&callnative=1","route_id":"r1","route_name":"第1段","global_order":2},{"name":"优祥宠物诊所","address":"中恒润园5幢-商铺","phone":"13529394194","category":"医疗保健服务;动物医疗场所;宠物诊所","area":"","lng":100.56846,"lat":25.479123,"amap_id":"B0IGC7EXPW","order":3,"prev_distance_km":0.757,"cumulative_distance_km":20.313,"amap_marker_url":"https://uri.amap.com/marker?position=100.568460,25.479123&name=%E4%BC%98%E7%A5%A5%E5%AE%A0%E7%89%A9%E8%AF%8A%E6%89%80&src=vetmap&coordinate=gaode&callnative=1","route_id":"r1","route_name":"第1段","global_order":3},{"name":"祥云忠爱宠物医院","address":"阳光城C区步行街C2A16","phone":"15125036404","category":"医疗保健服务;动物医疗场所;宠物诊所","area":"","lng":100.564726,"lat":25.481291,"amap_id":"B0K267YQFC","order":4,"prev_distance_km":0.446,"cumulative_distance_km":20.759,"amap_marker_url":"https://uri.amap.com/marker?position=100.564726,25.481291&name=%E7%A5%A5%E4%BA%91%E5%BF%A0%E7%88%B1%E5%AE%A0%E7%89%A9%E5%8C%BB%E9%99%A2&src=vetmap&coordinate=gaode&callnative=1","route_id":"r1","route_name":"第1段","global_order":4},{"name":"宠悦小动物诊疗","address":"兴云路11号","phone":"18487391808","category":"医疗保健服务;动物医疗场所;宠物诊所","area":"","lng":100.562974,"lat":25.481548,"amap_id":"B0GKGLA6OE","order":5,"prev_distance_km":0.178,"cumulative_distance_km":20.937,"amap_marker_url":"https://uri.amap.com/marker?position=100.562974,25.481548&name=%E5%AE%A0%E6%82%A6%E5%B0%8F%E5%8A%A8%E7%89%A9%E8%AF%8A%E7%96%97&src=vetmap&coordinate=gaode&callnative=1","route_id":"r1","route_name":"第1段","global_order":5},{"name":"动物检疫申报点","address":"飞龙别院东北侧210米","phone":"","category":"医疗保健服务;动物医疗场所;动物医疗场所","area":"","lng":100.556486,"lat":25.488162,"amap_id":"B0KBUSAPLJ","order":6,"prev_distance_km":0.982,"cumulative_distance_km":21.919,"amap_marker_url":"https://uri.amap.com/marker?position=100.556486,25.488162&name=%E5%8A%A8%E7%89%A9%E6%A3%80%E7%96%AB%E7%94%B3%E6%8A%A5%E7%82%B9&src=vetmap&coordinate=gaode&callnative=1","route_id":"r1","route_name":"第1段","global_order":6}]}