{"summary":{"id":"d01979","province":"云南省","city":"楚雄彝族自治州","district":"元谋县","count":6,"route_count":1,"max_route_clinics":6,"total_distance_km":3.12,"coordinate_system":"GCJ-02 / Amap","generated_at":"2026-05-08 19:39:18"},"routes":[{"id":"r1","name":"第1段","count":6,"total_distance_km":3.12,"rows":[{"name":"修猫修狗宠物诊所","address":"源达路与金源街交叉口北240米","phone":"","category":"医疗保健服务;动物医疗场所;宠物诊所","area":"","lng":101.858075,"lat":25.716425,"amap_id":"B0MBPY1BG6","order":1,"prev_distance_km":0.0,"cumulative_distance_km":0.0,"amap_marker_url":"https://uri.amap.com/marker?position=101.858075,25.716425&name=%E4%BF%AE%E7%8C%AB%E4%BF%AE%E7%8B%97%E5%AE%A0%E7%89%A9%E8%AF%8A%E6%89%80&src=vetmap&coordinate=gaode&callnative=1","route_id":"r1","route_name":"第1段"},{"name":"安宠动物诊所(金汇大商汇店)","address":"滨江大道金汇大商汇","phone":"13508858083","category":"医疗保健服务;动物医疗场所;宠物诊所","area":"","lng":101.858297,"lat":25.712463,"amap_id":"B0HGTS8BY5","order":2,"prev_distance_km":0.441,"cumulative_distance_km":0.441,"amap_marker_url":"https://uri.amap.com/marker?position=101.858297,25.712463&name=%E5%AE%89%E5%AE%A0%E5%8A%A8%E7%89%A9%E8%AF%8A%E6%89%80%28%E9%87%91%E6%B1%87%E5%A4%A7%E5%95%86%E6%B1%87%E5%BA%97%29&src=vetmap&coordinate=gaode&callnative=1","route_id":"r1","route_name":"第1段"},{"name":"哈基咪宠物医院","address":"元马镇元谋大商汇22栋2单元17号","phone":"13529500752","category":"医疗保健服务;动物医疗场所;宠物诊所","area":"","lng":101.859179,"lat":25.711904,"amap_id":"B0M6JUEFFY","order":3,"prev_distance_km":0.108,"cumulative_distance_km":0.549,"amap_marker_url":"https://uri.amap.com/marker?position=101.859179,25.711904&name=%E5%93%88%E5%9F%BA%E5%92%AA%E5%AE%A0%E7%89%A9%E5%8C%BB%E9%99%A2&src=vetmap&coordinate=gaode&callnative=1","route_id":"r1","route_name":"第1段"},{"name":"友佳宠物","address":"元马镇泷湖金街5栋22号","phone":"15758513418;18187833220","category":"医疗保健服务;动物医疗场所;宠物诊所","area":"","lng":101.86128,"lat":25.712716,"amap_id":"B0LDKZPY1R","order":4,"prev_distance_km":0.229,"cumulative_distance_km":0.778,"amap_marker_url":"https://uri.amap.com/marker?position=101.861280,25.712716&name=%E5%8F%8B%E4%BD%B3%E5%AE%A0%E7%89%A9&src=vetmap&coordinate=gaode&callnative=1","route_id":"r1","route_name":"第1段"},{"name":"妙妙宠物诊所","address":"元通街与龙井街交叉口北40米","phone":"","category":"医疗保健服务;动物医疗场所;宠物诊所","area":"","lng":101.873886,"lat":25.701316,"amap_id":"B0I0FYKFB1","order":5,"prev_distance_km":1.789,"cumulative_distance_km":2.568,"amap_marker_url":"https://uri.amap.com/marker?position=101.873886,25.701316&name=%E5%A6%99%E5%A6%99%E5%AE%A0%E7%89%A9%E8%AF%8A%E6%89%80&src=vetmap&coordinate=gaode&callnative=1","route_id":"r1","route_name":"第1段"},{"name":"翠峰宠物医院","address":"元马镇翠峰宠物医院马街南路108国道锦星驾校往佳和酒店方向走50米小花园斜对面","phone":"15891855339","category":"医疗保健服务;动物医疗场所;宠物诊所","area":"","lng":101.873258,"lat":25.696376,"amap_id":"B0JR9OKBM4","order":6,"prev_distance_km":0.553,"cumulative_distance_km":3.12,"amap_marker_url":"https://uri.amap.com/marker?position=101.873258,25.696376&name=%E7%BF%A0%E5%B3%B0%E5%AE%A0%E7%89%A9%E5%8C%BB%E9%99%A2&src=vetmap&coordinate=gaode&callnative=1","route_id":"r1","route_name":"第1段"}]}],"rows":[{"name":"修猫修狗宠物诊所","address":"源达路与金源街交叉口北240米","phone":"","category":"医疗保健服务;动物医疗场所;宠物诊所","area":"","lng":101.858075,"lat":25.716425,"amap_id":"B0MBPY1BG6","order":1,"prev_distance_km":0.0,"cumulative_distance_km":0.0,"amap_marker_url":"https://uri.amap.com/marker?position=101.858075,25.716425&name=%E4%BF%AE%E7%8C%AB%E4%BF%AE%E7%8B%97%E5%AE%A0%E7%89%A9%E8%AF%8A%E6%89%80&src=vetmap&coordinate=gaode&callnative=1","route_id":"r1","route_name":"第1段","global_order":1},{"name":"安宠动物诊所(金汇大商汇店)","address":"滨江大道金汇大商汇","phone":"13508858083","category":"医疗保健服务;动物医疗场所;宠物诊所","area":"","lng":101.858297,"lat":25.712463,"amap_id":"B0HGTS8BY5","order":2,"prev_distance_km":0.441,"cumulative_distance_km":0.441,"amap_marker_url":"https://uri.amap.com/marker?position=101.858297,25.712463&name=%E5%AE%89%E5%AE%A0%E5%8A%A8%E7%89%A9%E8%AF%8A%E6%89%80%28%E9%87%91%E6%B1%87%E5%A4%A7%E5%95%86%E6%B1%87%E5%BA%97%29&src=vetmap&coordinate=gaode&callnative=1","route_id":"r1","route_name":"第1段","global_order":2},{"name":"哈基咪宠物医院","address":"元马镇元谋大商汇22栋2单元17号","phone":"13529500752","category":"医疗保健服务;动物医疗场所;宠物诊所","area":"","lng":101.859179,"lat":25.711904,"amap_id":"B0M6JUEFFY","order":3,"prev_distance_km":0.108,"cumulative_distance_km":0.549,"amap_marker_url":"https://uri.amap.com/marker?position=101.859179,25.711904&name=%E5%93%88%E5%9F%BA%E5%92%AA%E5%AE%A0%E7%89%A9%E5%8C%BB%E9%99%A2&src=vetmap&coordinate=gaode&callnative=1","route_id":"r1","route_name":"第1段","global_order":3},{"name":"友佳宠物","address":"元马镇泷湖金街5栋22号","phone":"15758513418;18187833220","category":"医疗保健服务;动物医疗场所;宠物诊所","area":"","lng":101.86128,"lat":25.712716,"amap_id":"B0LDKZPY1R","order":4,"prev_distance_km":0.229,"cumulative_distance_km":0.778,"amap_marker_url":"https://uri.amap.com/marker?position=101.861280,25.712716&name=%E5%8F%8B%E4%BD%B3%E5%AE%A0%E7%89%A9&src=vetmap&coordinate=gaode&callnative=1","route_id":"r1","route_name":"第1段","global_order":4},{"name":"妙妙宠物诊所","address":"元通街与龙井街交叉口北40米","phone":"","category":"医疗保健服务;动物医疗场所;宠物诊所","area":"","lng":101.873886,"lat":25.701316,"amap_id":"B0I0FYKFB1","order":5,"prev_distance_km":1.789,"cumulative_distance_km":2.568,"amap_marker_url":"https://uri.amap.com/marker?position=101.873886,25.701316&name=%E5%A6%99%E5%A6%99%E5%AE%A0%E7%89%A9%E8%AF%8A%E6%89%80&src=vetmap&coordinate=gaode&callnative=1","route_id":"r1","route_name":"第1段","global_order":5},{"name":"翠峰宠物医院","address":"元马镇翠峰宠物医院马街南路108国道锦星驾校往佳和酒店方向走50米小花园斜对面","phone":"15891855339","category":"医疗保健服务;动物医疗场所;宠物诊所","area":"","lng":101.873258,"lat":25.696376,"amap_id":"B0JR9OKBM4","order":6,"prev_distance_km":0.553,"cumulative_distance_km":3.12,"amap_marker_url":"https://uri.amap.com/marker?position=101.873258,25.696376&name=%E7%BF%A0%E5%B3%B0%E5%AE%A0%E7%89%A9%E5%8C%BB%E9%99%A2&src=vetmap&coordinate=gaode&callnative=1","route_id":"r1","route_name":"第1段","global_order":6}]}