{"summary":{"id":"d01976","province":"云南省","city":"曲靖市","district":"陆良县","count":10,"route_count":1,"max_route_clinics":10,"total_distance_km":43.344,"coordinate_system":"GCJ-02 / Amap","generated_at":"2026-05-08 19:39:17"},"routes":[{"id":"r1","name":"第1段","count":10,"total_distance_km":43.344,"rows":[{"name":"召夸兽医站","address":"248国道与北召公路交叉口东北120米","phone":"","category":"医疗保健服务;动物医疗场所;兽医站","area":"","lng":103.690326,"lat":24.841869,"amap_id":"B0H3YU5RMT","order":1,"prev_distance_km":0.0,"cumulative_distance_km":0.0,"amap_marker_url":"https://uri.amap.com/marker?position=103.690326,24.841869&name=%E5%8F%AC%E5%A4%B8%E5%85%BD%E5%8C%BB%E7%AB%99&src=vetmap&coordinate=gaode&callnative=1","route_id":"r1","route_name":"第1段"},{"name":"闫芳桥社区动物诊疗室","address":"师古街173号","phone":"","category":"医疗保健服务;动物医疗场所;宠物诊所","area":"","lng":103.666216,"lat":25.011127,"amap_id":"B0L615RFS0","order":2,"prev_distance_km":18.977,"cumulative_distance_km":18.977,"amap_marker_url":"https://uri.amap.com/marker?position=103.666216,25.011127&name=%E9%97%AB%E8%8A%B3%E6%A1%A5%E7%A4%BE%E5%8C%BA%E5%8A%A8%E7%89%A9%E8%AF%8A%E7%96%97%E5%AE%A4&src=vetmap&coordinate=gaode&callnative=1","route_id":"r1","route_name":"第1段"},{"name":"康乐宠物医院","address":"古桥街金色港湾","phone":"15911589263;18787421957","category":"医疗保健服务;动物医疗场所;宠物诊所","area":"","lng":103.660819,"lat":25.020982,"amap_id":"B0FFK4SYTS","order":3,"prev_distance_km":1.223,"cumulative_distance_km":20.2,"amap_marker_url":"https://uri.amap.com/marker?position=103.660819,25.020982&name=%E5%BA%B7%E4%B9%90%E5%AE%A0%E7%89%A9%E5%8C%BB%E9%99%A2&src=vetmap&coordinate=gaode&callnative=1","route_id":"r1","route_name":"第1段"},{"name":"陆良金宝宝宠物诊所","address":"中枢镇春雷街90号盛世明珠门口","phone":"15924776235","category":"医疗保健服务;动物医疗场所;宠物诊所","area":"","lng":103.652691,"lat":25.022226,"amap_id":"B0ID4CMWBV","order":4,"prev_distance_km":0.831,"cumulative_distance_km":21.031,"amap_marker_url":"https://uri.amap.com/marker?position=103.652691,25.022226&name=%E9%99%86%E8%89%AF%E9%87%91%E5%AE%9D%E5%AE%9D%E5%AE%A0%E7%89%A9%E8%AF%8A%E6%89%80&src=vetmap&coordinate=gaode&callnative=1","route_id":"r1","route_name":"第1段"},{"name":"陆良恒爱宠物医院","address":"西华路236号","phone":"15887456652","category":"医疗保健服务;动物医疗场所;宠物诊所","area":"","lng":103.654109,"lat":25.030631,"amap_id":"B0FFH9V2O0","order":5,"prev_distance_km":0.945,"cumulative_distance_km":21.976,"amap_marker_url":"https://uri.amap.com/marker?position=103.654109,25.030631&name=%E9%99%86%E8%89%AF%E6%81%92%E7%88%B1%E5%AE%A0%E7%89%A9%E5%8C%BB%E9%99%A2&src=vetmap&coordinate=gaode&callnative=1","route_id":"r1","route_name":"第1段"},{"name":"贝尔康宠物医院","address":"启明小街113号","phone":"13988908932","category":"医疗保健服务;动物医疗场所;宠物诊所","area":"","lng":103.659739,"lat":25.032179,"amap_id":"B0FFHOZZ5Z","order":6,"prev_distance_km":0.593,"cumulative_distance_km":22.569,"amap_marker_url":"https://uri.amap.com/marker?position=103.659739,25.032179&name=%E8%B4%9D%E5%B0%94%E5%BA%B7%E5%AE%A0%E7%89%A9%E5%8C%BB%E9%99%A2&src=vetmap&coordinate=gaode&callnative=1","route_id":"r1","route_name":"第1段"},{"name":"海大畜禽技术服务站","address":"金辉商业城","phone":"","category":"医疗保健服务;动物医疗场所;兽医站","area":"","lng":103.666999,"lat":25.03688,"amap_id":"B0IGBDL4MV","order":7,"prev_distance_km":0.899,"cumulative_distance_km":23.468,"amap_marker_url":"https://uri.amap.com/marker?position=103.666999,25.036880&name=%E6%B5%B7%E5%A4%A7%E7%95%9C%E7%A6%BD%E6%8A%80%E6%9C%AF%E6%9C%8D%E5%8A%A1%E7%AB%99&src=vetmap&coordinate=gaode&callnative=1","route_id":"r1","route_name":"第1段"},{"name":"陆良县聚焦兽医服务中心","address":"东门街115号","phone":"","category":"医疗保健服务;动物医疗场所;兽医站","area":"","lng":103.66925,"lat":25.029644,"amap_id":"B0J0TMQWGL","order":8,"prev_distance_km":0.836,"cumulative_distance_km":24.304,"amap_marker_url":"https://uri.amap.com/marker?position=103.669250,25.029644&name=%E9%99%86%E8%89%AF%E5%8E%BF%E8%81%9A%E7%84%A6%E5%85%BD%E5%8C%BB%E6%9C%8D%E5%8A%A1%E4%B8%AD%E5%BF%83&src=vetmap&coordinate=gaode&callnative=1","route_id":"r1","route_name":"第1段"},{"name":"邦泰动保","address":"三岔河卫生院西北侧210米","phone":"","category":"医疗保健服务;动物医疗场所;动物医疗场所","area":"","lng":103.769752,"lat":25.046748,"amap_id":"B0KBF7QS8Z","order":9,"prev_distance_km":10.302,"cumulative_distance_km":34.606,"amap_marker_url":"https://uri.amap.com/marker?position=103.769752,25.046748&name=%E9%82%A6%E6%B3%B0%E5%8A%A8%E4%BF%9D&src=vetmap&coordinate=gaode&callnative=1","route_id":"r1","route_name":"第1段"},{"name":"板桥镇畜牧兽医站","address":"板桥镇振兴街2号附近","phone":"","category":"医疗保健服务;动物医疗场所;兽医站","area":"","lng":103.747574,"lat":25.122713,"amap_id":"B036A000QO","order":10,"prev_distance_km":8.737,"cumulative_distance_km":43.344,"amap_marker_url":"https://uri.amap.com/marker?position=103.747574,25.122713&name=%E6%9D%BF%E6%A1%A5%E9%95%87%E7%95%9C%E7%89%A7%E5%85%BD%E5%8C%BB%E7%AB%99&src=vetmap&coordinate=gaode&callnative=1","route_id":"r1","route_name":"第1段"}]}],"rows":[{"name":"召夸兽医站","address":"248国道与北召公路交叉口东北120米","phone":"","category":"医疗保健服务;动物医疗场所;兽医站","area":"","lng":103.690326,"lat":24.841869,"amap_id":"B0H3YU5RMT","order":1,"prev_distance_km":0.0,"cumulative_distance_km":0.0,"amap_marker_url":"https://uri.amap.com/marker?position=103.690326,24.841869&name=%E5%8F%AC%E5%A4%B8%E5%85%BD%E5%8C%BB%E7%AB%99&src=vetmap&coordinate=gaode&callnative=1","route_id":"r1","route_name":"第1段","global_order":1},{"name":"闫芳桥社区动物诊疗室","address":"师古街173号","phone":"","category":"医疗保健服务;动物医疗场所;宠物诊所","area":"","lng":103.666216,"lat":25.011127,"amap_id":"B0L615RFS0","order":2,"prev_distance_km":18.977,"cumulative_distance_km":18.977,"amap_marker_url":"https://uri.amap.com/marker?position=103.666216,25.011127&name=%E9%97%AB%E8%8A%B3%E6%A1%A5%E7%A4%BE%E5%8C%BA%E5%8A%A8%E7%89%A9%E8%AF%8A%E7%96%97%E5%AE%A4&src=vetmap&coordinate=gaode&callnative=1","route_id":"r1","route_name":"第1段","global_order":2},{"name":"康乐宠物医院","address":"古桥街金色港湾","phone":"15911589263;18787421957","category":"医疗保健服务;动物医疗场所;宠物诊所","area":"","lng":103.660819,"lat":25.020982,"amap_id":"B0FFK4SYTS","order":3,"prev_distance_km":1.223,"cumulative_distance_km":20.2,"amap_marker_url":"https://uri.amap.com/marker?position=103.660819,25.020982&name=%E5%BA%B7%E4%B9%90%E5%AE%A0%E7%89%A9%E5%8C%BB%E9%99%A2&src=vetmap&coordinate=gaode&callnative=1","route_id":"r1","route_name":"第1段","global_order":3},{"name":"陆良金宝宝宠物诊所","address":"中枢镇春雷街90号盛世明珠门口","phone":"15924776235","category":"医疗保健服务;动物医疗场所;宠物诊所","area":"","lng":103.652691,"lat":25.022226,"amap_id":"B0ID4CMWBV","order":4,"prev_distance_km":0.831,"cumulative_distance_km":21.031,"amap_marker_url":"https://uri.amap.com/marker?position=103.652691,25.022226&name=%E9%99%86%E8%89%AF%E9%87%91%E5%AE%9D%E5%AE%9D%E5%AE%A0%E7%89%A9%E8%AF%8A%E6%89%80&src=vetmap&coordinate=gaode&callnative=1","route_id":"r1","route_name":"第1段","global_order":4},{"name":"陆良恒爱宠物医院","address":"西华路236号","phone":"15887456652","category":"医疗保健服务;动物医疗场所;宠物诊所","area":"","lng":103.654109,"lat":25.030631,"amap_id":"B0FFH9V2O0","order":5,"prev_distance_km":0.945,"cumulative_distance_km":21.976,"amap_marker_url":"https://uri.amap.com/marker?position=103.654109,25.030631&name=%E9%99%86%E8%89%AF%E6%81%92%E7%88%B1%E5%AE%A0%E7%89%A9%E5%8C%BB%E9%99%A2&src=vetmap&coordinate=gaode&callnative=1","route_id":"r1","route_name":"第1段","global_order":5},{"name":"贝尔康宠物医院","address":"启明小街113号","phone":"13988908932","category":"医疗保健服务;动物医疗场所;宠物诊所","area":"","lng":103.659739,"lat":25.032179,"amap_id":"B0FFHOZZ5Z","order":6,"prev_distance_km":0.593,"cumulative_distance_km":22.569,"amap_marker_url":"https://uri.amap.com/marker?position=103.659739,25.032179&name=%E8%B4%9D%E5%B0%94%E5%BA%B7%E5%AE%A0%E7%89%A9%E5%8C%BB%E9%99%A2&src=vetmap&coordinate=gaode&callnative=1","route_id":"r1","route_name":"第1段","global_order":6},{"name":"海大畜禽技术服务站","address":"金辉商业城","phone":"","category":"医疗保健服务;动物医疗场所;兽医站","area":"","lng":103.666999,"lat":25.03688,"amap_id":"B0IGBDL4MV","order":7,"prev_distance_km":0.899,"cumulative_distance_km":23.468,"amap_marker_url":"https://uri.amap.com/marker?position=103.666999,25.036880&name=%E6%B5%B7%E5%A4%A7%E7%95%9C%E7%A6%BD%E6%8A%80%E6%9C%AF%E6%9C%8D%E5%8A%A1%E7%AB%99&src=vetmap&coordinate=gaode&callnative=1","route_id":"r1","route_name":"第1段","global_order":7},{"name":"陆良县聚焦兽医服务中心","address":"东门街115号","phone":"","category":"医疗保健服务;动物医疗场所;兽医站","area":"","lng":103.66925,"lat":25.029644,"amap_id":"B0J0TMQWGL","order":8,"prev_distance_km":0.836,"cumulative_distance_km":24.304,"amap_marker_url":"https://uri.amap.com/marker?position=103.669250,25.029644&name=%E9%99%86%E8%89%AF%E5%8E%BF%E8%81%9A%E7%84%A6%E5%85%BD%E5%8C%BB%E6%9C%8D%E5%8A%A1%E4%B8%AD%E5%BF%83&src=vetmap&coordinate=gaode&callnative=1","route_id":"r1","route_name":"第1段","global_order":8},{"name":"邦泰动保","address":"三岔河卫生院西北侧210米","phone":"","category":"医疗保健服务;动物医疗场所;动物医疗场所","area":"","lng":103.769752,"lat":25.046748,"amap_id":"B0KBF7QS8Z","order":9,"prev_distance_km":10.302,"cumulative_distance_km":34.606,"amap_marker_url":"https://uri.amap.com/marker?position=103.769752,25.046748&name=%E9%82%A6%E6%B3%B0%E5%8A%A8%E4%BF%9D&src=vetmap&coordinate=gaode&callnative=1","route_id":"r1","route_name":"第1段","global_order":9},{"name":"板桥镇畜牧兽医站","address":"板桥镇振兴街2号附近","phone":"","category":"医疗保健服务;动物医疗场所;兽医站","area":"","lng":103.747574,"lat":25.122713,"amap_id":"B036A000QO","order":10,"prev_distance_km":8.737,"cumulative_distance_km":43.344,"amap_marker_url":"https://uri.amap.com/marker?position=103.747574,25.122713&name=%E6%9D%BF%E6%A1%A5%E9%95%87%E7%95%9C%E7%89%A7%E5%85%BD%E5%8C%BB%E7%AB%99&src=vetmap&coordinate=gaode&callnative=1","route_id":"r1","route_name":"第1段","global_order":10}]}