{"summary":{"id":"d01909","province":"云南省","city":"保山市","district":"隆阳区","count":18,"route_count":1,"max_route_clinics":18,"total_distance_km":140.392,"coordinate_system":"GCJ-02 / Amap","generated_at":"2026-05-07 21:26:07"},"routes":[{"id":"r1","name":"第1段","count":18,"total_distance_km":140.392,"rows":[{"name":"芒宽动物医院","address":"芒宽乡畜牧兽医工作站","phone":"18288500023;18314563060","category":"医疗保健服务;动物医疗场所;宠物诊所","area":"","lng":98.866808,"lat":25.448348,"amap_id":"B0KDZCP6OC","order":1,"prev_distance_km":0.0,"cumulative_distance_km":0.0,"amap_marker_url":"https://uri.amap.com/marker?position=98.866808,25.448348&name=%E8%8A%92%E5%AE%BD%E5%8A%A8%E7%89%A9%E5%8C%BB%E9%99%A2&src=vetmap&coordinate=gaode&callnative=1","route_id":"r1","route_name":"第1段"},{"name":"牧益动保","address":"320国道与G56杭瑞高速出口交叉口西260米","phone":"","category":"医疗保健服务;动物医疗场所;动物医疗场所","area":"","lng":99.195215,"lat":25.31337,"amap_id":"B0L0Z6DGQX","order":2,"prev_distance_km":36.246,"cumulative_distance_km":36.246,"amap_marker_url":"https://uri.amap.com/marker?position=99.195215,25.313370&name=%E7%89%A7%E7%9B%8A%E5%8A%A8%E4%BF%9D&src=vetmap&coordinate=gaode&callnative=1","route_id":"r1","route_name":"第1段"},{"name":"隆阳区杨老师动物诊所","address":"G56杭瑞高速与S80保山绕城高速出口交叉口南300米","phone":"","category":"医疗保健服务;动物医疗场所;宠物诊所","area":"","lng":99.223015,"lat":25.219375,"amap_id":"B0FFH2JMPD","order":3,"prev_distance_km":10.819,"cumulative_distance_km":47.065,"amap_marker_url":"https://uri.amap.com/marker?position=99.223015,25.219375&name=%E9%9A%86%E9%98%B3%E5%8C%BA%E6%9D%A8%E8%80%81%E5%B8%88%E5%8A%A8%E7%89%A9%E8%AF%8A%E6%89%80&src=vetmap&coordinate=gaode&callnative=1","route_id":"r1","route_name":"第1段"},{"name":"隆阳区畜牧兽医局丙麻畜牧兽医工作站","address":"丙麻乡县道M01丙麻客运站东北","phone":"","category":"医疗保健服务;动物医疗场所;兽医站","area":"","lng":99.373132,"lat":25.010285,"amap_id":"B0FFG0KMQT","order":4,"prev_distance_km":27.731,"cumulative_distance_km":74.796,"amap_marker_url":"https://uri.amap.com/marker?position=99.373132,25.010285&name=%E9%9A%86%E9%98%B3%E5%8C%BA%E7%95%9C%E7%89%A7%E5%85%BD%E5%8C%BB%E5%B1%80%E4%B8%99%E9%BA%BB%E7%95%9C%E7%89%A7%E5%85%BD%E5%8C%BB%E5%B7%A5%E4%BD%9C%E7%AB%99&src=vetmap&coordinate=gaode&callnative=1","route_id":"r1","route_name":"第1段"},{"name":"隆阳区志康兽药店","address":"M01县道与066乡道交叉口南420米","phone":"","category":"医疗保健服务;动物医疗场所;动物医疗场所","area":"","lng":99.371475,"lat":25.008675,"amap_id":"B0FFG0ILBK","order":5,"prev_distance_km":0.245,"cumulative_distance_km":75.041,"amap_marker_url":"https://uri.amap.com/marker?position=99.371475,25.008675&name=%E9%9A%86%E9%98%B3%E5%8C%BA%E5%BF%97%E5%BA%B7%E5%85%BD%E8%8D%AF%E5%BA%97&src=vetmap&coordinate=gaode&callnative=1","route_id":"r1","route_name":"第1段"},{"name":"牧益动保总店","address":"G56杭瑞高速入口与G56杭瑞高速交叉口西160米","phone":"","category":"医疗保健服务;动物医疗场所;动物医疗场所","area":"","lng":99.181397,"lat":25.11112,"amap_id":"B0JDPHG9S4","order":6,"prev_distance_km":22.279,"cumulative_distance_km":97.319,"amap_marker_url":"https://uri.amap.com/marker?position=99.181397,25.111120&name=%E7%89%A7%E7%9B%8A%E5%8A%A8%E4%BF%9D%E6%80%BB%E5%BA%97&src=vetmap&coordinate=gaode&callnative=1","route_id":"r1","route_name":"第1段"},{"name":"水生动物疫病防治站","address":"春晓巷与九龙路交叉口东80米","phone":"","category":"医疗保健服务;动物医疗场所;动物医疗场所","area":"","lng":99.171997,"lat":25.112661,"amap_id":"B0JBP96RZS","order":7,"prev_distance_km":0.962,"cumulative_distance_km":98.281,"amap_marker_url":"https://uri.amap.com/marker?position=99.171997,25.112661&name=%E6%B0%B4%E7%94%9F%E5%8A%A8%E7%89%A9%E7%96%AB%E7%97%85%E9%98%B2%E6%B2%BB%E7%AB%99&src=vetmap&coordinate=gaode&callnative=1","route_id":"r1","route_name":"第1段"},{"name":"宠物洗护专区","address":"建设路与永昌路交叉口西80米","phone":"","category":"医疗保健服务;动物医疗场所;动物医疗场所","area":"","lng":99.178064,"lat":25.119237,"amap_id":"B0LUDRC9XS","order":8,"prev_distance_km":0.953,"cumulative_distance_km":99.234,"amap_marker_url":"https://uri.amap.com/marker?position=99.178064,25.119237&name=%E5%AE%A0%E7%89%A9%E6%B4%97%E6%8A%A4%E4%B8%93%E5%8C%BA&src=vetmap&coordinate=gaode&callnative=1","route_id":"r1","route_name":"第1段"},{"name":"保山市佳航宠物医院有限公司","address":"海棠路与永昌路交叉口西120米","phone":"15198811589","category":"医疗保健服务;动物医疗场所;宠物诊所","area":"","lng":99.186938,"lat":25.132858,"amap_id":"B0J3UAYCQK","order":9,"prev_distance_km":1.758,"cumulative_distance_km":100.992,"amap_marker_url":"https://uri.amap.com/marker?position=99.186938,25.132858&name=%E4%BF%9D%E5%B1%B1%E5%B8%82%E4%BD%B3%E8%88%AA%E5%AE%A0%E7%89%A9%E5%8C%BB%E9%99%A2%E6%9C%89%E9%99%90%E5%85%AC%E5%8F%B8&src=vetmap&coordinate=gaode&callnative=1","route_id":"r1","route_name":"第1段"},{"name":"博卡宠物医院","address":"云南省保山市隆阳区兰城路304号宠物医疗疫苗注射","phone":"13577581276","category":"医疗保健服务;动物医疗场所;宠物诊所","area":"","lng":99.171225,"lat":25.120739,"amap_id":"B0FFJCXQ8P","order":10,"prev_distance_km":2.078,"cumulative_distance_km":103.07,"amap_marker_url":"https://uri.amap.com/marker?position=99.171225,25.120739&name=%E5%8D%9A%E5%8D%A1%E5%AE%A0%E7%89%A9%E5%8C%BB%E9%99%A2&src=vetmap&coordinate=gaode&callnative=1","route_id":"r1","route_name":"第1段"},{"name":"安宠动物医院","address":"永昌街道建设路杏花小区137号","phone":"15308750090","category":"医疗保健服务;动物医疗场所;宠物诊所","area":"","lng":99.163357,"lat":25.123137,"amap_id":"B0J6SU472N","order":11,"prev_distance_km":0.836,"cumulative_distance_km":103.906,"amap_marker_url":"https://uri.amap.com/marker?position=99.163357,25.123137&name=%E5%AE%89%E5%AE%A0%E5%8A%A8%E7%89%A9%E5%8C%BB%E9%99%A2&src=vetmap&coordinate=gaode&callnative=1","route_id":"r1","route_name":"第1段"},{"name":"迷宠宠医","address":"建设路15号","phone":"19987531989","category":"医疗保健服务;动物医疗场所;宠物诊所","area":"","lng":99.163289,"lat":25.12276,"amap_id":"B0FFJCTA0S","order":12,"prev_distance_km":0.042,"cumulative_distance_km":103.949,"amap_marker_url":"https://uri.amap.com/marker?position=99.163289,25.122760&name=%E8%BF%B7%E5%AE%A0%E5%AE%A0%E5%8C%BB&src=vetmap&coordinate=gaode&callnative=1","route_id":"r1","route_name":"第1段"},{"name":"富贵沙龙宠物美容(易乐上苑步行街店)","address":"易乐上苑步行街A20-09","phone":"13769061777","category":"医疗保健服务;动物医疗场所;宠物诊所","area":"","lng":99.157881,"lat":25.113717,"amap_id":"B0KKHL7FVY","order":13,"prev_distance_km":1.143,"cumulative_distance_km":105.092,"amap_marker_url":"https://uri.amap.com/marker?position=99.157881,25.113717&name=%E5%AF%8C%E8%B4%B5%E6%B2%99%E9%BE%99%E5%AE%A0%E7%89%A9%E7%BE%8E%E5%AE%B9%28%E6%98%93%E4%B9%90%E4%B8%8A%E8%8B%91%E6%AD%A5%E8%A1%8C%E8%A1%97%E5%BA%97%29&src=vetmap&coordinate=gaode&callnative=1","route_id":"r1","route_name":"第1段"},{"name":"云南省禽病科技中心保山办事处","address":"鹿鸣巷与南关街交叉口南20米","phone":"","category":"医疗保健服务;动物医疗场所;动物医疗场所","area":"","lng":99.165491,"lat":25.101695,"amap_id":"B0FFH5FQO9","order":14,"prev_distance_km":1.541,"cumulative_distance_km":106.633,"amap_marker_url":"https://uri.amap.com/marker?position=99.165491,25.101695&name=%E4%BA%91%E5%8D%97%E7%9C%81%E7%A6%BD%E7%97%85%E7%A7%91%E6%8A%80%E4%B8%AD%E5%BF%83%E4%BF%9D%E5%B1%B1%E5%8A%9E%E4%BA%8B%E5%A4%84&src=vetmap&coordinate=gaode&callnative=1","route_id":"r1","route_name":"第1段"},{"name":"康康动物医院(南关街)","address":"鹿鸣巷鹿鸣小区53号","phone":"0875-2168122;13908752874","category":"医疗保健服务;动物医疗场所;宠物诊所","area":"","lng":99.165482,"lat":25.101697,"amap_id":"B0FFHHU7OB","order":15,"prev_distance_km":0.001,"cumulative_distance_km":106.634,"amap_marker_url":"https://uri.amap.com/marker?position=99.165482,25.101697&name=%E5%BA%B7%E5%BA%B7%E5%8A%A8%E7%89%A9%E5%8C%BB%E9%99%A2%28%E5%8D%97%E5%85%B3%E8%A1%97%29&src=vetmap&coordinate=gaode&callnative=1","route_id":"r1","route_name":"第1段"},{"name":"缘宠宠物诊所","address":"小岔路小区70号","phone":"13320597272","category":"医疗保健服务;动物医疗场所;宠物诊所","area":"","lng":99.15866,"lat":25.098408,"amap_id":"B0FFLER6SK","order":16,"prev_distance_km":0.778,"cumulative_distance_km":107.412,"amap_marker_url":"https://uri.amap.com/marker?position=99.158660,25.098408&name=%E7%BC%98%E5%AE%A0%E5%AE%A0%E7%89%A9%E8%AF%8A%E6%89%80&src=vetmap&coordinate=gaode&callnative=1","route_id":"r1","route_name":"第1段"},{"name":"隆阳区畜牧兽医局蒲缥畜牧兽医工作站","address":"320国道与139乡道交叉口东460米","phone":"","category":"医疗保健服务;动物医疗场所;兽医站","area":"","lng":99.023826,"lat":25.01073,"amap_id":"B0FFLGW4OS","order":17,"prev_distance_km":16.719,"cumulative_distance_km":124.131,"amap_marker_url":"https://uri.amap.com/marker?position=99.023826,25.010730&name=%E9%9A%86%E9%98%B3%E5%8C%BA%E7%95%9C%E7%89%A7%E5%85%BD%E5%8C%BB%E5%B1%80%E8%92%B2%E7%BC%A5%E7%95%9C%E7%89%A7%E5%85%BD%E5%8C%BB%E5%B7%A5%E4%BD%9C%E7%AB%99&src=vetmap&coordinate=gaode&callnative=1","route_id":"r1","route_name":"第1段"},{"name":"隆阳区潞江镇动物检疫申报点","address":"黎山路192县","phone":"","category":"医疗保健服务;动物医疗场所;动物医疗场所","area":"","lng":98.870197,"lat":24.966072,"amap_id":"B0MBN7U23H","order":18,"prev_distance_km":16.261,"cumulative_distance_km":140.392,"amap_marker_url":"https://uri.amap.com/marker?position=98.870197,24.966072&name=%E9%9A%86%E9%98%B3%E5%8C%BA%E6%BD%9E%E6%B1%9F%E9%95%87%E5%8A%A8%E7%89%A9%E6%A3%80%E7%96%AB%E7%94%B3%E6%8A%A5%E7%82%B9&src=vetmap&coordinate=gaode&callnative=1","route_id":"r1","route_name":"第1段"}]}],"rows":[{"name":"芒宽动物医院","address":"芒宽乡畜牧兽医工作站","phone":"18288500023;18314563060","category":"医疗保健服务;动物医疗场所;宠物诊所","area":"","lng":98.866808,"lat":25.448348,"amap_id":"B0KDZCP6OC","order":1,"prev_distance_km":0.0,"cumulative_distance_km":0.0,"amap_marker_url":"https://uri.amap.com/marker?position=98.866808,25.448348&name=%E8%8A%92%E5%AE%BD%E5%8A%A8%E7%89%A9%E5%8C%BB%E9%99%A2&src=vetmap&coordinate=gaode&callnative=1","route_id":"r1","route_name":"第1段","global_order":1},{"name":"牧益动保","address":"320国道与G56杭瑞高速出口交叉口西260米","phone":"","category":"医疗保健服务;动物医疗场所;动物医疗场所","area":"","lng":99.195215,"lat":25.31337,"amap_id":"B0L0Z6DGQX","order":2,"prev_distance_km":36.246,"cumulative_distance_km":36.246,"amap_marker_url":"https://uri.amap.com/marker?position=99.195215,25.313370&name=%E7%89%A7%E7%9B%8A%E5%8A%A8%E4%BF%9D&src=vetmap&coordinate=gaode&callnative=1","route_id":"r1","route_name":"第1段","global_order":2},{"name":"隆阳区杨老师动物诊所","address":"G56杭瑞高速与S80保山绕城高速出口交叉口南300米","phone":"","category":"医疗保健服务;动物医疗场所;宠物诊所","area":"","lng":99.223015,"lat":25.219375,"amap_id":"B0FFH2JMPD","order":3,"prev_distance_km":10.819,"cumulative_distance_km":47.065,"amap_marker_url":"https://uri.amap.com/marker?position=99.223015,25.219375&name=%E9%9A%86%E9%98%B3%E5%8C%BA%E6%9D%A8%E8%80%81%E5%B8%88%E5%8A%A8%E7%89%A9%E8%AF%8A%E6%89%80&src=vetmap&coordinate=gaode&callnative=1","route_id":"r1","route_name":"第1段","global_order":3},{"name":"隆阳区畜牧兽医局丙麻畜牧兽医工作站","address":"丙麻乡县道M01丙麻客运站东北","phone":"","category":"医疗保健服务;动物医疗场所;兽医站","area":"","lng":99.373132,"lat":25.010285,"amap_id":"B0FFG0KMQT","order":4,"prev_distance_km":27.731,"cumulative_distance_km":74.796,"amap_marker_url":"https://uri.amap.com/marker?position=99.373132,25.010285&name=%E9%9A%86%E9%98%B3%E5%8C%BA%E7%95%9C%E7%89%A7%E5%85%BD%E5%8C%BB%E5%B1%80%E4%B8%99%E9%BA%BB%E7%95%9C%E7%89%A7%E5%85%BD%E5%8C%BB%E5%B7%A5%E4%BD%9C%E7%AB%99&src=vetmap&coordinate=gaode&callnative=1","route_id":"r1","route_name":"第1段","global_order":4},{"name":"隆阳区志康兽药店","address":"M01县道与066乡道交叉口南420米","phone":"","category":"医疗保健服务;动物医疗场所;动物医疗场所","area":"","lng":99.371475,"lat":25.008675,"amap_id":"B0FFG0ILBK","order":5,"prev_distance_km":0.245,"cumulative_distance_km":75.041,"amap_marker_url":"https://uri.amap.com/marker?position=99.371475,25.008675&name=%E9%9A%86%E9%98%B3%E5%8C%BA%E5%BF%97%E5%BA%B7%E5%85%BD%E8%8D%AF%E5%BA%97&src=vetmap&coordinate=gaode&callnative=1","route_id":"r1","route_name":"第1段","global_order":5},{"name":"牧益动保总店","address":"G56杭瑞高速入口与G56杭瑞高速交叉口西160米","phone":"","category":"医疗保健服务;动物医疗场所;动物医疗场所","area":"","lng":99.181397,"lat":25.11112,"amap_id":"B0JDPHG9S4","order":6,"prev_distance_km":22.279,"cumulative_distance_km":97.319,"amap_marker_url":"https://uri.amap.com/marker?position=99.181397,25.111120&name=%E7%89%A7%E7%9B%8A%E5%8A%A8%E4%BF%9D%E6%80%BB%E5%BA%97&src=vetmap&coordinate=gaode&callnative=1","route_id":"r1","route_name":"第1段","global_order":6},{"name":"水生动物疫病防治站","address":"春晓巷与九龙路交叉口东80米","phone":"","category":"医疗保健服务;动物医疗场所;动物医疗场所","area":"","lng":99.171997,"lat":25.112661,"amap_id":"B0JBP96RZS","order":7,"prev_distance_km":0.962,"cumulative_distance_km":98.281,"amap_marker_url":"https://uri.amap.com/marker?position=99.171997,25.112661&name=%E6%B0%B4%E7%94%9F%E5%8A%A8%E7%89%A9%E7%96%AB%E7%97%85%E9%98%B2%E6%B2%BB%E7%AB%99&src=vetmap&coordinate=gaode&callnative=1","route_id":"r1","route_name":"第1段","global_order":7},{"name":"宠物洗护专区","address":"建设路与永昌路交叉口西80米","phone":"","category":"医疗保健服务;动物医疗场所;动物医疗场所","area":"","lng":99.178064,"lat":25.119237,"amap_id":"B0LUDRC9XS","order":8,"prev_distance_km":0.953,"cumulative_distance_km":99.234,"amap_marker_url":"https://uri.amap.com/marker?position=99.178064,25.119237&name=%E5%AE%A0%E7%89%A9%E6%B4%97%E6%8A%A4%E4%B8%93%E5%8C%BA&src=vetmap&coordinate=gaode&callnative=1","route_id":"r1","route_name":"第1段","global_order":8},{"name":"保山市佳航宠物医院有限公司","address":"海棠路与永昌路交叉口西120米","phone":"15198811589","category":"医疗保健服务;动物医疗场所;宠物诊所","area":"","lng":99.186938,"lat":25.132858,"amap_id":"B0J3UAYCQK","order":9,"prev_distance_km":1.758,"cumulative_distance_km":100.992,"amap_marker_url":"https://uri.amap.com/marker?position=99.186938,25.132858&name=%E4%BF%9D%E5%B1%B1%E5%B8%82%E4%BD%B3%E8%88%AA%E5%AE%A0%E7%89%A9%E5%8C%BB%E9%99%A2%E6%9C%89%E9%99%90%E5%85%AC%E5%8F%B8&src=vetmap&coordinate=gaode&callnative=1","route_id":"r1","route_name":"第1段","global_order":9},{"name":"博卡宠物医院","address":"云南省保山市隆阳区兰城路304号宠物医疗疫苗注射","phone":"13577581276","category":"医疗保健服务;动物医疗场所;宠物诊所","area":"","lng":99.171225,"lat":25.120739,"amap_id":"B0FFJCXQ8P","order":10,"prev_distance_km":2.078,"cumulative_distance_km":103.07,"amap_marker_url":"https://uri.amap.com/marker?position=99.171225,25.120739&name=%E5%8D%9A%E5%8D%A1%E5%AE%A0%E7%89%A9%E5%8C%BB%E9%99%A2&src=vetmap&coordinate=gaode&callnative=1","route_id":"r1","route_name":"第1段","global_order":10},{"name":"安宠动物医院","address":"永昌街道建设路杏花小区137号","phone":"15308750090","category":"医疗保健服务;动物医疗场所;宠物诊所","area":"","lng":99.163357,"lat":25.123137,"amap_id":"B0J6SU472N","order":11,"prev_distance_km":0.836,"cumulative_distance_km":103.906,"amap_marker_url":"https://uri.amap.com/marker?position=99.163357,25.123137&name=%E5%AE%89%E5%AE%A0%E5%8A%A8%E7%89%A9%E5%8C%BB%E9%99%A2&src=vetmap&coordinate=gaode&callnative=1","route_id":"r1","route_name":"第1段","global_order":11},{"name":"迷宠宠医","address":"建设路15号","phone":"19987531989","category":"医疗保健服务;动物医疗场所;宠物诊所","area":"","lng":99.163289,"lat":25.12276,"amap_id":"B0FFJCTA0S","order":12,"prev_distance_km":0.042,"cumulative_distance_km":103.949,"amap_marker_url":"https://uri.amap.com/marker?position=99.163289,25.122760&name=%E8%BF%B7%E5%AE%A0%E5%AE%A0%E5%8C%BB&src=vetmap&coordinate=gaode&callnative=1","route_id":"r1","route_name":"第1段","global_order":12},{"name":"富贵沙龙宠物美容(易乐上苑步行街店)","address":"易乐上苑步行街A20-09","phone":"13769061777","category":"医疗保健服务;动物医疗场所;宠物诊所","area":"","lng":99.157881,"lat":25.113717,"amap_id":"B0KKHL7FVY","order":13,"prev_distance_km":1.143,"cumulative_distance_km":105.092,"amap_marker_url":"https://uri.amap.com/marker?position=99.157881,25.113717&name=%E5%AF%8C%E8%B4%B5%E6%B2%99%E9%BE%99%E5%AE%A0%E7%89%A9%E7%BE%8E%E5%AE%B9%28%E6%98%93%E4%B9%90%E4%B8%8A%E8%8B%91%E6%AD%A5%E8%A1%8C%E8%A1%97%E5%BA%97%29&src=vetmap&coordinate=gaode&callnative=1","route_id":"r1","route_name":"第1段","global_order":13},{"name":"云南省禽病科技中心保山办事处","address":"鹿鸣巷与南关街交叉口南20米","phone":"","category":"医疗保健服务;动物医疗场所;动物医疗场所","area":"","lng":99.165491,"lat":25.101695,"amap_id":"B0FFH5FQO9","order":14,"prev_distance_km":1.541,"cumulative_distance_km":106.633,"amap_marker_url":"https://uri.amap.com/marker?position=99.165491,25.101695&name=%E4%BA%91%E5%8D%97%E7%9C%81%E7%A6%BD%E7%97%85%E7%A7%91%E6%8A%80%E4%B8%AD%E5%BF%83%E4%BF%9D%E5%B1%B1%E5%8A%9E%E4%BA%8B%E5%A4%84&src=vetmap&coordinate=gaode&callnative=1","route_id":"r1","route_name":"第1段","global_order":14},{"name":"康康动物医院(南关街)","address":"鹿鸣巷鹿鸣小区53号","phone":"0875-2168122;13908752874","category":"医疗保健服务;动物医疗场所;宠物诊所","area":"","lng":99.165482,"lat":25.101697,"amap_id":"B0FFHHU7OB","order":15,"prev_distance_km":0.001,"cumulative_distance_km":106.634,"amap_marker_url":"https://uri.amap.com/marker?position=99.165482,25.101697&name=%E5%BA%B7%E5%BA%B7%E5%8A%A8%E7%89%A9%E5%8C%BB%E9%99%A2%28%E5%8D%97%E5%85%B3%E8%A1%97%29&src=vetmap&coordinate=gaode&callnative=1","route_id":"r1","route_name":"第1段","global_order":15},{"name":"缘宠宠物诊所","address":"小岔路小区70号","phone":"13320597272","category":"医疗保健服务;动物医疗场所;宠物诊所","area":"","lng":99.15866,"lat":25.098408,"amap_id":"B0FFLER6SK","order":16,"prev_distance_km":0.778,"cumulative_distance_km":107.412,"amap_marker_url":"https://uri.amap.com/marker?position=99.158660,25.098408&name=%E7%BC%98%E5%AE%A0%E5%AE%A0%E7%89%A9%E8%AF%8A%E6%89%80&src=vetmap&coordinate=gaode&callnative=1","route_id":"r1","route_name":"第1段","global_order":16},{"name":"隆阳区畜牧兽医局蒲缥畜牧兽医工作站","address":"320国道与139乡道交叉口东460米","phone":"","category":"医疗保健服务;动物医疗场所;兽医站","area":"","lng":99.023826,"lat":25.01073,"amap_id":"B0FFLGW4OS","order":17,"prev_distance_km":16.719,"cumulative_distance_km":124.131,"amap_marker_url":"https://uri.amap.com/marker?position=99.023826,25.010730&name=%E9%9A%86%E9%98%B3%E5%8C%BA%E7%95%9C%E7%89%A7%E5%85%BD%E5%8C%BB%E5%B1%80%E8%92%B2%E7%BC%A5%E7%95%9C%E7%89%A7%E5%85%BD%E5%8C%BB%E5%B7%A5%E4%BD%9C%E7%AB%99&src=vetmap&coordinate=gaode&callnative=1","route_id":"r1","route_name":"第1段","global_order":17},{"name":"隆阳区潞江镇动物检疫申报点","address":"黎山路192县","phone":"","category":"医疗保健服务;动物医疗场所;动物医疗场所","area":"","lng":98.870197,"lat":24.966072,"amap_id":"B0MBN7U23H","order":18,"prev_distance_km":16.261,"cumulative_distance_km":140.392,"amap_marker_url":"https://uri.amap.com/marker?position=98.870197,24.966072&name=%E9%9A%86%E9%98%B3%E5%8C%BA%E6%BD%9E%E6%B1%9F%E9%95%87%E5%8A%A8%E7%89%A9%E6%A3%80%E7%96%AB%E7%94%B3%E6%8A%A5%E7%82%B9&src=vetmap&coordinate=gaode&callnative=1","route_id":"r1","route_name":"第1段","global_order":18}]}