{"summary":{"id":"d01933","province":"云南省","city":"文山壮族苗族自治州","district":"文山市","count":16,"total_distance_km":15.292,"coordinate_system":"GCJ-02 / Amap","generated_at":"2026-05-07 20:21:06"},"rows":[{"name":"文山壮族苗族自治州桥智宠物医院","address":"腾龙北路与团田路交叉口南280米","phone":"","category":"医疗保健服务;动物医疗场所;宠物诊所","area":"","lng":104.260675,"lat":23.337775,"amap_id":"B0K1R5DPNI","order":1,"prev_distance_km":0.0,"cumulative_distance_km":0.0,"amap_marker_url":"https://uri.amap.com/marker?position=104.260675,23.337775&name=%E6%96%87%E5%B1%B1%E5%A3%AE%E6%97%8F%E8%8B%97%E6%97%8F%E8%87%AA%E6%B2%BB%E5%B7%9E%E6%A1%A5%E6%99%BA%E5%AE%A0%E7%89%A9%E5%8C%BB%E9%99%A2&src=vetmap&coordinate=gaode&callnative=1"},{"name":"文山桥智宠物医院","address":"腾龙北路与团田路交叉口西北180米","phone":"","category":"医疗保健服务;动物医疗场所;宠物诊所","area":"","lng":104.258775,"lat":23.340875,"amap_id":"B0MBPC1O3Y","order":2,"prev_distance_km":0.396,"cumulative_distance_km":0.396,"amap_marker_url":"https://uri.amap.com/marker?position=104.258775,23.340875&name=%E6%96%87%E5%B1%B1%E6%A1%A5%E6%99%BA%E5%AE%A0%E7%89%A9%E5%8C%BB%E9%99%A2&src=vetmap&coordinate=gaode&callnative=1"},{"name":"文山市齐欣兽药动物保健中心","address":"新平街道泰康东路泰康小区十一组团H4号","phone":"0876-8881158","category":"医疗保健服务;动物医疗场所;动物医疗场所","area":"新平","lng":104.270665,"lat":23.357961,"amap_id":"B0FFFRKIN9","order":3,"prev_distance_km":2.255,"cumulative_distance_km":2.65,"amap_marker_url":"https://uri.amap.com/marker?position=104.270665,23.357961&name=%E6%96%87%E5%B1%B1%E5%B8%82%E9%BD%90%E6%AC%A3%E5%85%BD%E8%8D%AF%E5%8A%A8%E7%89%A9%E4%BF%9D%E5%81%A5%E4%B8%AD%E5%BF%83&src=vetmap&coordinate=gaode&callnative=1"},{"name":"明天红畜牧兽医科技","address":"下沙坝农贸市场东南门42号商铺","phone":"13887606213","category":"医疗保健服务;动物医疗场所;兽医站","area":"开化","lng":104.260562,"lat":23.363698,"amap_id":"B0M6BZG28C","order":4,"prev_distance_km":1.213,"cumulative_distance_km":3.863,"amap_marker_url":"https://uri.amap.com/marker?position=104.260562,23.363698&name=%E6%98%8E%E5%A4%A9%E7%BA%A2%E7%95%9C%E7%89%A7%E5%85%BD%E5%8C%BB%E7%A7%91%E6%8A%80&src=vetmap&coordinate=gaode&callnative=1"},{"name":"文山市兴牧动物诊所","address":"开化街道东沙路19号","phone":"13658768645","category":"医疗保健服务;动物医疗场所;宠物诊所|医疗保健服务;动物医疗场所;兽医站","area":"开化","lng":104.258002,"lat":23.364017,"amap_id":"B0FFHISYSH","order":5,"prev_distance_km":0.264,"cumulative_distance_km":4.126,"amap_marker_url":"https://uri.amap.com/marker?position=104.258002,23.364017&name=%E6%96%87%E5%B1%B1%E5%B8%82%E5%85%B4%E7%89%A7%E5%8A%A8%E7%89%A9%E8%AF%8A%E6%89%80&src=vetmap&coordinate=gaode&callnative=1"},{"name":"云农动物医院文山诊疗点","address":"文华路与沿河路交叉口西北约60米","phone":"","category":"医疗保健服务;动物医疗场所;宠物诊所","area":"下沙坝","lng":104.256134,"lat":23.360028,"amap_id":"B0H1X96W71","order":6,"prev_distance_km":0.483,"cumulative_distance_km":4.609,"amap_marker_url":"https://uri.amap.com/marker?position=104.256134,23.360028&name=%E4%BA%91%E5%86%9C%E5%8A%A8%E7%89%A9%E5%8C%BB%E9%99%A2%E6%96%87%E5%B1%B1%E8%AF%8A%E7%96%97%E7%82%B9&src=vetmap&coordinate=gaode&callnative=1"},{"name":"云南宠儿康动物医院(文山总院)","address":"学府商业街2-126","phone":"0876-2667181","category":"医疗保健服务;动物医疗场所;宠物诊所","area":"城南","lng":104.250852,"lat":23.35307,"amap_id":"B0K1OH4RGZ","order":7,"prev_distance_km":0.943,"cumulative_distance_km":5.552,"amap_marker_url":"https://uri.amap.com/marker?position=104.250852,23.353070&name=%E4%BA%91%E5%8D%97%E5%AE%A0%E5%84%BF%E5%BA%B7%E5%8A%A8%E7%89%A9%E5%8C%BB%E9%99%A2%28%E6%96%87%E5%B1%B1%E6%80%BB%E9%99%A2%29&src=vetmap&coordinate=gaode&callnative=1"},{"name":"文山关爱宠物医院·急重症转诊中心","address":"西山路527号","phone":"0876-2626398;18388665551","category":"医疗保健服务;动物医疗场所;宠物诊所","area":"开化","lng":104.241975,"lat":23.361475,"amap_id":"B0L1UB21R3","order":8,"prev_distance_km":1.302,"cumulative_distance_km":6.854,"amap_marker_url":"https://uri.amap.com/marker?position=104.241975,23.361475&name=%E6%96%87%E5%B1%B1%E5%85%B3%E7%88%B1%E5%AE%A0%E7%89%A9%E5%8C%BB%E9%99%A2%C2%B7%E6%80%A5%E9%87%8D%E7%97%87%E8%BD%AC%E8%AF%8A%E4%B8%AD%E5%BF%83&src=vetmap&coordinate=gaode&callnative=1"},{"name":"贝康宠物诊所","address":"开化街道普新路66号","phone":"18308761126","category":"医疗保健服务;动物医疗场所;宠物诊所","area":"开化","lng":104.244101,"lat":23.374901,"amap_id":"B0I017VA2F","order":9,"prev_distance_km":1.509,"cumulative_distance_km":8.363,"amap_marker_url":"https://uri.amap.com/marker?position=104.244101,23.374901&name=%E8%B4%9D%E5%BA%B7%E5%AE%A0%E7%89%A9%E8%AF%8A%E6%89%80&src=vetmap&coordinate=gaode&callnative=1"},{"name":"文山市派特宠物诊所","address":"七花南路162号","phone":"15126840930","category":"医疗保健服务;动物医疗场所;宠物诊所","area":"","lng":104.239825,"lat":23.381346,"amap_id":"B0KG7ASH7R","order":10,"prev_distance_km":0.839,"cumulative_distance_km":9.202,"amap_marker_url":"https://uri.amap.com/marker?position=104.239825,23.381346&name=%E6%96%87%E5%B1%B1%E5%B8%82%E6%B4%BE%E7%89%B9%E5%AE%A0%E7%89%A9%E8%AF%8A%E6%89%80&src=vetmap&coordinate=gaode&callnative=1"},{"name":"艾吉宠物","address":"七花北路19号","phone":"18087611738","category":"医疗保健服务;动物医疗场所;动物医疗场所","area":"","lng":104.231594,"lat":23.378832,"amap_id":"B0L3PSFUCG","order":11,"prev_distance_km":0.885,"cumulative_distance_km":10.087,"amap_marker_url":"https://uri.amap.com/marker?position=104.231594,23.378832&name=%E8%89%BE%E5%90%89%E5%AE%A0%E7%89%A9&src=vetmap&coordinate=gaode&callnative=1"},{"name":"众治动物医院","address":"七花北路16号","phone":"18314552120;18387614092","category":"医疗保健服务;动物医疗场所;宠物诊所","area":"","lng":104.230188,"lat":23.379697,"amap_id":"B0FFJ2AVU3","order":12,"prev_distance_km":0.173,"cumulative_distance_km":10.26,"amap_marker_url":"https://uri.amap.com/marker?position=104.230188,23.379697&name=%E4%BC%97%E6%B2%BB%E5%8A%A8%E7%89%A9%E5%8C%BB%E9%99%A2&src=vetmap&coordinate=gaode&callnative=1"},{"name":"桥智宠物诊所","address":"卧龙街道龙海路华宇时代商铺C3-03","phone":"13759520028","category":"医疗保健服务;动物医疗场所;宠物诊所","area":"环北三路","lng":104.228597,"lat":23.381504,"amap_id":"B0FFGWYDA0","order":13,"prev_distance_km":0.258,"cumulative_distance_km":10.518,"amap_marker_url":"https://uri.amap.com/marker?position=104.228597,23.381504&name=%E6%A1%A5%E6%99%BA%E5%AE%A0%E7%89%A9%E8%AF%8A%E6%89%80&src=vetmap&coordinate=gaode&callnative=1"},{"name":"宠佑宠物医院","address":"金石路明德郡园9-1铺面","phone":"13150785638;13658765333","category":"医疗保健服务;动物医疗场所;宠物诊所","area":"","lng":104.228475,"lat":23.387075,"amap_id":"B0LRY5WFCT","order":14,"prev_distance_km":0.62,"cumulative_distance_km":11.138,"amap_marker_url":"https://uri.amap.com/marker?position=104.228475,23.387075&name=%E5%AE%A0%E4%BD%91%E5%AE%A0%E7%89%A9%E5%8C%BB%E9%99%A2&src=vetmap&coordinate=gaode&callnative=1"},{"name":"文山关爱宠物医院(御博园店)","address":"卧龙街道中天世纪御博园f7-04号商铺","phone":"15987530080","category":"医疗保健服务;动物医疗场所;宠物诊所","area":"","lng":104.228277,"lat":23.399727,"amap_id":"B0KUL77ZEN","order":15,"prev_distance_km":1.407,"cumulative_distance_km":12.545,"amap_marker_url":"https://uri.amap.com/marker?position=104.228277,23.399727&name=%E6%96%87%E5%B1%B1%E5%85%B3%E7%88%B1%E5%AE%A0%E7%89%A9%E5%8C%BB%E9%99%A2%28%E5%BE%A1%E5%8D%9A%E5%9B%AD%E5%BA%97%29&src=vetmap&coordinate=gaode&callnative=1"},{"name":"狗狗120宠物诊室","address":"田心寨左侧100米","phone":"13887630756;13887688079","category":"医疗保健服务;动物医疗场所;宠物诊所","area":"","lng":104.213213,"lat":23.379248,"amap_id":"B0H1UZWIWJ","order":16,"prev_distance_km":2.748,"cumulative_distance_km":15.292,"amap_marker_url":"https://uri.amap.com/marker?position=104.213213,23.379248&name=%E7%8B%97%E7%8B%97120%E5%AE%A0%E7%89%A9%E8%AF%8A%E5%AE%A4&src=vetmap&coordinate=gaode&callnative=1"}]}