{"summary":{"id":"d01939","province":"云南省","city":"昆明市","district":"安宁市","count":18,"total_distance_km":25.162,"coordinate_system":"GCJ-02 / Amap","generated_at":"2026-05-07 20:21:07"},"rows":[{"name":"恒宠动物医院","address":"新城街道万辉星城A区街墅A9-10号","phone":"13698789860;13888210619","category":"医疗保健服务;动物医疗场所;宠物诊所","area":"","lng":102.588107,"lat":24.932672,"amap_id":"B0H33UTS77","order":1,"prev_distance_km":0.0,"cumulative_distance_km":0.0,"amap_marker_url":"https://uri.amap.com/marker?position=102.588107,24.932672&name=%E6%81%92%E5%AE%A0%E5%8A%A8%E7%89%A9%E5%8C%BB%E9%99%A2&src=vetmap&coordinate=gaode&callnative=1"},{"name":"家家宠物医疗中心","address":"太平新城街道万辉星城蓝山郡B44号","phone":"0871-68696138;13312555360;18088148190","category":"医疗保健服务;动物医疗场所;宠物诊所","area":"","lng":102.586469,"lat":24.924488,"amap_id":"B0JB6CJYUB","order":2,"prev_distance_km":0.925,"cumulative_distance_km":0.925,"amap_marker_url":"https://uri.amap.com/marker?position=102.586469,24.924488&name=%E5%AE%B6%E5%AE%B6%E5%AE%A0%E7%89%A9%E5%8C%BB%E7%96%97%E4%B8%AD%E5%BF%83&src=vetmap&coordinate=gaode&callnative=1"},{"name":"云农亚华动物医院","address":"太兴路龙旺瑞城溪景苑4栋号","phone":"13888759629","category":"医疗保健服务;动物医疗场所;宠物诊所","area":"","lng":102.563737,"lat":24.914644,"amap_id":"B0IKAZOVMI","order":3,"prev_distance_km":2.54,"cumulative_distance_km":3.465,"amap_marker_url":"https://uri.amap.com/marker?position=102.563737,24.914644&name=%E4%BA%91%E5%86%9C%E4%BA%9A%E5%8D%8E%E5%8A%A8%E7%89%A9%E5%8C%BB%E9%99%A2&src=vetmap&coordinate=gaode&callnative=1"},{"name":"宠佳动物诊所","address":"恒大金碧天下商业中心","phone":"","category":"医疗保健服务;动物医疗场所;宠物诊所","area":"","lng":102.578723,"lat":24.880254,"amap_id":"B0HDRMSINI","order":4,"prev_distance_km":4.112,"cumulative_distance_km":7.577,"amap_marker_url":"https://uri.amap.com/marker?position=102.578723,24.880254&name=%E5%AE%A0%E4%BD%B3%E5%8A%A8%E7%89%A9%E8%AF%8A%E6%89%80&src=vetmap&coordinate=gaode&callnative=1"},{"name":"伴侣动物医院(向阳坡店)","address":"向阳路15号","phone":"13888272653;15969532221","category":"医疗保健服务;动物医疗场所;宠物诊所","area":"","lng":102.501962,"lat":24.892815,"amap_id":"B03670VUHD","order":5,"prev_distance_km":7.868,"cumulative_distance_km":15.445,"amap_marker_url":"https://uri.amap.com/marker?position=102.501962,24.892815&name=%E4%BC%B4%E4%BE%A3%E5%8A%A8%E7%89%A9%E5%8C%BB%E9%99%A2%28%E5%90%91%E9%98%B3%E5%9D%A1%E5%BA%97%29&src=vetmap&coordinate=gaode&callnative=1"},{"name":"圣爱宠物诊所","address":"昆钢建设西路50号","phone":"13668791726;13888785249","category":"医疗保健服务;动物医疗场所;宠物诊所","area":"","lng":102.497375,"lat":24.889489,"amap_id":"B0JBXMVRTY","order":6,"prev_distance_km":0.592,"cumulative_distance_km":16.037,"amap_marker_url":"https://uri.amap.com/marker?position=102.497375,24.889489&name=%E5%9C%A3%E7%88%B1%E5%AE%A0%E7%89%A9%E8%AF%8A%E6%89%80&src=vetmap&coordinate=gaode&callnative=1"},{"name":"原望湖宠物诊所","address":"蓝天城A区北门旁","phone":"","category":"医疗保健服务;动物医疗场所;宠物诊所","area":"","lng":102.494535,"lat":24.895961,"amap_id":"B0J1YSK9PV","order":7,"prev_distance_km":0.775,"cumulative_distance_km":16.812,"amap_marker_url":"https://uri.amap.com/marker?position=102.494535,24.895961&name=%E5%8E%9F%E6%9C%9B%E6%B9%96%E5%AE%A0%E7%89%A9%E8%AF%8A%E6%89%80&src=vetmap&coordinate=gaode&callnative=1"},{"name":"安宁宁华动物诊所","address":"蓝天城A区北门旁","phone":"","category":"医疗保健服务;动物医疗场所;宠物诊所","area":"","lng":102.494535,"lat":24.895961,"amap_id":"B0K6H5FNZB","order":8,"prev_distance_km":0.0,"cumulative_distance_km":16.812,"amap_marker_url":"https://uri.amap.com/marker?position=102.494535,24.895961&name=%E5%AE%89%E5%AE%81%E5%AE%81%E5%8D%8E%E5%8A%A8%E7%89%A9%E8%AF%8A%E6%89%80&src=vetmap&coordinate=gaode&callnative=1"},{"name":"安宁益宠动物诊所","address":"昆钢新东区19栋一楼商铺","phone":"0871-68688490;18388452275","category":"医疗保健服务;动物医疗场所;宠物诊所","area":"","lng":102.49612,"lat":24.90172,"amap_id":"B0FFMGDWCJ","order":9,"prev_distance_km":0.66,"cumulative_distance_km":17.472,"amap_marker_url":"https://uri.amap.com/marker?position=102.496120,24.901720&name=%E5%AE%89%E5%AE%81%E7%9B%8A%E5%AE%A0%E5%8A%A8%E7%89%A9%E8%AF%8A%E6%89%80&src=vetmap&coordinate=gaode&callnative=1"},{"name":"晟兴宠物诊所","address":"云堤苑7-4商铺","phone":"18082704909","category":"医疗保健服务;动物医疗场所;宠物诊所","area":"","lng":102.467468,"lat":24.905323,"amap_id":"B0I1LSJCYX","order":10,"prev_distance_km":2.917,"cumulative_distance_km":20.389,"amap_marker_url":"https://uri.amap.com/marker?position=102.467468,24.905323&name=%E6%99%9F%E5%85%B4%E5%AE%A0%E7%89%A9%E8%AF%8A%E6%89%80&src=vetmap&coordinate=gaode&callnative=1"},{"name":"旺康宠物医院安宁分院","address":"珍泉路中央华冠B20-21号商铺","phone":"13529365424;13759514103","category":"医疗保健服务;动物医疗场所;宠物诊所","area":"连然","lng":102.468092,"lat":24.913862,"amap_id":"B0FFHIGZHA","order":11,"prev_distance_km":0.952,"cumulative_distance_km":21.341,"amap_marker_url":"https://uri.amap.com/marker?position=102.468092,24.913862&name=%E6%97%BA%E5%BA%B7%E5%AE%A0%E7%89%A9%E5%8C%BB%E9%99%A2%E5%AE%89%E5%AE%81%E5%88%86%E9%99%A2&src=vetmap&coordinate=gaode&callnative=1"},{"name":"玖宠动物诊所","address":"金色国际东门南50米","phone":"15559688848","category":"医疗保健服务;动物医疗场所;宠物诊所","area":"连然","lng":102.467595,"lat":24.915738,"amap_id":"B0ID6YWWI1","order":12,"prev_distance_km":0.215,"cumulative_distance_km":21.555,"amap_marker_url":"https://uri.amap.com/marker?position=102.467595,24.915738&name=%E7%8E%96%E5%AE%A0%E5%8A%A8%E7%89%A9%E8%AF%8A%E6%89%80&src=vetmap&coordinate=gaode&callnative=1"},{"name":"安宠动物诊所","address":"高翔金色国际","phone":"0871-68666902;15559688848","category":"医疗保健服务;动物医疗场所;宠物诊所","area":"连然","lng":102.467688,"lat":24.91574,"amap_id":"B0FFIXFVB3","order":13,"prev_distance_km":0.009,"cumulative_distance_km":21.565,"amap_marker_url":"https://uri.amap.com/marker?position=102.467688,24.915740&name=%E5%AE%89%E5%AE%A0%E5%8A%A8%E7%89%A9%E8%AF%8A%E6%89%80&src=vetmap&coordinate=gaode&callnative=1"},{"name":"爱侣动物诊所(安宁分院)","address":"珍泉路26号","phone":"13648882717","category":"医疗保健服务;动物医疗场所;宠物诊所","area":"连然","lng":102.478924,"lat":24.915131,"amap_id":"B0FFIKAI9K","order":14,"prev_distance_km":1.135,"cumulative_distance_km":22.7,"amap_marker_url":"https://uri.amap.com/marker?position=102.478924,24.915131&name=%E7%88%B1%E4%BE%A3%E5%8A%A8%E7%89%A9%E8%AF%8A%E6%89%80%28%E5%AE%89%E5%AE%81%E5%88%86%E9%99%A2%29&src=vetmap&coordinate=gaode&callnative=1"},{"name":"三叶草动物医院","address":"昆畹中路与福兴路交叉口西南100米","phone":"19988166732","category":"医疗保健服务;动物医疗场所;宠物诊所","area":"连然","lng":102.482574,"lat":24.924156,"amap_id":"B0LAUH015X","order":15,"prev_distance_km":1.069,"cumulative_distance_km":23.769,"amap_marker_url":"https://uri.amap.com/marker?position=102.482574,24.924156&name=%E4%B8%89%E5%8F%B6%E8%8D%89%E5%8A%A8%E7%89%A9%E5%8C%BB%E9%99%A2&src=vetmap&coordinate=gaode&callnative=1"},{"name":"博禧动物医院","address":"福悦路与福兴路交叉口北120米","phone":"","category":"医疗保健服务;动物医疗场所;宠物诊所","area":"连然","lng":102.482325,"lat":24.925975,"amap_id":"B0LAT76W5J","order":16,"prev_distance_km":0.204,"cumulative_distance_km":23.973,"amap_marker_url":"https://uri.amap.com/marker?position=102.482325,24.925975&name=%E5%8D%9A%E7%A6%A7%E5%8A%A8%E7%89%A9%E5%8C%BB%E9%99%A2&src=vetmap&coordinate=gaode&callnative=1"},{"name":"福熙宠物医院","address":"沿川北路31号","phone":"17278526804","category":"医疗保健服务;动物医疗场所;宠物诊所","area":"连然","lng":102.487794,"lat":24.931932,"amap_id":"B0K2JR97UA","order":17,"prev_distance_km":0.862,"cumulative_distance_km":24.834,"amap_marker_url":"https://uri.amap.com/marker?position=102.487794,24.931932&name=%E7%A6%8F%E7%86%99%E5%AE%A0%E7%89%A9%E5%8C%BB%E9%99%A2&src=vetmap&coordinate=gaode&callnative=1"},{"name":"安宁向荣动物门诊部","address":"嵩华路与嵩华巷交叉口西北240米","phone":"13378800049","category":"医疗保健服务;动物医疗场所;宠物诊所","area":"连然","lng":102.485118,"lat":24.93361,"amap_id":"B0JGRZ2PIE","order":18,"prev_distance_km":0.328,"cumulative_distance_km":25.162,"amap_marker_url":"https://uri.amap.com/marker?position=102.485118,24.933610&name=%E5%AE%89%E5%AE%81%E5%90%91%E8%8D%A3%E5%8A%A8%E7%89%A9%E9%97%A8%E8%AF%8A%E9%83%A8&src=vetmap&coordinate=gaode&callnative=1"}]}