{"summary":{"id":"d01937","province":"云南省","city":"昆明市","district":"五华区","count":67,"total_distance_km":63.867,"coordinate_system":"GCJ-02 / Amap","generated_at":"2026-05-07 20:21:06"},"rows":[{"name":"良宠宠物服务部","address":"红旗小学教育集团西翥二小龙庆校区西北侧240米","phone":"","category":"医疗保健服务;动物医疗场所;宠物诊所","area":"","lng":102.609861,"lat":25.165507,"amap_id":"B0LGF5RH0C","order":1,"prev_distance_km":0.0,"cumulative_distance_km":0.0,"amap_marker_url":"https://uri.amap.com/marker?position=102.609861,25.165507&name=%E8%89%AF%E5%AE%A0%E5%AE%A0%E7%89%A9%E6%9C%8D%E5%8A%A1%E9%83%A8&src=vetmap&coordinate=gaode&callnative=1"},{"name":"忠爱动物医院(上悦天地店)","address":"上悦天地云阔苑5栋1-2层S113-114号商铺","phone":"17787252380;17787252850;18183891246","category":"医疗保健服务;动物医疗场所;宠物诊所","area":"","lng":102.660968,"lat":25.095648,"amap_id":"B0IGKHJRYN","order":2,"prev_distance_km":9.317,"cumulative_distance_km":9.317,"amap_marker_url":"https://uri.amap.com/marker?position=102.660968,25.095648&name=%E5%BF%A0%E7%88%B1%E5%8A%A8%E7%89%A9%E5%8C%BB%E9%99%A2%28%E4%B8%8A%E6%82%A6%E5%A4%A9%E5%9C%B0%E5%BA%97%29&src=vetmap&coordinate=gaode&callnative=1"},{"name":"凯维动物医院【24小时急诊】","address":"吾悦华府2-5号商铺","phone":"15368224348;15368225247","category":"医疗保健服务;动物医疗场所;宠物诊所","area":"","lng":102.660425,"lat":25.090175,"amap_id":"B0H0KHNDUX","order":3,"prev_distance_km":0.611,"cumulative_distance_km":9.928,"amap_marker_url":"https://uri.amap.com/marker?position=102.660425,25.090175&name=%E5%87%AF%E7%BB%B4%E5%8A%A8%E7%89%A9%E5%8C%BB%E9%99%A2%E3%80%9024%E5%B0%8F%E6%97%B6%E6%80%A5%E8%AF%8A%E3%80%91&src=vetmap&coordinate=gaode&callnative=1"},{"name":"666动物医院(乐宠家五华吾悦分院)","address":"联想科技城·云熙苑东北门西190米","phone":"0871-63527792;13888072925","category":"医疗保健服务;动物医疗场所;宠物诊所","area":"","lng":102.659118,"lat":25.086119,"amap_id":"B0KGTUBG5B","order":4,"prev_distance_km":0.47,"cumulative_distance_km":10.398,"amap_marker_url":"https://uri.amap.com/marker?position=102.659118,25.086119&name=666%E5%8A%A8%E7%89%A9%E5%8C%BB%E9%99%A2%28%E4%B9%90%E5%AE%A0%E5%AE%B6%E4%BA%94%E5%8D%8E%E5%90%BE%E6%82%A6%E5%88%86%E9%99%A2%29&src=vetmap&coordinate=gaode&callnative=1"},{"name":"大成宠物医院·CT·核磁·肿瘤专科·异宠肿瘤中心(联想总院)","address":"国家高新技术产业开发区联想科技城一期S2幢8号商铺","phone":"0871-68258686;18184817585","category":"医疗保健服务;动物医疗场所;宠物诊所","area":"","lng":102.658551,"lat":25.084251,"amap_id":"B0FFHHLRTF","order":5,"prev_distance_km":0.215,"cumulative_distance_km":10.614,"amap_marker_url":"https://uri.amap.com/marker?position=102.658551,25.084251&name=%E5%A4%A7%E6%88%90%E5%AE%A0%E7%89%A9%E5%8C%BB%E9%99%A2%C2%B7CT%C2%B7%E6%A0%B8%E7%A3%81%C2%B7%E8%82%BF%E7%98%A4%E4%B8%93%E7%A7%91%C2%B7%E5%BC%82%E5%AE%A0%E8%82%BF%E7%98%A4%E4%B8%AD%E5%BF%83%28%E8%81%94%E6%83%B3%E6%80%BB%E9%99%A2%29&src=vetmap&coordinate=gaode&callnative=1"},{"name":"咪狗屋宠物诊所","address":"大塘路与科普路交叉口融创海豚湾社区12号楼118号商铺","phone":"13628788744","category":"医疗保健服务;动物医疗场所;宠物诊所","area":"","lng":102.6625,"lat":25.080141,"amap_id":"B0HK3DLD67","order":6,"prev_distance_km":0.606,"cumulative_distance_km":11.219,"amap_marker_url":"https://uri.amap.com/marker?position=102.662500,25.080141&name=%E5%92%AA%E7%8B%97%E5%B1%8B%E5%AE%A0%E7%89%A9%E8%AF%8A%E6%89%80&src=vetmap&coordinate=gaode&callnative=1"},{"name":"唯宠你宠物大药房","address":"黑林铺街道海屯路恒大名都东区A2地块2-1栋131号","phone":"15559890983;19987734981","category":"医疗保健服务;动物医疗场所;动物医疗场所","area":"","lng":102.659897,"lat":25.077697,"amap_id":"B0M65CJZHD","order":7,"prev_distance_km":0.378,"cumulative_distance_km":11.597,"amap_marker_url":"https://uri.amap.com/marker?position=102.659897,25.077697&name=%E5%94%AF%E5%AE%A0%E4%BD%A0%E5%AE%A0%E7%89%A9%E5%A4%A7%E8%8D%AF%E6%88%BF&src=vetmap&coordinate=gaode&callnative=1"},{"name":"欣悦宠物诊所【24小时急诊】","address":"恒大名都2栋s008号商铺欣悦宠物诊所","phone":"13211968410;18987132832","category":"医疗保健服务;动物医疗场所;宠物诊所","area":"","lng":102.657901,"lat":25.078818,"amap_id":"B0HA17GK2E","order":8,"prev_distance_km":0.237,"cumulative_distance_km":11.833,"amap_marker_url":"https://uri.amap.com/marker?position=102.657901,25.078818&name=%E6%AC%A3%E6%82%A6%E5%AE%A0%E7%89%A9%E8%AF%8A%E6%89%80%E3%80%9024%E5%B0%8F%E6%97%B6%E6%80%A5%E8%AF%8A%E3%80%91&src=vetmap&coordinate=gaode&callnative=1"},{"name":"木木动物医院","address":"朝花曦拾2号门旁","phone":"18183519835","category":"医疗保健服务;动物医疗场所;宠物诊所","area":"","lng":102.654475,"lat":25.070075,"amap_id":"B0L279KN89","order":9,"prev_distance_km":1.032,"cumulative_distance_km":12.865,"amap_marker_url":"https://uri.amap.com/marker?position=102.654475,25.070075&name=%E6%9C%A8%E6%9C%A8%E5%8A%A8%E7%89%A9%E5%8C%BB%E9%99%A2&src=vetmap&coordinate=gaode&callnative=1"},{"name":"西诚宠物医院","address":"黑林铺月半湾花园一期14幢3号","phone":"0871-63913270","category":"医疗保健服务;动物医疗场所;宠物诊所","area":"黑林铺","lng":102.655967,"lat":25.067042,"amap_id":"B0FFJHAVGP","order":10,"prev_distance_km":0.369,"cumulative_distance_km":13.234,"amap_marker_url":"https://uri.amap.com/marker?position=102.655967,25.067042&name=%E8%A5%BF%E8%AF%9A%E5%AE%A0%E7%89%A9%E5%8C%BB%E9%99%A2&src=vetmap&coordinate=gaode&callnative=1"},{"name":"李医生宠物诊所","address":"科发路1125号","phone":"13987623151","category":"医疗保健服务;动物医疗场所;宠物诊所","area":"","lng":102.656664,"lat":25.067384,"amap_id":"B036711OMZ","order":11,"prev_distance_km":0.08,"cumulative_distance_km":13.314,"amap_marker_url":"https://uri.amap.com/marker?position=102.656664,25.067384&name=%E6%9D%8E%E5%8C%BB%E7%94%9F%E5%AE%A0%E7%89%A9%E8%AF%8A%E6%89%80&src=vetmap&coordinate=gaode&callnative=1"},{"name":"蓓宠宠物诊所(西城时代店)","address":"滇缅大道2569号西城时代购物中心F1层","phone":"13629666254","category":"医疗保健服务;动物医疗场所;宠物诊所","area":"黑林铺","lng":102.65217,"lat":25.06352,"amap_id":"B0FFJDXDH7","order":12,"prev_distance_km":0.624,"cumulative_distance_km":13.938,"amap_marker_url":"https://uri.amap.com/marker?position=102.652170,25.063520&name=%E8%93%93%E5%AE%A0%E5%AE%A0%E7%89%A9%E8%AF%8A%E6%89%80%28%E8%A5%BF%E5%9F%8E%E6%97%B6%E4%BB%A3%E5%BA%97%29&src=vetmap&coordinate=gaode&callnative=1"},{"name":"靓宠宠物服务部","address":"西城时代锦锈苑4栋1082号","phone":"","category":"医疗保健服务;动物医疗场所;宠物诊所","area":"黑林铺","lng":102.650606,"lat":25.062951,"amap_id":"B0M6V7K3AI","order":13,"prev_distance_km":0.17,"cumulative_distance_km":14.108,"amap_marker_url":"https://uri.amap.com/marker?position=102.650606,25.062951&name=%E9%9D%93%E5%AE%A0%E5%AE%A0%E7%89%A9%E6%9C%8D%E5%8A%A1%E9%83%A8&src=vetmap&coordinate=gaode&callnative=1"},{"name":"金浪宠美","address":"昌源中路与科光路交叉口西180米","phone":"","category":"医疗保健服务;动物医疗场所;宠物诊所","area":"黑林铺","lng":102.654552,"lat":25.053216,"amap_id":"B0KA1UPUDB","order":14,"prev_distance_km":1.153,"cumulative_distance_km":15.261,"amap_marker_url":"https://uri.amap.com/marker?position=102.654552,25.053216&name=%E9%87%91%E6%B5%AA%E5%AE%A0%E7%BE%8E&src=vetmap&coordinate=gaode&callnative=1"},{"name":"宏成宠物诊所","address":"昌源中路万科金域国际17栋3号商铺","phone":"15198841691","category":"医疗保健服务;动物医疗场所;宠物诊所","area":"黑林铺","lng":102.655693,"lat":25.05233,"amap_id":"B0FFH2BEON","order":15,"prev_distance_km":0.151,"cumulative_distance_km":15.413,"amap_marker_url":"https://uri.amap.com/marker?position=102.655693,25.052330&name=%E5%AE%8F%E6%88%90%E5%AE%A0%E7%89%A9%E8%AF%8A%E6%89%80&src=vetmap&coordinate=gaode&callnative=1"},{"name":"昆明市动物疫病预防控制中心","address":"昌源中路75号21楼","phone":"0871-65148367","category":"医疗保健服务;动物医疗场所;动物医疗场所","area":"","lng":102.657011,"lat":25.053635,"amap_id":"B0FFLKVTEF","order":16,"prev_distance_km":0.197,"cumulative_distance_km":15.609,"amap_marker_url":"https://uri.amap.com/marker?position=102.657011,25.053635&name=%E6%98%86%E6%98%8E%E5%B8%82%E5%8A%A8%E7%89%A9%E7%96%AB%E7%97%85%E9%A2%84%E9%98%B2%E6%8E%A7%E5%88%B6%E4%B8%AD%E5%BF%83&src=vetmap&coordinate=gaode&callnative=1"},{"name":"东方动物医院·宠保定点·转诊中心(黄土坡分院)","address":"滇缅大道戛纳小镇AC栋D-8,D-9号商铺","phone":"0871-68584120","category":"医疗保健服务;动物医疗场所;宠物诊所","area":"黄土坡","lng":102.663325,"lat":25.063625,"amap_id":"B0FFIPWAHP","order":17,"prev_distance_km":1.28,"cumulative_distance_km":16.889,"amap_marker_url":"https://uri.amap.com/marker?position=102.663325,25.063625&name=%E4%B8%9C%E6%96%B9%E5%8A%A8%E7%89%A9%E5%8C%BB%E9%99%A2%C2%B7%E5%AE%A0%E4%BF%9D%E5%AE%9A%E7%82%B9%C2%B7%E8%BD%AC%E8%AF%8A%E4%B8%AD%E5%BF%83%28%E9%BB%84%E5%9C%9F%E5%9D%A1%E5%88%86%E9%99%A2%29&src=vetmap&coordinate=gaode&callnative=1"},{"name":"东方动物医院(黄土坡分院)","address":"滇缅大道戛纳小镇AC栋D-8,D-9号商铺","phone":"0871-68584120;18083820648","category":"医疗保健服务;动物医疗场所;宠物诊所","area":"黄土坡","lng":102.663488,"lat":25.063711,"amap_id":"B0K2AZYK5A","order":18,"prev_distance_km":0.019,"cumulative_distance_km":16.908,"amap_marker_url":"https://uri.amap.com/marker?position=102.663488,25.063711&name=%E4%B8%9C%E6%96%B9%E5%8A%A8%E7%89%A9%E5%8C%BB%E9%99%A2%28%E9%BB%84%E5%9C%9F%E5%9D%A1%E5%88%86%E9%99%A2%29&src=vetmap&coordinate=gaode&callnative=1"},{"name":"汪旺宠物诊所","address":"戛纳小镇1-20号","phone":"13669796362;13678739472","category":"医疗保健服务;动物医疗场所;宠物诊所","area":"黄土坡","lng":102.663834,"lat":25.063404,"amap_id":"B03670YM9J","order":19,"prev_distance_km":0.049,"cumulative_distance_km":16.957,"amap_marker_url":"https://uri.amap.com/marker?position=102.663834,25.063404&name=%E6%B1%AA%E6%97%BA%E5%AE%A0%E7%89%A9%E8%AF%8A%E6%89%80&src=vetmap&coordinate=gaode&callnative=1"},{"name":"1+1动物医院·外科·骨科·转诊中心(黄土坡店)","address":"昆明高新技术产业开发区黑林铺街道办事处海源中路1629号戛纳小镇C栋1、2号1层","phone":"0871-65834120;18087328578","category":"医疗保健服务;动物医疗场所;宠物诊所","area":"黄土坡","lng":102.664924,"lat":25.063922,"amap_id":"B0LDJ5W9AB","order":20,"prev_distance_km":0.124,"cumulative_distance_km":17.081,"amap_marker_url":"https://uri.amap.com/marker?position=102.664924,25.063922&name=1%2B1%E5%8A%A8%E7%89%A9%E5%8C%BB%E9%99%A2%C2%B7%E5%A4%96%E7%A7%91%C2%B7%E9%AA%A8%E7%A7%91%C2%B7%E8%BD%AC%E8%AF%8A%E4%B8%AD%E5%BF%83%28%E9%BB%84%E5%9C%9F%E5%9D%A1%E5%BA%97%29&src=vetmap&coordinate=gaode&callnative=1"},{"name":"美佳宠物医院","address":"昆明市高新区滇缅大道2411号黄土坡立交桥旁金泰国际一期9幢22-24号商铺","phone":"0871-65705456","category":"医疗保健服务;动物医疗场所;宠物诊所","area":"黄土坡","lng":102.66565,"lat":25.065104,"amap_id":"B0FFIA7DB4","order":21,"prev_distance_km":0.15,"cumulative_distance_km":17.231,"amap_marker_url":"https://uri.amap.com/marker?position=102.665650,25.065104&name=%E7%BE%8E%E4%BD%B3%E5%AE%A0%E7%89%A9%E5%8C%BB%E9%99%A2&src=vetmap&coordinate=gaode&callnative=1"},{"name":"方舟动物医疗(都市春天店)","address":"普吉路116号(小屯地铁站B口步行320米)","phone":"13698707967","category":"医疗保健服务;动物医疗场所;宠物诊所","area":"学府路","lng":102.673305,"lat":25.069313,"amap_id":"B0FFKQBT5N","order":22,"prev_distance_km":0.902,"cumulative_distance_km":18.133,"amap_marker_url":"https://uri.amap.com/marker?position=102.673305,25.069313&name=%E6%96%B9%E8%88%9F%E5%8A%A8%E7%89%A9%E5%8C%BB%E7%96%97%28%E9%83%BD%E5%B8%82%E6%98%A5%E5%A4%A9%E5%BA%97%29&src=vetmap&coordinate=gaode&callnative=1"},{"name":"私宠·宠物诊所","address":"滇缅大道406号","phone":"","category":"医疗保健服务;动物医疗场所;宠物诊所","area":"","lng":102.674978,"lat":25.060425,"amap_id":"B0L6NA5JVY","order":23,"prev_distance_km":1.003,"cumulative_distance_km":19.136,"amap_marker_url":"https://uri.amap.com/marker?position=102.674978,25.060425&name=%E7%A7%81%E5%AE%A0%C2%B7%E5%AE%A0%E7%89%A9%E8%AF%8A%E6%89%80&src=vetmap&coordinate=gaode&callnative=1"},{"name":"益宠堂宠物医院","address":"二环西路356号","phone":"0871-68265739","category":"医疗保健服务;动物医疗场所;宠物诊所","area":"","lng":102.670589,"lat":25.057006,"amap_id":"B0FFGI0SLB","order":24,"prev_distance_km":0.583,"cumulative_distance_km":19.719,"amap_marker_url":"https://uri.amap.com/marker?position=102.670589,25.057006&name=%E7%9B%8A%E5%AE%A0%E5%A0%82%E5%AE%A0%E7%89%A9%E5%8C%BB%E9%99%A2&src=vetmap&coordinate=gaode&callnative=1"},{"name":"康爱犬猫诊所·牙科·骨外科·影像内科","address":"近华浦路482-484号","phone":"15213466713;15908802462","category":"医疗保健服务;动物医疗场所;宠物诊所","area":"近华浦路","lng":102.675145,"lat":25.050453,"amap_id":"B0K1B7WFCO","order":25,"prev_distance_km":0.861,"cumulative_distance_km":20.58,"amap_marker_url":"https://uri.amap.com/marker?position=102.675145,25.050453&name=%E5%BA%B7%E7%88%B1%E7%8A%AC%E7%8C%AB%E8%AF%8A%E6%89%80%C2%B7%E7%89%99%E7%A7%91%C2%B7%E9%AA%A8%E5%A4%96%E7%A7%91%C2%B7%E5%BD%B1%E5%83%8F%E5%86%85%E7%A7%91&src=vetmap&coordinate=gaode&callnative=1"},{"name":"宠医森宠物医院(西园北路店)","address":"西园北路175号","phone":"14787839912","category":"医疗保健服务;动物医疗场所;宠物诊所","area":"龙翔","lng":102.68009,"lat":25.050122,"amap_id":"B0I1POS87L","order":26,"prev_distance_km":0.499,"cumulative_distance_km":21.08,"amap_marker_url":"https://uri.amap.com/marker?position=102.680090,25.050122&name=%E5%AE%A0%E5%8C%BB%E6%A3%AE%E5%AE%A0%E7%89%A9%E5%8C%BB%E9%99%A2%28%E8%A5%BF%E5%9B%AD%E5%8C%97%E8%B7%AF%E5%BA%97%29&src=vetmap&coordinate=gaode&callnative=1"},{"name":"萌宠康爱动物医院","address":"人民西路332号西景盛典小区A幢4号商铺","phone":"15213466713","category":"医疗保健服务;动物医疗场所;宠物诊所","area":"近华浦路","lng":102.67794,"lat":25.045407,"amap_id":"B0LAT73M3A","order":27,"prev_distance_km":0.567,"cumulative_distance_km":21.647,"amap_marker_url":"https://uri.amap.com/marker?position=102.677940,25.045407&name=%E8%90%8C%E5%AE%A0%E5%BA%B7%E7%88%B1%E5%8A%A8%E7%89%A9%E5%8C%BB%E9%99%A2&src=vetmap&coordinate=gaode&callnative=1"},{"name":"康祥伴侣宠物诊所","address":"环城西路95号(市体育馆地铁站C口步行190米)","phone":"0871-65323401","category":"医疗保健服务;动物医疗场所;宠物诊所","area":"环城西路","lng":102.689447,"lat":25.04337,"amap_id":"B036711J4H","order":28,"prev_distance_km":1.181,"cumulative_distance_km":22.828,"amap_marker_url":"https://uri.amap.com/marker?position=102.689447,25.043370&name=%E5%BA%B7%E7%A5%A5%E4%BC%B4%E4%BE%A3%E5%AE%A0%E7%89%A9%E8%AF%8A%E6%89%80&src=vetmap&coordinate=gaode&callnative=1"},{"name":"贝康宠物医院","address":"龙翔街116号","phone":"0871-65398732","category":"医疗保健服务;动物医疗场所;宠物诊所","area":"龙翔","lng":102.694232,"lat":25.050391,"amap_id":"B0FFIRZ392","order":29,"prev_distance_km":0.918,"cumulative_distance_km":23.746,"amap_marker_url":"https://uri.amap.com/marker?position=102.694232,25.050391&name=%E8%B4%9D%E5%BA%B7%E5%AE%A0%E7%89%A9%E5%8C%BB%E9%99%A2&src=vetmap&coordinate=gaode&callnative=1"},{"name":"云南农业大学动物医院","address":"一二一大街464号","phone":"0871-65325842","category":"医疗保健服务;动物医疗场所;宠物诊所|医疗保健服务;动物医疗场所;兽医站","area":"龙翔","lng":102.692549,"lat":25.051821,"amap_id":"B0FFHBOH36","order":30,"prev_distance_km":0.232,"cumulative_distance_km":23.978,"amap_marker_url":"https://uri.amap.com/marker?position=102.692549,25.051821&name=%E4%BA%91%E5%8D%97%E5%86%9C%E4%B8%9A%E5%A4%A7%E5%AD%A6%E5%8A%A8%E7%89%A9%E5%8C%BB%E9%99%A2&src=vetmap&coordinate=gaode&callnative=1"},{"name":"翔龙宠物诊所","address":"一二一大街354号","phone":"13708405120","category":"医疗保健服务;动物医疗场所;宠物诊所","area":"虹山","lng":102.694404,"lat":25.053059,"amap_id":"B0FFHNFWR9","order":31,"prev_distance_km":0.232,"cumulative_distance_km":24.21,"amap_marker_url":"https://uri.amap.com/marker?position=102.694404,25.053059&name=%E7%BF%94%E9%BE%99%E5%AE%A0%E7%89%A9%E8%AF%8A%E6%89%80&src=vetmap&coordinate=gaode&callnative=1"},{"name":"西诚宠物医院(虹山南路店)","address":"虹山南路58号16号盛世豪庭三期2号","phone":"18388079781","category":"医疗保健服务;动物医疗场所;宠物诊所","area":"虹山","lng":102.68581,"lat":25.056352,"amap_id":"B0L3N9DOCN","order":32,"prev_distance_km":0.94,"cumulative_distance_km":25.15,"amap_marker_url":"https://uri.amap.com/marker?position=102.685810,25.056352&name=%E8%A5%BF%E8%AF%9A%E5%AE%A0%E7%89%A9%E5%8C%BB%E9%99%A2%28%E8%99%B9%E5%B1%B1%E5%8D%97%E8%B7%AF%E5%BA%97%29&src=vetmap&coordinate=gaode&callnative=1"},{"name":"东方动物医院(虹山东路分院)","address":"虹山东路万科学府二期3幢39号商铺","phone":"0871-64602120;19988540386","category":"医疗保健服务;动物医疗场所;宠物诊所","area":"苏家塘","lng":102.688371,"lat":25.062733,"amap_id":"B0FFKH5V5K","order":33,"prev_distance_km":0.755,"cumulative_distance_km":25.905,"amap_marker_url":"https://uri.amap.com/marker?position=102.688371,25.062733&name=%E4%B8%9C%E6%96%B9%E5%8A%A8%E7%89%A9%E5%8C%BB%E9%99%A2%28%E8%99%B9%E5%B1%B1%E4%B8%9C%E8%B7%AF%E5%88%86%E9%99%A2%29&src=vetmap&coordinate=gaode&callnative=1"},{"name":"昆明佳诚动物医院","address":"学府路万科学府商铺5-1-8号","phone":"15969532221","category":"医疗保健服务;动物医疗场所;动物医疗场所","area":"苏家塘","lng":102.688627,"lat":25.063759,"amap_id":"B0J2JH4MUT","order":34,"prev_distance_km":0.117,"cumulative_distance_km":26.022,"amap_marker_url":"https://uri.amap.com/marker?position=102.688627,25.063759&name=%E6%98%86%E6%98%8E%E4%BD%B3%E8%AF%9A%E5%8A%A8%E7%89%A9%E5%8C%BB%E9%99%A2&src=vetmap&coordinate=gaode&callnative=1"},{"name":"心宠馨洗护(苏家塘店)","address":"苏家塘小区8栋10号商铺","phone":"13888744284","category":"医疗保健服务;动物医疗场所;动物医疗场所","area":"学府路","lng":102.691632,"lat":25.062627,"amap_id":"B0K07DK7W2","order":35,"prev_distance_km":0.328,"cumulative_distance_km":26.35,"amap_marker_url":"https://uri.amap.com/marker?position=102.691632,25.062627&name=%E5%BF%83%E5%AE%A0%E9%A6%A8%E6%B4%97%E6%8A%A4%28%E8%8B%8F%E5%AE%B6%E5%A1%98%E5%BA%97%29&src=vetmap&coordinate=gaode&callnative=1"},{"name":"启承动物医院","address":"教场东路98号附7号商铺","phone":"18208711965","category":"医疗保健服务;动物医疗场所;宠物诊所","area":"莲华","lng":102.701716,"lat":25.0665,"amap_id":"B0GUJHQVU2","order":36,"prev_distance_km":1.103,"cumulative_distance_km":27.453,"amap_marker_url":"https://uri.amap.com/marker?position=102.701716,25.066500&name=%E5%90%AF%E6%89%BF%E5%8A%A8%E7%89%A9%E5%8C%BB%E9%99%A2&src=vetmap&coordinate=gaode&callnative=1"},{"name":"诺安宠物诊所","address":"教场北路实力玖如堂小区1-9幢2层6号","phone":"19988507195","category":"医疗保健服务;动物医疗场所;宠物诊所","area":"莲华","lng":102.701438,"lat":25.072904,"amap_id":"B0GU9MTK0D","order":37,"prev_distance_km":0.713,"cumulative_distance_km":28.166,"amap_marker_url":"https://uri.amap.com/marker?position=102.701438,25.072904&name=%E8%AF%BA%E5%AE%89%E5%AE%A0%E7%89%A9%E8%AF%8A%E6%89%80&src=vetmap&coordinate=gaode&callnative=1"},{"name":"它它宠物医院犬猫疾病专科","address":"龙湖水晶郦城8号楼1层111号","phone":"18987177205","category":"医疗保健服务;动物医疗场所;宠物诊所","area":"莲华","lng":102.697624,"lat":25.07287,"amap_id":"B0L6LRGRVP","order":38,"prev_distance_km":0.384,"cumulative_distance_km":28.55,"amap_marker_url":"https://uri.amap.com/marker?position=102.697624,25.072870&name=%E5%AE%83%E5%AE%83%E5%AE%A0%E7%89%A9%E5%8C%BB%E9%99%A2%E7%8A%AC%E7%8C%AB%E7%96%BE%E7%97%85%E4%B8%93%E7%A7%91&src=vetmap&coordinate=gaode&callnative=1"},{"name":"家家宠物诊所","address":"教兴路14号花千集商业街18栋2楼商铺","phone":"18288788856","category":"医疗保健服务;动物医疗场所;宠物诊所","area":"","lng":102.709275,"lat":25.074575,"amap_id":"B0K05C0BJ5","order":39,"prev_distance_km":1.189,"cumulative_distance_km":29.739,"amap_marker_url":"https://uri.amap.com/marker?position=102.709275,25.074575&name=%E5%AE%B6%E5%AE%B6%E5%AE%A0%E7%89%A9%E8%AF%8A%E6%89%80&src=vetmap&coordinate=gaode&callnative=1"},{"name":"博泰宠物诊所","address":"盈江路万彩城一期七栋s103","phone":"19987129527","category":"医疗保健服务;动物医疗场所;宠物诊所","area":"龙泉","lng":102.713237,"lat":25.073893,"amap_id":"B0IBGZMZX5","order":40,"prev_distance_km":0.406,"cumulative_distance_km":30.145,"amap_marker_url":"https://uri.amap.com/marker?position=102.713237,25.073893&name=%E5%8D%9A%E6%B3%B0%E5%AE%A0%E7%89%A9%E8%AF%8A%E6%89%80&src=vetmap&coordinate=gaode&callnative=1"},{"name":"萌喵宠物诊所","address":"江岸三期江岸里21幢4单元101室","phone":"13629468957","category":"医疗保健服务;动物医疗场所;宠物诊所","area":"白云路","lng":102.713524,"lat":25.070074,"amap_id":"B0FFKMU44W","order":41,"prev_distance_km":0.426,"cumulative_distance_km":30.57,"amap_marker_url":"https://uri.amap.com/marker?position=102.713524,25.070074&name=%E8%90%8C%E5%96%B5%E5%AE%A0%E7%89%A9%E8%AF%8A%E6%89%80&src=vetmap&coordinate=gaode&callnative=1"},{"name":"杨氏宠物诊所","address":"江岸小区韵江里东2门旁","phone":"0871-65153032;13700629215","category":"医疗保健服务;动物医疗场所;宠物诊所","area":"龙泉","lng":102.713642,"lat":25.065836,"amap_id":"B0367085H9","order":42,"prev_distance_km":0.471,"cumulative_distance_km":31.042,"amap_marker_url":"https://uri.amap.com/marker?position=102.713642,25.065836&name=%E6%9D%A8%E6%B0%8F%E5%AE%A0%E7%89%A9%E8%AF%8A%E6%89%80&src=vetmap&coordinate=gaode&callnative=1"},{"name":"茂茂宠美","address":"泰旸新城商业步行街商铺75号","phone":"13404945940","category":"医疗保健服务;动物医疗场所;宠物诊所","area":"龙泉","lng":102.714906,"lat":25.078146,"amap_id":"B0K29CR2DQ","order":43,"prev_distance_km":1.375,"cumulative_distance_km":32.416,"amap_marker_url":"https://uri.amap.com/marker?position=102.714906,25.078146&name=%E8%8C%82%E8%8C%82%E5%AE%A0%E7%BE%8E&src=vetmap&coordinate=gaode&callnative=1"},{"name":"瑞派恒佳宠物医院(财大康园店)","address":"金色大道财大康园19-2","phone":"0871-65106570;15331729498","category":"医疗保健服务;动物医疗场所;宠物诊所","area":"龙泉","lng":102.723477,"lat":25.087803,"amap_id":"B0FFFENT52","order":44,"prev_distance_km":1.378,"cumulative_distance_km":33.794,"amap_marker_url":"https://uri.amap.com/marker?position=102.723477,25.087803&name=%E7%91%9E%E6%B4%BE%E6%81%92%E4%BD%B3%E5%AE%A0%E7%89%A9%E5%8C%BB%E9%99%A2%28%E8%B4%A2%E5%A4%A7%E5%BA%B7%E5%9B%AD%E5%BA%97%29&src=vetmap&coordinate=gaode&callnative=1"},{"name":"金瑞动物医院","address":"小康大道6号","phone":"15887112354","category":"医疗保健服务;动物医疗场所;动物医疗场所","area":"霖雨路","lng":102.731106,"lat":25.097056,"amap_id":"B0JUVZYX6G","order":45,"prev_distance_km":1.284,"cumulative_distance_km":35.078,"amap_marker_url":"https://uri.amap.com/marker?position=102.731106,25.097056&name=%E9%87%91%E7%91%9E%E5%8A%A8%E7%89%A9%E5%8C%BB%E9%99%A2&src=vetmap&coordinate=gaode&callnative=1"},{"name":"东方动物医院(小康大道分院)","address":"小康大道38号江东耀龙康城7幢附5商网","phone":"0871-68242120;18087363120","category":"医疗保健服务;动物医疗场所;宠物诊所","area":"霖雨路","lng":102.731532,"lat":25.09824,"amap_id":"B0FFKKV2H4","order":46,"prev_distance_km":0.138,"cumulative_distance_km":35.217,"amap_marker_url":"https://uri.amap.com/marker?position=102.731532,25.098240&name=%E4%B8%9C%E6%96%B9%E5%8A%A8%E7%89%A9%E5%8C%BB%E9%99%A2%28%E5%B0%8F%E5%BA%B7%E5%A4%A7%E9%81%93%E5%88%86%E9%99%A2%29&src=vetmap&coordinate=gaode&callnative=1"},{"name":"道心动物医院","address":"江东耀龙康城27幢2单元105号","phone":"18288788856","category":"医疗保健服务;动物医疗场所;宠物诊所","area":"霖雨路","lng":102.731627,"lat":25.098724,"amap_id":"B0FFG7E1CD","order":47,"prev_distance_km":0.055,"cumulative_distance_km":35.271,"amap_marker_url":"https://uri.amap.com/marker?position=102.731627,25.098724&name=%E9%81%93%E5%BF%83%E5%8A%A8%E7%89%A9%E5%8C%BB%E9%99%A2&src=vetmap&coordinate=gaode&callnative=1"},{"name":"鑫宜宠物诊疗服务中心","address":"美璟欣城263号","phone":"15911318115","category":"医疗保健服务;动物医疗场所;宠物诊所","area":"红云","lng":102.732442,"lat":25.098062,"amap_id":"B0K3MLTX13","order":48,"prev_distance_km":0.11,"cumulative_distance_km":35.382,"amap_marker_url":"https://uri.amap.com/marker?position=102.732442,25.098062&name=%E9%91%AB%E5%AE%9C%E5%AE%A0%E7%89%A9%E8%AF%8A%E7%96%97%E6%9C%8D%E5%8A%A1%E4%B8%AD%E5%BF%83&src=vetmap&coordinate=gaode&callnative=1"},{"name":"宠乐宠物诊所","address":"烟草一号路美璟欣城175号","phone":"0871-66848531;18988478531","category":"医疗保健服务;动物医疗场所;宠物诊所","area":"红云","lng":102.732969,"lat":25.096547,"amap_id":"B0FFFOZ80Z","order":49,"prev_distance_km":0.177,"cumulative_distance_km":35.558,"amap_marker_url":"https://uri.amap.com/marker?position=102.732969,25.096547&name=%E5%AE%A0%E4%B9%90%E5%AE%A0%E7%89%A9%E8%AF%8A%E6%89%80&src=vetmap&coordinate=gaode&callnative=1"},{"name":"亚马森宠物医院","address":"警民路与霖雨路交叉口南40米","phone":"19988758180","category":"医疗保健服务;动物医疗场所;宠物诊所","area":"月牙塘","lng":102.733476,"lat":25.094986,"amap_id":"B0KDF11T28","order":50,"prev_distance_km":0.181,"cumulative_distance_km":35.739,"amap_marker_url":"https://uri.amap.com/marker?position=102.733476,25.094986&name=%E4%BA%9A%E9%A9%AC%E6%A3%AE%E5%AE%A0%E7%89%A9%E5%8C%BB%E9%99%A2&src=vetmap&coordinate=gaode&callnative=1"},{"name":"爱之家宠物医院(红锦路店)","address":"红锦路108号","phone":"0871-63556665;0871-65876697;19987731156","category":"医疗保健服务;动物医疗场所;宠物诊所","area":"霖雨路","lng":102.725648,"lat":25.099647,"amap_id":"B0FFGRD8YV","order":51,"prev_distance_km":0.943,"cumulative_distance_km":36.683,"amap_marker_url":"https://uri.amap.com/marker?position=102.725648,25.099647&name=%E7%88%B1%E4%B9%8B%E5%AE%B6%E5%AE%A0%E7%89%A9%E5%8C%BB%E9%99%A2%28%E7%BA%A2%E9%94%A6%E8%B7%AF%E5%BA%97%29&src=vetmap&coordinate=gaode&callnative=1"},{"name":"唯宠宠物医院","address":"红云街道办事处和谐家园M1栋105号","phone":"13688772511","category":"医疗保健服务;动物医疗场所;宠物诊所","area":"红云","lng":102.730319,"lat":25.103816,"amap_id":"B0JKFHVV7Z","order":52,"prev_distance_km":0.66,"cumulative_distance_km":37.343,"amap_marker_url":"https://uri.amap.com/marker?position=102.730319,25.103816&name=%E5%94%AF%E5%AE%A0%E5%AE%A0%E7%89%A9%E5%8C%BB%E9%99%A2&src=vetmap&coordinate=gaode&callnative=1"},{"name":"爱可飞宠物诊所(No·001店)","address":"红园路478号","phone":"","category":"医疗保健服务;动物医疗场所;宠物诊所","area":"龙泉","lng":102.733056,"lat":25.103942,"amap_id":"B03670VY4U","order":53,"prev_distance_km":0.276,"cumulative_distance_km":37.619,"amap_marker_url":"https://uri.amap.com/marker?position=102.733056,25.103942&name=%E7%88%B1%E5%8F%AF%E9%A3%9E%E5%AE%A0%E7%89%A9%E8%AF%8A%E6%89%80%28No%C2%B7001%E5%BA%97%29&src=vetmap&coordinate=gaode&callnative=1"},{"name":"宠源堂动物中医馆","address":"红园路718号","phone":"13888125918","category":"医疗保健服务;动物医疗场所;宠物诊所","area":"龙泉","lng":102.737185,"lat":25.104367,"amap_id":"B0K0GC3CNG","order":54,"prev_distance_km":0.418,"cumulative_distance_km":38.037,"amap_marker_url":"https://uri.amap.com/marker?position=102.737185,25.104367&name=%E5%AE%A0%E6%BA%90%E5%A0%82%E5%8A%A8%E7%89%A9%E4%B8%AD%E5%8C%BB%E9%A6%86&src=vetmap&coordinate=gaode&callnative=1"},{"name":"瑞派宠宝利宠物医院·眼科·肿瘤科·牙科(华龙人家店)","address":"小康大道398号","phone":"0871-65821291;18468160475","category":"医疗保健服务;动物医疗场所;宠物诊所","area":"龙泉","lng":102.735046,"lat":25.108574,"amap_id":"B0FFIFY6VG","order":55,"prev_distance_km":0.515,"cumulative_distance_km":38.552,"amap_marker_url":"https://uri.amap.com/marker?position=102.735046,25.108574&name=%E7%91%9E%E6%B4%BE%E5%AE%A0%E5%AE%9D%E5%88%A9%E5%AE%A0%E7%89%A9%E5%8C%BB%E9%99%A2%C2%B7%E7%9C%BC%E7%A7%91%C2%B7%E8%82%BF%E7%98%A4%E7%A7%91%C2%B7%E7%89%99%E7%A7%91%28%E5%8D%8E%E9%BE%99%E4%BA%BA%E5%AE%B6%E5%BA%97%29&src=vetmap&coordinate=gaode&callnative=1"},{"name":"多乐宠物诊所","address":"天骄北麓2栋18号商铺","phone":"19143114041","category":"医疗保健服务;动物医疗场所;宠物诊所","area":"红云","lng":102.729279,"lat":25.10992,"amap_id":"B0KKGUE6HB","order":56,"prev_distance_km":0.6,"cumulative_distance_km":39.152,"amap_marker_url":"https://uri.amap.com/marker?position=102.729279,25.109920&name=%E5%A4%9A%E4%B9%90%E5%AE%A0%E7%89%A9%E8%AF%8A%E6%89%80&src=vetmap&coordinate=gaode&callnative=1"},{"name":"升升宠物诊所","address":"天骄北麓北区12幢120号商铺外围","phone":"18987581417","category":"医疗保健服务;动物医疗场所;宠物诊所","area":"龙泉","lng":102.728409,"lat":25.1134,"amap_id":"B0M63OAS6T","order":57,"prev_distance_km":0.397,"cumulative_distance_km":39.549,"amap_marker_url":"https://uri.amap.com/marker?position=102.728409,25.113400&name=%E5%8D%87%E5%8D%87%E5%AE%A0%E7%89%A9%E8%AF%8A%E6%89%80&src=vetmap&coordinate=gaode&callnative=1"},{"name":"萌贝贝宠物诊所·微创绝育·B超","address":"龙泉俊园馨园2栋S206商铺","phone":"18388415410;18787186656","category":"医疗保健服务;动物医疗场所;宠物诊所","area":"龙泉","lng":102.724041,"lat":25.105513,"amap_id":"B0J01A2DFH","order":58,"prev_distance_km":0.981,"cumulative_distance_km":40.53,"amap_marker_url":"https://uri.amap.com/marker?position=102.724041,25.105513&name=%E8%90%8C%E8%B4%9D%E8%B4%9D%E5%AE%A0%E7%89%A9%E8%AF%8A%E6%89%80%C2%B7%E5%BE%AE%E5%88%9B%E7%BB%9D%E8%82%B2%C2%B7B%E8%B6%85&src=vetmap&coordinate=gaode&callnative=1"},{"name":"昆明慕宠宠物","address":"小康大道与银梭路交叉口西80米","phone":"","category":"购物服务;专卖店;宠物用品店|医疗保健服务;动物医疗场所;动物医疗场所","area":"龙泉","lng":102.740025,"lat":25.118575,"amap_id":"B0LGLADESZ","order":59,"prev_distance_km":2.168,"cumulative_distance_km":42.698,"amap_marker_url":"https://uri.amap.com/marker?position=102.740025,25.118575&name=%E6%98%86%E6%98%8E%E6%85%95%E5%AE%A0%E5%AE%A0%E7%89%A9&src=vetmap&coordinate=gaode&callnative=1"},{"name":"恒爱动物医院","address":"江东境界1栋1层2号商铺","phone":"15559909599","category":"医疗保健服务;动物医疗场所;宠物诊所","area":"龙泉","lng":102.742153,"lat":25.11681,"amap_id":"B0KB4CXNXJ","order":60,"prev_distance_km":0.291,"cumulative_distance_km":42.988,"amap_marker_url":"https://uri.amap.com/marker?position=102.742153,25.116810&name=%E6%81%92%E7%88%B1%E5%8A%A8%E7%89%A9%E5%8C%BB%E9%99%A2&src=vetmap&coordinate=gaode&callnative=1"},{"name":"东方动物医院(实力郡城店)","address":"银河大道西侧郡城小区第1至2层12号商铺","phone":"0871-64160120;19988438323","category":"医疗保健服务;动物医疗场所;宠物诊所","area":"龙泉","lng":102.742914,"lat":25.121494,"amap_id":"B0FFKYZ1JU","order":61,"prev_distance_km":0.526,"cumulative_distance_km":43.515,"amap_marker_url":"https://uri.amap.com/marker?position=102.742914,25.121494&name=%E4%B8%9C%E6%96%B9%E5%8A%A8%E7%89%A9%E5%8C%BB%E9%99%A2%28%E5%AE%9E%E5%8A%9B%E9%83%A1%E5%9F%8E%E5%BA%97%29&src=vetmap&coordinate=gaode&callnative=1"},{"name":"善兽堂动物医院","address":"农大教工住宅小区6栋1层5号","phone":"0871-65340718;18206844995","category":"医疗保健服务;动物医疗场所;宠物诊所","area":"龙泉","lng":102.741894,"lat":25.124661,"amap_id":"B0FFI9BGCY","order":62,"prev_distance_km":0.367,"cumulative_distance_km":43.881,"amap_marker_url":"https://uri.amap.com/marker?position=102.741894,25.124661&name=%E5%96%84%E5%85%BD%E5%A0%82%E5%8A%A8%E7%89%A9%E5%8C%BB%E9%99%A2&src=vetmap&coordinate=gaode&callnative=1"},{"name":"绿州宠物诊所","address":"普吉街道办事处万科西郡小区9栋1层s125号","phone":"18987171502","category":"医疗保健服务;动物医疗场所;宠物诊所","area":"","lng":102.669843,"lat":25.080365,"amap_id":"B0JKD5SGDZ","order":63,"prev_distance_km":8.769,"cumulative_distance_km":52.65,"amap_marker_url":"https://uri.amap.com/marker?position=102.669843,25.080365&name=%E7%BB%BF%E5%B7%9E%E5%AE%A0%E7%89%A9%E8%AF%8A%E6%89%80&src=vetmap&coordinate=gaode&callnative=1"},{"name":"恒旺宠物诊所(昆明恒旺广场店)","address":"昌源北路恒旺广场4-107","phone":"13678742770","category":"医疗保健服务;动物医疗场所;宠物诊所","area":"","lng":102.64932,"lat":25.073613,"amap_id":"B0J09HU45V","order":64,"prev_distance_km":2.199,"cumulative_distance_km":54.85,"amap_marker_url":"https://uri.amap.com/marker?position=102.649320,25.073613&name=%E6%81%92%E6%97%BA%E5%AE%A0%E7%89%A9%E8%AF%8A%E6%89%80%28%E6%98%86%E6%98%8E%E6%81%92%E6%97%BA%E5%B9%BF%E5%9C%BA%E5%BA%97%29&src=vetmap&coordinate=gaode&callnative=1"},{"name":"光明动物医院","address":"丽阳星城SY2栋37号","phone":"0871-65656150;15087008131","category":"医疗保健服务;动物医疗场所;宠物诊所","area":"","lng":102.642642,"lat":25.076308,"amap_id":"B0L10DDXJU","order":65,"prev_distance_km":0.736,"cumulative_distance_km":55.586,"amap_marker_url":"https://uri.amap.com/marker?position=102.642642,25.076308&name=%E5%85%89%E6%98%8E%E5%8A%A8%E7%89%A9%E5%8C%BB%E9%99%A2&src=vetmap&coordinate=gaode&callnative=1"},{"name":"淘淘动物医院(春城慧谷店)","address":"慧谷路春城慧谷小区一期商铺2幢1-3层A-2-3室","phone":"13529177834","category":"医疗保健服务;动物医疗场所;宠物诊所","area":"","lng":102.644271,"lat":25.083865,"amap_id":"B0H645JQ3E","order":66,"prev_distance_km":0.856,"cumulative_distance_km":56.442,"amap_marker_url":"https://uri.amap.com/marker?position=102.644271,25.083865&name=%E6%B7%98%E6%B7%98%E5%8A%A8%E7%89%A9%E5%8C%BB%E9%99%A2%28%E6%98%A5%E5%9F%8E%E6%85%A7%E8%B0%B7%E5%BA%97%29&src=vetmap&coordinate=gaode&callnative=1"},{"name":"贝心动物医院","address":"东风西路188号云南核工业商务楼","phone":"13368805083","category":"医疗保健服务;动物医疗场所;宠物诊所","area":"小西门","lng":102.70107,"lat":25.041299,"amap_id":"B0L2SL6L41","order":67,"prev_distance_km":7.425,"cumulative_distance_km":63.867,"amap_marker_url":"https://uri.amap.com/marker?position=102.701070,25.041299&name=%E8%B4%9D%E5%BF%83%E5%8A%A8%E7%89%A9%E5%8C%BB%E9%99%A2&src=vetmap&coordinate=gaode&callnative=1"}]}