{"summary":{"id":"d01964","province":"云南省","city":"普洱市","district":"思茅区","count":11,"total_distance_km":9.781,"coordinate_system":"GCJ-02 / Amap","generated_at":"2026-05-07 20:21:07"},"rows":[{"name":"普洱市康辉动物医院(高家寨店)","address":"公务员小区东门南70米","phone":"0879-2149411;15825155580","category":"医疗保健服务;动物医疗场所;宠物诊所","area":"","lng":100.980973,"lat":22.75753,"amap_id":"B0FFF4F69Q","order":1,"prev_distance_km":0.0,"cumulative_distance_km":0.0,"amap_marker_url":"https://uri.amap.com/marker?position=100.980973,22.757530&name=%E6%99%AE%E6%B4%B1%E5%B8%82%E5%BA%B7%E8%BE%89%E5%8A%A8%E7%89%A9%E5%8C%BB%E9%99%A2%28%E9%AB%98%E5%AE%B6%E5%AF%A8%E5%BA%97%29&src=vetmap&coordinate=gaode&callnative=1"},{"name":"可朝动物医院","address":"南屏镇茶苑路公园一号商铺19幢105-106商铺","phone":"15087140154","category":"医疗保健服务;动物医疗场所;宠物诊所","area":"","lng":100.966715,"lat":22.755789,"amap_id":"B0LDBUBEYJ","order":2,"prev_distance_km":1.475,"cumulative_distance_km":1.475,"amap_marker_url":"https://uri.amap.com/marker?position=100.966715,22.755789&name=%E5%8F%AF%E6%9C%9D%E5%8A%A8%E7%89%A9%E5%8C%BB%E9%99%A2&src=vetmap&coordinate=gaode&callnative=1"},{"name":"宠爱动物诊所","address":"盛景园一区普洱大道商铺4-10-11","phone":"0879-2889499;13908793955","category":"医疗保健服务;动物医疗场所;宠物诊所","area":"","lng":100.970666,"lat":22.760612,"amap_id":"B0FFHEZMWQ","order":3,"prev_distance_km":0.672,"cumulative_distance_km":2.147,"amap_marker_url":"https://uri.amap.com/marker?position=100.970666,22.760612&name=%E5%AE%A0%E7%88%B1%E5%8A%A8%E7%89%A9%E8%AF%8A%E6%89%80&src=vetmap&coordinate=gaode&callnative=1"},{"name":"鑫兰兽药店","address":"南屏镇兰花市场对面","phone":"13987921635","category":"医疗保健服务;动物医疗场所;动物医疗场所","area":"兰花","lng":100.966382,"lat":22.765847,"amap_id":"B0FFG37PY5","order":4,"prev_distance_km":0.729,"cumulative_distance_km":2.876,"amap_marker_url":"https://uri.amap.com/marker?position=100.966382,22.765847&name=%E9%91%AB%E5%85%B0%E5%85%BD%E8%8D%AF%E5%BA%97&src=vetmap&coordinate=gaode&callnative=1"},{"name":"维康宠物诊所","address":"鱼水路与林源路交叉口西北220米","phone":"18087980808","category":"医疗保健服务;动物医疗场所;宠物诊所","area":"","lng":100.971354,"lat":22.767581,"amap_id":"B0ID7CH5UU","order":5,"prev_distance_km":0.545,"cumulative_distance_km":3.421,"amap_marker_url":"https://uri.amap.com/marker?position=100.971354,22.767581&name=%E7%BB%B4%E5%BA%B7%E5%AE%A0%E7%89%A9%E8%AF%8A%E6%89%80&src=vetmap&coordinate=gaode&callnative=1"},{"name":"鑫心动物医院","address":"茶城大道67号4-2号商铺","phone":"0879-2891768;19188459677","category":"医疗保健服务;动物医疗场所;宠物诊所","area":"茶城大道","lng":100.977794,"lat":22.770648,"amap_id":"B0KU3K5IF3","order":6,"prev_distance_km":0.743,"cumulative_distance_km":4.164,"amap_marker_url":"https://uri.amap.com/marker?position=100.977794,22.770648&name=%E9%91%AB%E5%BF%83%E5%8A%A8%E7%89%A9%E5%8C%BB%E9%99%A2&src=vetmap&coordinate=gaode&callnative=1"},{"name":"爱康宠物美容(象印花街店)","address":"印象花街28-2号附近","phone":"0879-2302983;15087937599","category":"医疗保健服务;动物医疗场所;宠物诊所","area":"人民东路","lng":100.980625,"lat":22.777377,"amap_id":"B0FFI12GP8","order":7,"prev_distance_km":0.803,"cumulative_distance_km":4.967,"amap_marker_url":"https://uri.amap.com/marker?position=100.980625,22.777377&name=%E7%88%B1%E5%BA%B7%E5%AE%A0%E7%89%A9%E7%BE%8E%E5%AE%B9%28%E8%B1%A1%E5%8D%B0%E8%8A%B1%E8%A1%97%E5%BA%97%29&src=vetmap&coordinate=gaode&callnative=1"},{"name":"普洱市康辉宠物医院(普洱广场分院)","address":"思茅镇五一路社区普洱广场4幢1层","phone":"0879-2148066","category":"医疗保健服务;动物医疗场所;宠物诊所","area":"振兴大道","lng":100.968632,"lat":22.781335,"amap_id":"B0HUMHUX8J","order":8,"prev_distance_km":1.306,"cumulative_distance_km":6.273,"amap_marker_url":"https://uri.amap.com/marker?position=100.968632,22.781335&name=%E6%99%AE%E6%B4%B1%E5%B8%82%E5%BA%B7%E8%BE%89%E5%AE%A0%E7%89%A9%E5%8C%BB%E9%99%A2%28%E6%99%AE%E6%B4%B1%E5%B9%BF%E5%9C%BA%E5%88%86%E9%99%A2%29&src=vetmap&coordinate=gaode&callnative=1"},{"name":"普洱市康辉动物医院茶城大道分院","address":"思茅镇茶城大道龙旺井82号","phone":"0879-2149411;15825155580","category":"医疗保健服务;动物医疗场所;宠物诊所","area":"茶城大道","lng":100.980301,"lat":22.784642,"amap_id":"B0FFIL3UTL","order":9,"prev_distance_km":1.252,"cumulative_distance_km":7.524,"amap_marker_url":"https://uri.amap.com/marker?position=100.980301,22.784642&name=%E6%99%AE%E6%B4%B1%E5%B8%82%E5%BA%B7%E8%BE%89%E5%8A%A8%E7%89%A9%E5%8C%BB%E9%99%A2%E8%8C%B6%E5%9F%8E%E5%A4%A7%E9%81%93%E5%88%86%E9%99%A2&src=vetmap&coordinate=gaode&callnative=1"},{"name":"萌爱宠物诊所","address":"白云东路翔泰苑第15幢1层1号","phone":"15925260400","category":"医疗保健服务;动物医疗场所;宠物诊所","area":"","lng":100.98027,"lat":22.797161,"amap_id":"B0GU1UWZ22","order":10,"prev_distance_km":1.392,"cumulative_distance_km":8.916,"amap_marker_url":"https://uri.amap.com/marker?position=100.980270,22.797161&name=%E8%90%8C%E7%88%B1%E5%AE%A0%E7%89%A9%E8%AF%8A%E6%89%80&src=vetmap&coordinate=gaode&callnative=1"},{"name":"狗仔宠物医疗中心","address":"振兴北路3号","phone":"13099903494","category":"医疗保健服务;动物医疗场所;宠物诊所","area":"","lng":100.973239,"lat":22.801452,"amap_id":"B0I1F5L7TT","order":11,"prev_distance_km":0.864,"cumulative_distance_km":9.781,"amap_marker_url":"https://uri.amap.com/marker?position=100.973239,22.801452&name=%E7%8B%97%E4%BB%94%E5%AE%A0%E7%89%A9%E5%8C%BB%E7%96%97%E4%B8%AD%E5%BF%83&src=vetmap&coordinate=gaode&callnative=1"}]}