{"summary":{"id":"d01932","province":"云南省","city":"文山壮族苗族自治州","district":"广南县","count":6,"route_count":1,"max_route_clinics":6,"total_distance_km":3.797,"coordinate_system":"GCJ-02 / Amap","generated_at":"2026-05-07 21:26:08"},"routes":[{"id":"r1","name":"第1段","count":6,"total_distance_km":3.797,"rows":[{"name":"带宠来宠物服务馆","address":"国宾府商品18-3-03","phone":"15126710778","category":"医疗保健服务;动物医疗场所;动物医疗场所","area":"","lng":105.061159,"lat":24.058613,"amap_id":"B0L3N5D7Z3","order":1,"prev_distance_km":0.0,"cumulative_distance_km":0.0,"amap_marker_url":"https://uri.amap.com/marker?position=105.061159,24.058613&name=%E5%B8%A6%E5%AE%A0%E6%9D%A5%E5%AE%A0%E7%89%A9%E6%9C%8D%E5%8A%A1%E9%A6%86&src=vetmap&coordinate=gaode&callnative=1","route_id":"r1","route_name":"第1段"},{"name":"广南县你好小狗宠物诊所","address":"炜乐金桂园1-06号你好小狗宠物诊所","phone":"15398305721","category":"医疗保健服务;动物医疗场所;宠物诊所","area":"","lng":105.054866,"lat":24.058077,"amap_id":"B0KUB7ZE1E","order":2,"prev_distance_km":0.642,"cumulative_distance_km":0.642,"amap_marker_url":"https://uri.amap.com/marker?position=105.054866,24.058077&name=%E5%B9%BF%E5%8D%97%E5%8E%BF%E4%BD%A0%E5%A5%BD%E5%B0%8F%E7%8B%97%E5%AE%A0%E7%89%A9%E8%AF%8A%E6%89%80&src=vetmap&coordinate=gaode&callnative=1","route_id":"r1","route_name":"第1段"},{"name":"宠安动物诊所","address":"永安路34号","phone":"14769667988","category":"医疗保健服务;动物医疗场所;宠物诊所","area":"","lng":105.05317,"lat":24.053282,"amap_id":"B0LDDX7VFB","order":3,"prev_distance_km":0.56,"cumulative_distance_km":1.202,"amap_marker_url":"https://uri.amap.com/marker?position=105.053170,24.053282&name=%E5%AE%A0%E5%AE%89%E5%8A%A8%E7%89%A9%E8%AF%8A%E6%89%80&src=vetmap&coordinate=gaode&callnative=1","route_id":"r1","route_name":"第1段"},{"name":"云农动物医院","address":"南秀路南国帝景2-109号","phone":"15008848565","category":"医疗保健服务;动物医疗场所;宠物诊所","area":"","lng":105.047197,"lat":24.045876,"amap_id":"B0LDD1B2TK","order":4,"prev_distance_km":1.023,"cumulative_distance_km":2.225,"amap_marker_url":"https://uri.amap.com/marker?position=105.047197,24.045876&name=%E4%BA%91%E5%86%9C%E5%8A%A8%E7%89%A9%E5%8C%BB%E9%99%A2&src=vetmap&coordinate=gaode&callnative=1","route_id":"r1","route_name":"第1段"},{"name":"佳宠动物诊所","address":"南秀路与校场路交叉口东南40米","phone":"15187151946","category":"医疗保健服务;动物医疗场所;宠物诊所","area":"","lng":105.058217,"lat":24.045015,"amap_id":"B0G3F5JVA0","order":5,"prev_distance_km":1.123,"cumulative_distance_km":3.348,"amap_marker_url":"https://uri.amap.com/marker?position=105.058217,24.045015&name=%E4%BD%B3%E5%AE%A0%E5%8A%A8%E7%89%A9%E8%AF%8A%E6%89%80&src=vetmap&coordinate=gaode&callnative=1","route_id":"r1","route_name":"第1段"},{"name":"爱宠有道动物诊所","address":"莲城镇龙井社区城隍庙街66号","phone":"13404914288;15912335111","category":"医疗保健服务;动物医疗场所;宠物诊所","area":"","lng":105.06233,"lat":24.046506,"amap_id":"B0LK1HDUBU","order":6,"prev_distance_km":0.449,"cumulative_distance_km":3.797,"amap_marker_url":"https://uri.amap.com/marker?position=105.062330,24.046506&name=%E7%88%B1%E5%AE%A0%E6%9C%89%E9%81%93%E5%8A%A8%E7%89%A9%E8%AF%8A%E6%89%80&src=vetmap&coordinate=gaode&callnative=1","route_id":"r1","route_name":"第1段"}]}],"rows":[{"name":"带宠来宠物服务馆","address":"国宾府商品18-3-03","phone":"15126710778","category":"医疗保健服务;动物医疗场所;动物医疗场所","area":"","lng":105.061159,"lat":24.058613,"amap_id":"B0L3N5D7Z3","order":1,"prev_distance_km":0.0,"cumulative_distance_km":0.0,"amap_marker_url":"https://uri.amap.com/marker?position=105.061159,24.058613&name=%E5%B8%A6%E5%AE%A0%E6%9D%A5%E5%AE%A0%E7%89%A9%E6%9C%8D%E5%8A%A1%E9%A6%86&src=vetmap&coordinate=gaode&callnative=1","route_id":"r1","route_name":"第1段","global_order":1},{"name":"广南县你好小狗宠物诊所","address":"炜乐金桂园1-06号你好小狗宠物诊所","phone":"15398305721","category":"医疗保健服务;动物医疗场所;宠物诊所","area":"","lng":105.054866,"lat":24.058077,"amap_id":"B0KUB7ZE1E","order":2,"prev_distance_km":0.642,"cumulative_distance_km":0.642,"amap_marker_url":"https://uri.amap.com/marker?position=105.054866,24.058077&name=%E5%B9%BF%E5%8D%97%E5%8E%BF%E4%BD%A0%E5%A5%BD%E5%B0%8F%E7%8B%97%E5%AE%A0%E7%89%A9%E8%AF%8A%E6%89%80&src=vetmap&coordinate=gaode&callnative=1","route_id":"r1","route_name":"第1段","global_order":2},{"name":"宠安动物诊所","address":"永安路34号","phone":"14769667988","category":"医疗保健服务;动物医疗场所;宠物诊所","area":"","lng":105.05317,"lat":24.053282,"amap_id":"B0LDDX7VFB","order":3,"prev_distance_km":0.56,"cumulative_distance_km":1.202,"amap_marker_url":"https://uri.amap.com/marker?position=105.053170,24.053282&name=%E5%AE%A0%E5%AE%89%E5%8A%A8%E7%89%A9%E8%AF%8A%E6%89%80&src=vetmap&coordinate=gaode&callnative=1","route_id":"r1","route_name":"第1段","global_order":3},{"name":"云农动物医院","address":"南秀路南国帝景2-109号","phone":"15008848565","category":"医疗保健服务;动物医疗场所;宠物诊所","area":"","lng":105.047197,"lat":24.045876,"amap_id":"B0LDD1B2TK","order":4,"prev_distance_km":1.023,"cumulative_distance_km":2.225,"amap_marker_url":"https://uri.amap.com/marker?position=105.047197,24.045876&name=%E4%BA%91%E5%86%9C%E5%8A%A8%E7%89%A9%E5%8C%BB%E9%99%A2&src=vetmap&coordinate=gaode&callnative=1","route_id":"r1","route_name":"第1段","global_order":4},{"name":"佳宠动物诊所","address":"南秀路与校场路交叉口东南40米","phone":"15187151946","category":"医疗保健服务;动物医疗场所;宠物诊所","area":"","lng":105.058217,"lat":24.045015,"amap_id":"B0G3F5JVA0","order":5,"prev_distance_km":1.123,"cumulative_distance_km":3.348,"amap_marker_url":"https://uri.amap.com/marker?position=105.058217,24.045015&name=%E4%BD%B3%E5%AE%A0%E5%8A%A8%E7%89%A9%E8%AF%8A%E6%89%80&src=vetmap&coordinate=gaode&callnative=1","route_id":"r1","route_name":"第1段","global_order":5},{"name":"爱宠有道动物诊所","address":"莲城镇龙井社区城隍庙街66号","phone":"13404914288;15912335111","category":"医疗保健服务;动物医疗场所;宠物诊所","area":"","lng":105.06233,"lat":24.046506,"amap_id":"B0LK1HDUBU","order":6,"prev_distance_km":0.449,"cumulative_distance_km":3.797,"amap_marker_url":"https://uri.amap.com/marker?position=105.062330,24.046506&name=%E7%88%B1%E5%AE%A0%E6%9C%89%E9%81%93%E5%8A%A8%E7%89%A9%E8%AF%8A%E6%89%80&src=vetmap&coordinate=gaode&callnative=1","route_id":"r1","route_name":"第1段","global_order":6}]}