{"summary":{"id":"d02026","province":"四川省","city":"内江市","district":"威远县","count":10,"route_count":1,"max_route_clinics":10,"total_distance_km":21.834,"coordinate_system":"GCJ-02 / Amap","generated_at":"2026-05-08 19:40:26"},"routes":[{"id":"r1","name":"第1段","count":10,"total_distance_km":21.834,"rows":[{"name":"动物诊所","address":"严陵镇广场街361号","phone":"15282154337","category":"医疗保健服务;动物医疗场所;宠物诊所","area":"","lng":104.659667,"lat":29.520852,"amap_id":"B0IAKSD23S","order":1,"prev_distance_km":0.0,"cumulative_distance_km":0.0,"amap_marker_url":"https://uri.amap.com/marker?position=104.659667,29.520852&name=%E5%8A%A8%E7%89%A9%E8%AF%8A%E6%89%80&src=vetmap&coordinate=gaode&callnative=1","route_id":"r1","route_name":"第1段"},{"name":"威远吉康兽药","address":"顺城街中二段与杉树坳街中段交叉口西80米","phone":"","category":"购物服务;购物相关场所;购物相关场所|医疗保健服务;动物医疗场所;动物医疗场所","area":"","lng":104.663936,"lat":29.521748,"amap_id":"B0KUCSXPKD","order":2,"prev_distance_km":0.425,"cumulative_distance_km":0.425,"amap_marker_url":"https://uri.amap.com/marker?position=104.663936,29.521748&name=%E5%A8%81%E8%BF%9C%E5%90%89%E5%BA%B7%E5%85%BD%E8%8D%AF&src=vetmap&coordinate=gaode&callnative=1","route_id":"r1","route_name":"第1段"},{"name":"益家宠物门诊部","address":"顺城街中段59号","phone":"13890516451","category":"医疗保健服务;动物医疗场所;宠物诊所","area":"","lng":104.663353,"lat":29.521921,"amap_id":"B0FFFV5HX2","order":3,"prev_distance_km":0.06,"cumulative_distance_km":0.485,"amap_marker_url":"https://uri.amap.com/marker?position=104.663353,29.521921&name=%E7%9B%8A%E5%AE%B6%E5%AE%A0%E7%89%A9%E9%97%A8%E8%AF%8A%E9%83%A8&src=vetmap&coordinate=gaode&callnative=1","route_id":"r1","route_name":"第1段"},{"name":"康明宠物门诊","address":"正西街44-48号","phone":"13608253075","category":"医疗保健服务;动物医疗场所;宠物诊所","area":"","lng":104.661096,"lat":29.524426,"amap_id":"B0FFKJE52P","order":4,"prev_distance_km":0.354,"cumulative_distance_km":0.838,"amap_marker_url":"https://uri.amap.com/marker?position=104.661096,29.524426&name=%E5%BA%B7%E6%98%8E%E5%AE%A0%E7%89%A9%E9%97%A8%E8%AF%8A&src=vetmap&coordinate=gaode&callnative=1","route_id":"r1","route_name":"第1段"},{"name":"乖乖宠物门诊部","address":"西街228号","phone":"18980206311","category":"医疗保健服务;动物医疗场所;宠物诊所","area":"","lng":104.664926,"lat":29.527398,"amap_id":"B0FFI6YS9H","order":5,"prev_distance_km":0.497,"cumulative_distance_km":1.335,"amap_marker_url":"https://uri.amap.com/marker?position=104.664926,29.527398&name=%E4%B9%96%E4%B9%96%E5%AE%A0%E7%89%A9%E9%97%A8%E8%AF%8A%E9%83%A8&src=vetmap&coordinate=gaode&callnative=1","route_id":"r1","route_name":"第1段"},{"name":"威远县艺天宠物医院","address":"大桥街8号","phone":"15984258212","category":"医疗保健服务;动物医疗场所;宠物诊所","area":"","lng":104.66468,"lat":29.528601,"amap_id":"B0FFJRSN8B","order":6,"prev_distance_km":0.136,"cumulative_distance_km":1.471,"amap_marker_url":"https://uri.amap.com/marker?position=104.664680,29.528601&name=%E5%A8%81%E8%BF%9C%E5%8E%BF%E8%89%BA%E5%A4%A9%E5%AE%A0%E7%89%A9%E5%8C%BB%E9%99%A2&src=vetmap&coordinate=gaode&callnative=1","route_id":"r1","route_name":"第1段"},{"name":"缝纫店","address":"半边街严中老大门附近","phone":"13219582901","category":"医疗保健服务;动物医疗场所;宠物诊所","area":"","lng":104.666852,"lat":29.529743,"amap_id":"B0KG6RYK06","order":7,"prev_distance_km":0.246,"cumulative_distance_km":1.716,"amap_marker_url":"https://uri.amap.com/marker?position=104.666852,29.529743&name=%E7%BC%9D%E7%BA%AB%E5%BA%97&src=vetmap&coordinate=gaode&callnative=1","route_id":"r1","route_name":"第1段"},{"name":"酷狗屋宠物美容(外北路店)","address":"严陵镇外北路95号","phone":"18283235132","category":"医疗保健服务;动物医疗场所;动物医疗场所","area":"","lng":104.669384,"lat":29.532528,"amap_id":"B0FFH0ABSC","order":8,"prev_distance_km":0.395,"cumulative_distance_km":2.111,"amap_marker_url":"https://uri.amap.com/marker?position=104.669384,29.532528&name=%E9%85%B7%E7%8B%97%E5%B1%8B%E5%AE%A0%E7%89%A9%E7%BE%8E%E5%AE%B9%28%E5%A4%96%E5%8C%97%E8%B7%AF%E5%BA%97%29&src=vetmap&coordinate=gaode&callnative=1","route_id":"r1","route_name":"第1段"},{"name":"托尼乔巴宠物医院","address":"锦城路与锦园西路交叉口东100米","phone":"18283298777","category":"医疗保健服务;动物医疗场所;宠物诊所","area":"","lng":104.673673,"lat":29.537318,"amap_id":"B0FFIY8P6Q","order":9,"prev_distance_km":0.675,"cumulative_distance_km":2.786,"amap_marker_url":"https://uri.amap.com/marker?position=104.673673,29.537318&name=%E6%89%98%E5%B0%BC%E4%B9%94%E5%B7%B4%E5%AE%A0%E7%89%A9%E5%8C%BB%E9%99%A2&src=vetmap&coordinate=gaode&callnative=1","route_id":"r1","route_name":"第1段"},{"name":"新场学美畜牧兽医技术服务部","address":"商贸街与威荣路交叉口北100米","phone":"","category":"医疗保健服务;动物医疗场所;兽医站","area":"","lng":104.520615,"lat":29.645152,"amap_id":"B0L0Z6DEKP","order":10,"prev_distance_km":19.047,"cumulative_distance_km":21.834,"amap_marker_url":"https://uri.amap.com/marker?position=104.520615,29.645152&name=%E6%96%B0%E5%9C%BA%E5%AD%A6%E7%BE%8E%E7%95%9C%E7%89%A7%E5%85%BD%E5%8C%BB%E6%8A%80%E6%9C%AF%E6%9C%8D%E5%8A%A1%E9%83%A8&src=vetmap&coordinate=gaode&callnative=1","route_id":"r1","route_name":"第1段"}]}],"rows":[{"name":"动物诊所","address":"严陵镇广场街361号","phone":"15282154337","category":"医疗保健服务;动物医疗场所;宠物诊所","area":"","lng":104.659667,"lat":29.520852,"amap_id":"B0IAKSD23S","order":1,"prev_distance_km":0.0,"cumulative_distance_km":0.0,"amap_marker_url":"https://uri.amap.com/marker?position=104.659667,29.520852&name=%E5%8A%A8%E7%89%A9%E8%AF%8A%E6%89%80&src=vetmap&coordinate=gaode&callnative=1","route_id":"r1","route_name":"第1段","global_order":1},{"name":"威远吉康兽药","address":"顺城街中二段与杉树坳街中段交叉口西80米","phone":"","category":"购物服务;购物相关场所;购物相关场所|医疗保健服务;动物医疗场所;动物医疗场所","area":"","lng":104.663936,"lat":29.521748,"amap_id":"B0KUCSXPKD","order":2,"prev_distance_km":0.425,"cumulative_distance_km":0.425,"amap_marker_url":"https://uri.amap.com/marker?position=104.663936,29.521748&name=%E5%A8%81%E8%BF%9C%E5%90%89%E5%BA%B7%E5%85%BD%E8%8D%AF&src=vetmap&coordinate=gaode&callnative=1","route_id":"r1","route_name":"第1段","global_order":2},{"name":"益家宠物门诊部","address":"顺城街中段59号","phone":"13890516451","category":"医疗保健服务;动物医疗场所;宠物诊所","area":"","lng":104.663353,"lat":29.521921,"amap_id":"B0FFFV5HX2","order":3,"prev_distance_km":0.06,"cumulative_distance_km":0.485,"amap_marker_url":"https://uri.amap.com/marker?position=104.663353,29.521921&name=%E7%9B%8A%E5%AE%B6%E5%AE%A0%E7%89%A9%E9%97%A8%E8%AF%8A%E9%83%A8&src=vetmap&coordinate=gaode&callnative=1","route_id":"r1","route_name":"第1段","global_order":3},{"name":"康明宠物门诊","address":"正西街44-48号","phone":"13608253075","category":"医疗保健服务;动物医疗场所;宠物诊所","area":"","lng":104.661096,"lat":29.524426,"amap_id":"B0FFKJE52P","order":4,"prev_distance_km":0.354,"cumulative_distance_km":0.838,"amap_marker_url":"https://uri.amap.com/marker?position=104.661096,29.524426&name=%E5%BA%B7%E6%98%8E%E5%AE%A0%E7%89%A9%E9%97%A8%E8%AF%8A&src=vetmap&coordinate=gaode&callnative=1","route_id":"r1","route_name":"第1段","global_order":4},{"name":"乖乖宠物门诊部","address":"西街228号","phone":"18980206311","category":"医疗保健服务;动物医疗场所;宠物诊所","area":"","lng":104.664926,"lat":29.527398,"amap_id":"B0FFI6YS9H","order":5,"prev_distance_km":0.497,"cumulative_distance_km":1.335,"amap_marker_url":"https://uri.amap.com/marker?position=104.664926,29.527398&name=%E4%B9%96%E4%B9%96%E5%AE%A0%E7%89%A9%E9%97%A8%E8%AF%8A%E9%83%A8&src=vetmap&coordinate=gaode&callnative=1","route_id":"r1","route_name":"第1段","global_order":5},{"name":"威远县艺天宠物医院","address":"大桥街8号","phone":"15984258212","category":"医疗保健服务;动物医疗场所;宠物诊所","area":"","lng":104.66468,"lat":29.528601,"amap_id":"B0FFJRSN8B","order":6,"prev_distance_km":0.136,"cumulative_distance_km":1.471,"amap_marker_url":"https://uri.amap.com/marker?position=104.664680,29.528601&name=%E5%A8%81%E8%BF%9C%E5%8E%BF%E8%89%BA%E5%A4%A9%E5%AE%A0%E7%89%A9%E5%8C%BB%E9%99%A2&src=vetmap&coordinate=gaode&callnative=1","route_id":"r1","route_name":"第1段","global_order":6},{"name":"缝纫店","address":"半边街严中老大门附近","phone":"13219582901","category":"医疗保健服务;动物医疗场所;宠物诊所","area":"","lng":104.666852,"lat":29.529743,"amap_id":"B0KG6RYK06","order":7,"prev_distance_km":0.246,"cumulative_distance_km":1.716,"amap_marker_url":"https://uri.amap.com/marker?position=104.666852,29.529743&name=%E7%BC%9D%E7%BA%AB%E5%BA%97&src=vetmap&coordinate=gaode&callnative=1","route_id":"r1","route_name":"第1段","global_order":7},{"name":"酷狗屋宠物美容(外北路店)","address":"严陵镇外北路95号","phone":"18283235132","category":"医疗保健服务;动物医疗场所;动物医疗场所","area":"","lng":104.669384,"lat":29.532528,"amap_id":"B0FFH0ABSC","order":8,"prev_distance_km":0.395,"cumulative_distance_km":2.111,"amap_marker_url":"https://uri.amap.com/marker?position=104.669384,29.532528&name=%E9%85%B7%E7%8B%97%E5%B1%8B%E5%AE%A0%E7%89%A9%E7%BE%8E%E5%AE%B9%28%E5%A4%96%E5%8C%97%E8%B7%AF%E5%BA%97%29&src=vetmap&coordinate=gaode&callnative=1","route_id":"r1","route_name":"第1段","global_order":8},{"name":"托尼乔巴宠物医院","address":"锦城路与锦园西路交叉口东100米","phone":"18283298777","category":"医疗保健服务;动物医疗场所;宠物诊所","area":"","lng":104.673673,"lat":29.537318,"amap_id":"B0FFIY8P6Q","order":9,"prev_distance_km":0.675,"cumulative_distance_km":2.786,"amap_marker_url":"https://uri.amap.com/marker?position=104.673673,29.537318&name=%E6%89%98%E5%B0%BC%E4%B9%94%E5%B7%B4%E5%AE%A0%E7%89%A9%E5%8C%BB%E9%99%A2&src=vetmap&coordinate=gaode&callnative=1","route_id":"r1","route_name":"第1段","global_order":9},{"name":"新场学美畜牧兽医技术服务部","address":"商贸街与威荣路交叉口北100米","phone":"","category":"医疗保健服务;动物医疗场所;兽医站","area":"","lng":104.520615,"lat":29.645152,"amap_id":"B0L0Z6DEKP","order":10,"prev_distance_km":19.047,"cumulative_distance_km":21.834,"amap_marker_url":"https://uri.amap.com/marker?position=104.520615,29.645152&name=%E6%96%B0%E5%9C%BA%E5%AD%A6%E7%BE%8E%E7%95%9C%E7%89%A7%E5%85%BD%E5%8C%BB%E6%8A%80%E6%9C%AF%E6%9C%8D%E5%8A%A1%E9%83%A8&src=vetmap&coordinate=gaode&callnative=1","route_id":"r1","route_name":"第1段","global_order":10}]}