{"summary":{"id":"d02084","province":"四川省","city":"德阳市","district":"旌阳区","count":44,"total_distance_km":84.815,"coordinate_system":"GCJ-02 / Amap","generated_at":"2026-05-07 20:21:26"},"rows":[{"name":"德阳市旌阳区黄许镇畜牧兽医站","address":"黄许镇初级中学东北侧200米","phone":"","category":"医疗保健服务;动物医疗场所;兽医站","area":"黄许","lng":104.416266,"lat":31.238377,"amap_id":"B0FFI3WB3U","order":1,"prev_distance_km":0.0,"cumulative_distance_km":0.0,"amap_marker_url":"https://uri.amap.com/marker?position=104.416266,31.238377&name=%E5%BE%B7%E9%98%B3%E5%B8%82%E6%97%8C%E9%98%B3%E5%8C%BA%E9%BB%84%E8%AE%B8%E9%95%87%E7%95%9C%E7%89%A7%E5%85%BD%E5%8C%BB%E7%AB%99&src=vetmap&coordinate=gaode&callnative=1"},{"name":"前进畜牧兽医站","address":"火盛巷与南巷子交叉口北20米","phone":"","category":"医疗保健服务;动物医疗场所;兽医站","area":"","lng":104.357658,"lat":31.246379,"amap_id":"B0ID6988Q4","order":2,"prev_distance_km":5.642,"cumulative_distance_km":5.642,"amap_marker_url":"https://uri.amap.com/marker?position=104.357658,31.246379&name=%E5%89%8D%E8%BF%9B%E7%95%9C%E7%89%A7%E5%85%BD%E5%8C%BB%E7%AB%99&src=vetmap&coordinate=gaode&callnative=1"},{"name":"罗老师兽药店","address":"东岳巷与沿河北路交叉口西南60米","phone":"","category":"医疗保健服务;动物医疗场所;动物医疗场所","area":"","lng":104.356125,"lat":31.250125,"amap_id":"B0LUKRVN7K","order":3,"prev_distance_km":0.441,"cumulative_distance_km":6.084,"amap_marker_url":"https://uri.amap.com/marker?position=104.356125,31.250125&name=%E7%BD%97%E8%80%81%E5%B8%88%E5%85%BD%E8%8D%AF%E5%BA%97&src=vetmap&coordinate=gaode&callnative=1"},{"name":"德阳市旌阳区柏隆镇畜牧兽医站","address":"古什路与广场路交叉口西南260米","phone":"","category":"医疗保健服务;动物医疗场所;兽医站","area":"","lng":104.330925,"lat":31.298125,"amap_id":"B0L29KQ36M","order":4,"prev_distance_km":5.85,"cumulative_distance_km":11.934,"amap_marker_url":"https://uri.amap.com/marker?position=104.330925,31.298125&name=%E5%BE%B7%E9%98%B3%E5%B8%82%E6%97%8C%E9%98%B3%E5%8C%BA%E6%9F%8F%E9%9A%86%E9%95%87%E7%95%9C%E7%89%A7%E5%85%BD%E5%8C%BB%E7%AB%99&src=vetmap&coordinate=gaode&callnative=1"},{"name":"德阳龙祥兽药有限公司","address":"农贸街15号","phone":"0838-3661988","category":"医疗保健服务;动物医疗场所;兽医站","area":"","lng":104.328853,"lat":31.301174,"amap_id":"B0FFF01PIG","order":5,"prev_distance_km":0.392,"cumulative_distance_km":12.326,"amap_marker_url":"https://uri.amap.com/marker?position=104.328853,31.301174&name=%E5%BE%B7%E9%98%B3%E9%BE%99%E7%A5%A5%E5%85%BD%E8%8D%AF%E6%9C%89%E9%99%90%E5%85%AC%E5%8F%B8&src=vetmap&coordinate=gaode&callnative=1"},{"name":"贝贝乐宠物美容店","address":"孝新路与文武路交叉口东北180米","phone":"","category":"医疗保健服务;动物医疗场所;动物医疗场所","area":"","lng":104.286452,"lat":31.250706,"amap_id":"B0LDLNM2TX","order":6,"prev_distance_km":6.909,"cumulative_distance_km":19.235,"amap_marker_url":"https://uri.amap.com/marker?position=104.286452,31.250706&name=%E8%B4%9D%E8%B4%9D%E4%B9%90%E5%AE%A0%E7%89%A9%E7%BE%8E%E5%AE%B9%E5%BA%97&src=vetmap&coordinate=gaode&callnative=1"},{"name":"德阳市旌阳区孝泉镇畜牧兽医站","address":"花行街孝泉镇(东侧)","phone":"18281060616","category":"医疗保健服务;动物医疗场所;兽医站","area":"","lng":104.282487,"lat":31.248349,"amap_id":"B034600734","order":7,"prev_distance_km":0.459,"cumulative_distance_km":19.694,"amap_marker_url":"https://uri.amap.com/marker?position=104.282487,31.248349&name=%E5%BE%B7%E9%98%B3%E5%B8%82%E6%97%8C%E9%98%B3%E5%8C%BA%E5%AD%9D%E6%B3%89%E9%95%87%E7%95%9C%E7%89%A7%E5%85%BD%E5%8C%BB%E7%AB%99&src=vetmap&coordinate=gaode&callnative=1"},{"name":"德阳市旌阳区扬嘉镇畜牧兽医站","address":"花园街与牡丹巷交叉口北20米","phone":"","category":"医疗保健服务;动物医疗场所;兽医站","area":"扬嘉","lng":104.325167,"lat":31.180193,"amap_id":"B034600BY3","order":8,"prev_distance_km":8.597,"cumulative_distance_km":28.291,"amap_marker_url":"https://uri.amap.com/marker?position=104.325167,31.180193&name=%E5%BE%B7%E9%98%B3%E5%B8%82%E6%97%8C%E9%98%B3%E5%8C%BA%E6%89%AC%E5%98%89%E9%95%87%E7%95%9C%E7%89%A7%E5%85%BD%E5%8C%BB%E7%AB%99&src=vetmap&coordinate=gaode&callnative=1"},{"name":"德阳市旌阳区天元镇畜牧兽医站","address":"天元镇天鹏路35号","phone":"","category":"医疗保健服务;动物医疗场所;兽医站","area":"","lng":104.336537,"lat":31.128834,"amap_id":"B0GDROEV6J","order":9,"prev_distance_km":5.812,"cumulative_distance_km":34.103,"amap_marker_url":"https://uri.amap.com/marker?position=104.336537,31.128834&name=%E5%BE%B7%E9%98%B3%E5%B8%82%E6%97%8C%E9%98%B3%E5%8C%BA%E5%A4%A9%E5%85%83%E9%95%87%E7%95%9C%E7%89%A7%E5%85%BD%E5%8C%BB%E7%AB%99&src=vetmap&coordinate=gaode&callnative=1"},{"name":"森林熊宠物医院(医保定点医院)","address":"青山巷6号","phone":"13219870853;19150600853","category":"医疗保健服务;动物医疗场所;宠物诊所","area":"彩泉","lng":104.385618,"lat":31.125532,"amap_id":"B0K165VJG3","order":10,"prev_distance_km":4.686,"cumulative_distance_km":38.789,"amap_marker_url":"https://uri.amap.com/marker?position=104.385618,31.125532&name=%E6%A3%AE%E6%9E%97%E7%86%8A%E5%AE%A0%E7%89%A9%E5%8C%BB%E9%99%A2%28%E5%8C%BB%E4%BF%9D%E5%AE%9A%E7%82%B9%E5%8C%BB%E9%99%A2%29&src=vetmap&coordinate=gaode&callnative=1"},{"name":"吉米动物门诊(绵远街店)","address":"绵远街二段61号","phone":"18990283101","category":"医疗保健服务;动物医疗场所;宠物诊所","area":"彩泉","lng":104.385434,"lat":31.125292,"amap_id":"B03460OEZF","order":11,"prev_distance_km":0.032,"cumulative_distance_km":38.821,"amap_marker_url":"https://uri.amap.com/marker?position=104.385434,31.125292&name=%E5%90%89%E7%B1%B3%E5%8A%A8%E7%89%A9%E9%97%A8%E8%AF%8A%28%E7%BB%B5%E8%BF%9C%E8%A1%97%E5%BA%97%29&src=vetmap&coordinate=gaode&callnative=1"},{"name":"宠立康动物诊所","address":"绵远街与金花巷交叉口东南约80米","phone":"15883823500","category":"医疗保健服务;动物医疗场所;宠物诊所","area":"彩泉","lng":104.385285,"lat":31.125353,"amap_id":"B0I6P1CYID","order":12,"prev_distance_km":0.016,"cumulative_distance_km":38.837,"amap_marker_url":"https://uri.amap.com/marker?position=104.385285,31.125353&name=%E5%AE%A0%E7%AB%8B%E5%BA%B7%E5%8A%A8%E7%89%A9%E8%AF%8A%E6%89%80&src=vetmap&coordinate=gaode&callnative=1"},{"name":"李氏宠物诊所","address":"绵远街2段76号","phone":"18383813332","category":"医疗保健服务;动物医疗场所;宠物诊所","area":"彩泉","lng":104.385059,"lat":31.125213,"amap_id":"B034600AOQ","order":13,"prev_distance_km":0.027,"cumulative_distance_km":38.864,"amap_marker_url":"https://uri.amap.com/marker?position=104.385059,31.125213&name=%E6%9D%8E%E6%B0%8F%E5%AE%A0%E7%89%A9%E8%AF%8A%E6%89%80&src=vetmap&coordinate=gaode&callnative=1"},{"name":"康蕾动物诊所","address":"柳河街99号附22号","phone":"0838-2376048","category":"医疗保健服务;动物医疗场所;宠物诊所","area":"蒙山街","lng":104.395708,"lat":31.114796,"amap_id":"B0FFFS0M0C","order":14,"prev_distance_km":1.539,"cumulative_distance_km":40.403,"amap_marker_url":"https://uri.amap.com/marker?position=104.395708,31.114796&name=%E5%BA%B7%E8%95%BE%E5%8A%A8%E7%89%A9%E8%AF%8A%E6%89%80&src=vetmap&coordinate=gaode&callnative=1"},{"name":"新仁信宠物医院","address":"泰山南路二段172-174号","phone":"0838-3033120;18608109136","category":"医疗保健服务;动物医疗场所;宠物诊所","area":"泰山南路二段","lng":104.392412,"lat":31.110759,"amap_id":"B0FFI7JJ5B","order":15,"prev_distance_km":0.548,"cumulative_distance_km":40.95,"amap_marker_url":"https://uri.amap.com/marker?position=104.392412,31.110759&name=%E6%96%B0%E4%BB%81%E4%BF%A1%E5%AE%A0%E7%89%A9%E5%8C%BB%E9%99%A2&src=vetmap&coordinate=gaode&callnative=1"},{"name":"谐和动物医院(泰山南路店)","address":"泰山南路二段232号","phone":"18160190616","category":"医疗保健服务;动物医疗场所;宠物诊所","area":"珠江西路","lng":104.391967,"lat":31.109581,"amap_id":"B0FFHRHFIK","order":16,"prev_distance_km":0.138,"cumulative_distance_km":41.088,"amap_marker_url":"https://uri.amap.com/marker?position=104.391967,31.109581&name=%E8%B0%90%E5%92%8C%E5%8A%A8%E7%89%A9%E5%8C%BB%E9%99%A2%28%E6%B3%B0%E5%B1%B1%E5%8D%97%E8%B7%AF%E5%BA%97%29&src=vetmap&coordinate=gaode&callnative=1"},{"name":"宠胖胖动物医院(德阳店)","address":"雅河路与蒙山街交叉口西北100米","phone":"0838-2401616;17761438224","category":"医疗保健服务;动物医疗场所;宠物诊所","area":"","lng":104.393852,"lat":31.106064,"amap_id":"B0KAMU5TX6","order":17,"prev_distance_km":0.43,"cumulative_distance_km":41.518,"amap_marker_url":"https://uri.amap.com/marker?position=104.393852,31.106064&name=%E5%AE%A0%E8%83%96%E8%83%96%E5%8A%A8%E7%89%A9%E5%8C%BB%E9%99%A2%28%E5%BE%B7%E9%98%B3%E5%BA%97%29&src=vetmap&coordinate=gaode&callnative=1"},{"name":"旌喃宠物诊所","address":"昙花巷43号","phone":"0838-2650148","category":"医疗保健服务;动物医疗场所;宠物诊所","area":"","lng":104.380297,"lat":31.100288,"amap_id":"B0L6S5WOOH","order":18,"prev_distance_km":1.442,"cumulative_distance_km":42.96,"amap_marker_url":"https://uri.amap.com/marker?position=104.380297,31.100288&name=%E6%97%8C%E5%96%83%E5%AE%A0%E7%89%A9%E8%AF%8A%E6%89%80&src=vetmap&coordinate=gaode&callnative=1"},{"name":"宠健动物(美容)","address":"南城品创1栋1层1-5号","phone":"18881020301","category":"医疗保健服务;动物医疗场所;宠物诊所","area":"","lng":104.379247,"lat":31.097917,"amap_id":"B0M6CATVKR","order":19,"prev_distance_km":0.282,"cumulative_distance_km":43.242,"amap_marker_url":"https://uri.amap.com/marker?position=104.379247,31.097917&name=%E5%AE%A0%E5%81%A5%E5%8A%A8%E7%89%A9%28%E7%BE%8E%E5%AE%B9%29&src=vetmap&coordinate=gaode&callnative=1"},{"name":"仁爱伴侣动物医院","address":"蓥华南路三段466号凯丽景湖东门2号门","phone":"0838-3851932;18111519228","category":"医疗保健服务;动物医疗场所;宠物诊所","area":"","lng":104.395275,"lat":31.096825,"amap_id":"B0FFJW8KS4","order":20,"prev_distance_km":1.531,"cumulative_distance_km":44.773,"amap_marker_url":"https://uri.amap.com/marker?position=104.395275,31.096825&name=%E4%BB%81%E7%88%B1%E4%BC%B4%E4%BE%A3%E5%8A%A8%E7%89%A9%E5%8C%BB%E9%99%A2&src=vetmap&coordinate=gaode&callnative=1"},{"name":"宠儿健宠物门诊(德阳保利香雪国际店)","address":"镜泊湖69号保利国际B区栋1","phone":"18090038385","category":"医疗保健服务;动物医疗场所;宠物诊所","area":"","lng":104.411872,"lat":31.071335,"amap_id":"B0H1AM4BAO","order":21,"prev_distance_km":3.245,"cumulative_distance_km":48.018,"amap_marker_url":"https://uri.amap.com/marker?position=104.411872,31.071335&name=%E5%AE%A0%E5%84%BF%E5%81%A5%E5%AE%A0%E7%89%A9%E9%97%A8%E8%AF%8A%28%E5%BE%B7%E9%98%B3%E4%BF%9D%E5%88%A9%E9%A6%99%E9%9B%AA%E5%9B%BD%E9%99%85%E5%BA%97%29&src=vetmap&coordinate=gaode&callnative=1"},{"name":"倍亿动物诊疗","address":"鞍山路枕水小镇三期6号楼1层4号","phone":"15883899197","category":"医疗保健服务;动物医疗场所;宠物诊所","area":"","lng":104.403372,"lat":31.09844,"amap_id":"B0LGLZNLAU","order":22,"prev_distance_km":3.121,"cumulative_distance_km":51.139,"amap_marker_url":"https://uri.amap.com/marker?position=104.403372,31.098440&name=%E5%80%8D%E4%BA%BF%E5%8A%A8%E7%89%A9%E8%AF%8A%E7%96%97&src=vetmap&coordinate=gaode&callnative=1"},{"name":"宝之林宠物中心医院24小时(电信广场店)","address":"庐山南路二段369号","phone":"0838-2911225;19981689120","category":"医疗保健服务;动物医疗场所;宠物诊所","area":"庐山南路","lng":104.411996,"lat":31.109219,"amap_id":"B0FFG4PVGN","order":23,"prev_distance_km":1.453,"cumulative_distance_km":52.592,"amap_marker_url":"https://uri.amap.com/marker?position=104.411996,31.109219&name=%E5%AE%9D%E4%B9%8B%E6%9E%97%E5%AE%A0%E7%89%A9%E4%B8%AD%E5%BF%83%E5%8C%BB%E9%99%A224%E5%B0%8F%E6%97%B6%28%E7%94%B5%E4%BF%A1%E5%B9%BF%E5%9C%BA%E5%BA%97%29&src=vetmap&coordinate=gaode&callnative=1"},{"name":"御宠宠物诊所","address":"庐山南路二段218号(汇乐馨苑门面)","phone":"0838-2587876;15181006290","category":"医疗保健服务;动物医疗场所;宠物诊所","area":"庐山南路","lng":104.410054,"lat":31.111682,"amap_id":"B0FFG6LEPH","order":24,"prev_distance_km":0.33,"cumulative_distance_km":52.922,"amap_marker_url":"https://uri.amap.com/marker?position=104.410054,31.111682&name=%E5%BE%A1%E5%AE%A0%E5%AE%A0%E7%89%A9%E8%AF%8A%E6%89%80&src=vetmap&coordinate=gaode&callnative=1"},{"name":"贝宠宠物诊所","address":"庐山南路二段179-181","phone":"15984918941","category":"医疗保健服务;动物医疗场所;宠物诊所","area":"庐山南路","lng":104.410693,"lat":31.114497,"amap_id":"B0FFFEEZ49","order":25,"prev_distance_km":0.319,"cumulative_distance_km":53.241,"amap_marker_url":"https://uri.amap.com/marker?position=104.410693,31.114497&name=%E8%B4%9D%E5%AE%A0%E5%AE%A0%E7%89%A9%E8%AF%8A%E6%89%80&src=vetmap&coordinate=gaode&callnative=1"},{"name":"宠一生宠物诊所","address":"岷江东路113号","phone":"15881473399","category":"医疗保健服务;动物医疗场所;宠物诊所","area":"庐山南路","lng":104.407512,"lat":31.11987,"amap_id":"B0G0R4AR8L","order":26,"prev_distance_km":0.67,"cumulative_distance_km":53.911,"amap_marker_url":"https://uri.amap.com/marker?position=104.407512,31.119870&name=%E5%AE%A0%E4%B8%80%E7%94%9F%E5%AE%A0%E7%89%A9%E8%AF%8A%E6%89%80&src=vetmap&coordinate=gaode&callnative=1"},{"name":"宠儿健动物门诊","address":"中亚云岸西门旁","phone":"","category":"医疗保健服务;动物医疗场所;宠物诊所","area":"岷江东路","lng":104.415025,"lat":31.118975,"amap_id":"B0L29KQPXH","order":27,"prev_distance_km":0.722,"cumulative_distance_km":54.633,"amap_marker_url":"https://uri.amap.com/marker?position=104.415025,31.118975&name=%E5%AE%A0%E5%84%BF%E5%81%A5%E5%8A%A8%E7%89%A9%E9%97%A8%E8%AF%8A&src=vetmap&coordinate=gaode&callnative=1"},{"name":"阳阳宠物","address":"鸿源小区南门东60米","phone":"","category":"医疗保健服务;动物医疗场所;动物医疗场所|购物服务;专卖店;宠物用品店","area":"岷江东路","lng":104.416225,"lat":31.121725,"amap_id":"B0L6RN29OM","order":28,"prev_distance_km":0.326,"cumulative_distance_km":54.959,"amap_marker_url":"https://uri.amap.com/marker?position=104.416225,31.121725&name=%E9%98%B3%E9%98%B3%E5%AE%A0%E7%89%A9&src=vetmap&coordinate=gaode&callnative=1"},{"name":"佩恩宠物医院","address":"乐山街与凯江路一段交叉口南100米","phone":"18090034399","category":"医疗保健服务;动物医疗场所;宠物诊所","area":"旌东","lng":104.406928,"lat":31.13137,"amap_id":"B0JUDZ2P06","order":29,"prev_distance_km":1.39,"cumulative_distance_km":56.35,"amap_marker_url":"https://uri.amap.com/marker?position=104.406928,31.131370&name=%E4%BD%A9%E6%81%A9%E5%AE%A0%E7%89%A9%E5%8C%BB%E9%99%A2&src=vetmap&coordinate=gaode&callnative=1"},{"name":"关爱五星宠物医疗小动物中西医结合治疗中心","address":"","phone":"0838-2505622;13990275707","category":"医疗保健服务;动物医疗场所;宠物诊所","area":"南泉路","lng":104.413815,"lat":31.135909,"amap_id":"B0K1F7KJ4I","order":30,"prev_distance_km":0.827,"cumulative_distance_km":57.177,"amap_marker_url":"https://uri.amap.com/marker?position=104.413815,31.135909&name=%E5%85%B3%E7%88%B1%E4%BA%94%E6%98%9F%E5%AE%A0%E7%89%A9%E5%8C%BB%E7%96%97%E5%B0%8F%E5%8A%A8%E7%89%A9%E4%B8%AD%E8%A5%BF%E5%8C%BB%E7%BB%93%E5%90%88%E6%B2%BB%E7%96%97%E4%B8%AD%E5%BF%83&src=vetmap&coordinate=gaode&callnative=1"},{"name":"贝康宠物诊所","address":"瑞河街29号","phone":"18016106767","category":"医疗保健服务;动物医疗场所;宠物诊所","area":"龙泉山北路","lng":104.408567,"lat":31.142059,"amap_id":"B0FFIFFNJ5","order":31,"prev_distance_km":0.847,"cumulative_distance_km":58.024,"amap_marker_url":"https://uri.amap.com/marker?position=104.408567,31.142059&name=%E8%B4%9D%E5%BA%B7%E5%AE%A0%E7%89%A9%E8%AF%8A%E6%89%80&src=vetmap&coordinate=gaode&callnative=1"},{"name":"祥兽动物医院","address":"峨眉北路一段311号","phone":"19180108120","category":"医疗保健服务;动物医疗场所;宠物诊所","area":"宝山街","lng":104.404837,"lat":31.142376,"amap_id":"B0K3GS8LXQ","order":32,"prev_distance_km":0.357,"cumulative_distance_km":58.381,"amap_marker_url":"https://uri.amap.com/marker?position=104.404837,31.142376&name=%E7%A5%A5%E5%85%BD%E5%8A%A8%E7%89%A9%E5%8C%BB%E9%99%A2&src=vetmap&coordinate=gaode&callnative=1"},{"name":"冬洋宠物医院","address":"黄河西路33号","phone":"0838-3866788","category":"医疗保健服务;动物医疗场所;宠物诊所","area":"黄河新村","lng":104.399228,"lat":31.14559,"amap_id":"B0FFKT75UR","order":33,"prev_distance_km":0.642,"cumulative_distance_km":59.023,"amap_marker_url":"https://uri.amap.com/marker?position=104.399228,31.145590&name=%E5%86%AC%E6%B4%8B%E5%AE%A0%E7%89%A9%E5%8C%BB%E9%99%A2&src=vetmap&coordinate=gaode&callnative=1"},{"name":"萌宠造型","address":"黄河西路301号","phone":"18161312600;19981091197","category":"医疗保健服务;动物医疗场所;动物医疗场所","area":"黄河新村","lng":104.390383,"lat":31.148497,"amap_id":"B0FFIF3LU4","order":34,"prev_distance_km":0.902,"cumulative_distance_km":59.925,"amap_marker_url":"https://uri.amap.com/marker?position=104.390383,31.148497&name=%E8%90%8C%E5%AE%A0%E9%80%A0%E5%9E%8B&src=vetmap&coordinate=gaode&callnative=1"},{"name":"宠儿健动物诊所(宠物美容 孝感分院)","address":"中央公园3栋102-103号","phone":"17790117193","category":"医疗保健服务;动物医疗场所;宠物诊所","area":"","lng":104.376146,"lat":31.171942,"amap_id":"B0KUGAAW2D","order":35,"prev_distance_km":2.938,"cumulative_distance_km":62.863,"amap_marker_url":"https://uri.amap.com/marker?position=104.376146,31.171942&name=%E5%AE%A0%E5%84%BF%E5%81%A5%E5%8A%A8%E7%89%A9%E8%AF%8A%E6%89%80%28%E5%AE%A0%E7%89%A9%E7%BE%8E%E5%AE%B9%20%E5%AD%9D%E6%84%9F%E5%88%86%E9%99%A2%29&src=vetmap&coordinate=gaode&callnative=1"},{"name":"欧佩德动物医院(急重症转诊中心)","address":"蓥华北路三段8号(世家·雍锦湖北门停车场入口右侧)","phone":"17780216886","category":"医疗保健服务;动物医疗场所;宠物诊所","area":"","lng":104.403529,"lat":31.161926,"amap_id":"B0KUDC8FUB","order":36,"prev_distance_km":2.833,"cumulative_distance_km":65.696,"amap_marker_url":"https://uri.amap.com/marker?position=104.403529,31.161926&name=%E6%AC%A7%E4%BD%A9%E5%BE%B7%E5%8A%A8%E7%89%A9%E5%8C%BB%E9%99%A2%28%E6%80%A5%E9%87%8D%E7%97%87%E8%BD%AC%E8%AF%8A%E4%B8%AD%E5%BF%83%29&src=vetmap&coordinate=gaode&callnative=1"},{"name":"古氏宝之林宠物医院(转诊中心)","address":"泾河路16号、18号、20号","phone":"0838-2229120","category":"医疗保健服务;动物医疗场所;宠物诊所","area":"峨眉山北路","lng":104.409802,"lat":31.146579,"amap_id":"B0FFJIUWCS","order":37,"prev_distance_km":1.808,"cumulative_distance_km":67.504,"amap_marker_url":"https://uri.amap.com/marker?position=104.409802,31.146579&name=%E5%8F%A4%E6%B0%8F%E5%AE%9D%E4%B9%8B%E6%9E%97%E5%AE%A0%E7%89%A9%E5%8C%BB%E9%99%A2%28%E8%BD%AC%E8%AF%8A%E4%B8%AD%E5%BF%83%29&src=vetmap&coordinate=gaode&callnative=1"},{"name":"德阳市旌阳区毛孩子动物医院","address":"天山北路618号(黄金海岸东南门)","phone":"13158675461","category":"医疗保健服务;动物医疗场所;宠物诊所","area":"庐山北路","lng":104.410457,"lat":31.145769,"amap_id":"B0LRRMJVPP","order":38,"prev_distance_km":0.11,"cumulative_distance_km":67.613,"amap_marker_url":"https://uri.amap.com/marker?position=104.410457,31.145769&name=%E5%BE%B7%E9%98%B3%E5%B8%82%E6%97%8C%E9%98%B3%E5%8C%BA%E6%AF%9B%E5%AD%A9%E5%AD%90%E5%8A%A8%E7%89%A9%E5%8C%BB%E9%99%A2&src=vetmap&coordinate=gaode&callnative=1"},{"name":"宠儿健动物门诊","address":"庐山北路526-530号","phone":"18090038385","category":"医疗保健服务;动物医疗场所;宠物诊所","area":"庐山北路","lng":104.413383,"lat":31.143853,"amap_id":"B0FFGS1UMC","order":39,"prev_distance_km":0.351,"cumulative_distance_km":67.964,"amap_marker_url":"https://uri.amap.com/marker?position=104.413383,31.143853&name=%E5%AE%A0%E5%84%BF%E5%81%A5%E5%8A%A8%E7%89%A9%E9%97%A8%E8%AF%8A&src=vetmap&coordinate=gaode&callnative=1"},{"name":"迪瑞思宠物中心医院","address":"沁河路与峨眉山路交汇处(山海天一期)","phone":"0838-3662888;19950630090","category":"医疗保健服务;动物医疗场所;宠物诊所","area":"峨眉山北路","lng":104.410108,"lat":31.152111,"amap_id":"B0FFKPE8OS","order":40,"prev_distance_km":0.97,"cumulative_distance_km":68.934,"amap_marker_url":"https://uri.amap.com/marker?position=104.410108,31.152111&name=%E8%BF%AA%E7%91%9E%E6%80%9D%E5%AE%A0%E7%89%A9%E4%B8%AD%E5%BF%83%E5%8C%BB%E9%99%A2&src=vetmap&coordinate=gaode&callnative=1"},{"name":"宠儿健宠物美容","address":"庐山北路一段8号万达广场F2层","phone":"18090038385","category":"医疗保健服务;动物医疗场所;宠物诊所","area":"","lng":104.41312,"lat":31.162431,"amap_id":"B0FFLPAB0L","order":41,"prev_distance_km":1.183,"cumulative_distance_km":70.117,"amap_marker_url":"https://uri.amap.com/marker?position=104.413120,31.162431&name=%E5%AE%A0%E5%84%BF%E5%81%A5%E5%AE%A0%E7%89%A9%E7%BE%8E%E5%AE%B9&src=vetmap&coordinate=gaode&callnative=1"},{"name":"宠儿健宠物门诊美容(旌湖上境分院)","address":"施阳区天山北路一段369号碧桂园•旌湖上境北区8栋1层1-7号","phone":"18581567502","category":"医疗保健服务;动物医疗场所;宠物诊所","area":"","lng":104.417332,"lat":31.168536,"amap_id":"B0J1SKKBGH","order":42,"prev_distance_km":0.788,"cumulative_distance_km":70.905,"amap_marker_url":"https://uri.amap.com/marker?position=104.417332,31.168536&name=%E5%AE%A0%E5%84%BF%E5%81%A5%E5%AE%A0%E7%89%A9%E9%97%A8%E8%AF%8A%E7%BE%8E%E5%AE%B9%28%E6%97%8C%E6%B9%96%E4%B8%8A%E5%A2%83%E5%88%86%E9%99%A2%29&src=vetmap&coordinate=gaode&callnative=1"},{"name":"德阳市旌阳区双东镇畜牧兽医站","address":"中国邮政储蓄银行对面","phone":"","category":"医疗保健服务;动物医疗场所;兽医站","area":"","lng":104.487262,"lat":31.170575,"amap_id":"B0FFGXAACT","order":43,"prev_distance_km":6.657,"cumulative_distance_km":77.562,"amap_marker_url":"https://uri.amap.com/marker?position=104.487262,31.170575&name=%E5%BE%B7%E9%98%B3%E5%B8%82%E6%97%8C%E9%98%B3%E5%8C%BA%E5%8F%8C%E4%B8%9C%E9%95%87%E7%95%9C%E7%89%A7%E5%85%BD%E5%8C%BB%E7%AB%99&src=vetmap&coordinate=gaode&callnative=1"},{"name":"德阳市旌阳区新中镇畜牧兽医站","address":"茶店下街西南侧","phone":"","category":"医疗保健服务;动物医疗场所;兽医站","area":"","lng":104.537682,"lat":31.121659,"amap_id":"B0G0VZK7GD","order":44,"prev_distance_km":7.253,"cumulative_distance_km":84.815,"amap_marker_url":"https://uri.amap.com/marker?position=104.537682,31.121659&name=%E5%BE%B7%E9%98%B3%E5%B8%82%E6%97%8C%E9%98%B3%E5%8C%BA%E6%96%B0%E4%B8%AD%E9%95%87%E7%95%9C%E7%89%A7%E5%85%BD%E5%8C%BB%E7%AB%99&src=vetmap&coordinate=gaode&callnative=1"}]}