{"summary":{"id":"d02049","province":"四川省","city":"南充市","district":"西充县","count":5,"route_count":1,"max_route_clinics":5,"total_distance_km":3.603,"coordinate_system":"GCJ-02 / Amap","generated_at":"2026-05-08 19:40:26"},"routes":[{"id":"r1","name":"第1段","count":5,"total_distance_km":3.603,"rows":[{"name":"将军桥宠物门诊","address":"晋城镇莲花路","phone":"13629053953;18090563455","category":"医疗保健服务;动物医疗场所;宠物诊所","area":"","lng":105.898789,"lat":30.98639,"amap_id":"B0FFHMMVH6","order":1,"prev_distance_km":0.0,"cumulative_distance_km":0.0,"amap_marker_url":"https://uri.amap.com/marker?position=105.898789,30.986390&name=%E5%B0%86%E5%86%9B%E6%A1%A5%E5%AE%A0%E7%89%A9%E9%97%A8%E8%AF%8A&src=vetmap&coordinate=gaode&callnative=1","route_id":"r1","route_name":"第1段"},{"name":"川北动物","address":"晋城镇县人民医院老大门旁","phone":"","category":"医疗保健服务;动物医疗场所;宠物诊所","area":"","lng":105.890076,"lat":30.991212,"amap_id":"B0JKNMG3UN","order":2,"prev_distance_km":0.989,"cumulative_distance_km":0.989,"amap_marker_url":"https://uri.amap.com/marker?position=105.890076,30.991212&name=%E5%B7%9D%E5%8C%97%E5%8A%A8%E7%89%A9&src=vetmap&coordinate=gaode&callnative=1","route_id":"r1","route_name":"第1段"},{"name":"博爱动物医院(春天路)","address":"九洲春天春天路149号","phone":"","category":"医疗保健服务;动物医疗场所;宠物诊所","area":"","lng":105.891555,"lat":30.994003,"amap_id":"B0FFG8QQBM","order":3,"prev_distance_km":0.341,"cumulative_distance_km":1.329,"amap_marker_url":"https://uri.amap.com/marker?position=105.891555,30.994003&name=%E5%8D%9A%E7%88%B1%E5%8A%A8%E7%89%A9%E5%8C%BB%E9%99%A2%28%E6%98%A5%E5%A4%A9%E8%B7%AF%29&src=vetmap&coordinate=gaode&callnative=1","route_id":"r1","route_name":"第1段"},{"name":"康立动物医院","address":"文博街113号","phone":"17765588500","category":"医疗保健服务;动物医疗场所;宠物诊所","area":"","lng":105.905174,"lat":30.999495,"amap_id":"B0L13L7QVS","order":4,"prev_distance_km":1.435,"cumulative_distance_km":2.764,"amap_marker_url":"https://uri.amap.com/marker?position=105.905174,30.999495&name=%E5%BA%B7%E7%AB%8B%E5%8A%A8%E7%89%A9%E5%8C%BB%E9%99%A2&src=vetmap&coordinate=gaode&callnative=1","route_id":"r1","route_name":"第1段"},{"name":"老疯杨动物医院","address":"晋城镇城北新区北城天街蛙秘书后面","phone":"0817-4222199;13458206864","category":"医疗保健服务;动物医疗场所;宠物诊所","area":"","lng":105.900575,"lat":31.005925,"amap_id":"B0FFJCS1QF","order":5,"prev_distance_km":0.839,"cumulative_distance_km":3.603,"amap_marker_url":"https://uri.amap.com/marker?position=105.900575,31.005925&name=%E8%80%81%E7%96%AF%E6%9D%A8%E5%8A%A8%E7%89%A9%E5%8C%BB%E9%99%A2&src=vetmap&coordinate=gaode&callnative=1","route_id":"r1","route_name":"第1段"}]}],"rows":[{"name":"将军桥宠物门诊","address":"晋城镇莲花路","phone":"13629053953;18090563455","category":"医疗保健服务;动物医疗场所;宠物诊所","area":"","lng":105.898789,"lat":30.98639,"amap_id":"B0FFHMMVH6","order":1,"prev_distance_km":0.0,"cumulative_distance_km":0.0,"amap_marker_url":"https://uri.amap.com/marker?position=105.898789,30.986390&name=%E5%B0%86%E5%86%9B%E6%A1%A5%E5%AE%A0%E7%89%A9%E9%97%A8%E8%AF%8A&src=vetmap&coordinate=gaode&callnative=1","route_id":"r1","route_name":"第1段","global_order":1},{"name":"川北动物","address":"晋城镇县人民医院老大门旁","phone":"","category":"医疗保健服务;动物医疗场所;宠物诊所","area":"","lng":105.890076,"lat":30.991212,"amap_id":"B0JKNMG3UN","order":2,"prev_distance_km":0.989,"cumulative_distance_km":0.989,"amap_marker_url":"https://uri.amap.com/marker?position=105.890076,30.991212&name=%E5%B7%9D%E5%8C%97%E5%8A%A8%E7%89%A9&src=vetmap&coordinate=gaode&callnative=1","route_id":"r1","route_name":"第1段","global_order":2},{"name":"博爱动物医院(春天路)","address":"九洲春天春天路149号","phone":"","category":"医疗保健服务;动物医疗场所;宠物诊所","area":"","lng":105.891555,"lat":30.994003,"amap_id":"B0FFG8QQBM","order":3,"prev_distance_km":0.341,"cumulative_distance_km":1.329,"amap_marker_url":"https://uri.amap.com/marker?position=105.891555,30.994003&name=%E5%8D%9A%E7%88%B1%E5%8A%A8%E7%89%A9%E5%8C%BB%E9%99%A2%28%E6%98%A5%E5%A4%A9%E8%B7%AF%29&src=vetmap&coordinate=gaode&callnative=1","route_id":"r1","route_name":"第1段","global_order":3},{"name":"康立动物医院","address":"文博街113号","phone":"17765588500","category":"医疗保健服务;动物医疗场所;宠物诊所","area":"","lng":105.905174,"lat":30.999495,"amap_id":"B0L13L7QVS","order":4,"prev_distance_km":1.435,"cumulative_distance_km":2.764,"amap_marker_url":"https://uri.amap.com/marker?position=105.905174,30.999495&name=%E5%BA%B7%E7%AB%8B%E5%8A%A8%E7%89%A9%E5%8C%BB%E9%99%A2&src=vetmap&coordinate=gaode&callnative=1","route_id":"r1","route_name":"第1段","global_order":4},{"name":"老疯杨动物医院","address":"晋城镇城北新区北城天街蛙秘书后面","phone":"0817-4222199;13458206864","category":"医疗保健服务;动物医疗场所;宠物诊所","area":"","lng":105.900575,"lat":31.005925,"amap_id":"B0FFJCS1QF","order":5,"prev_distance_km":0.839,"cumulative_distance_km":3.603,"amap_marker_url":"https://uri.amap.com/marker?position=105.900575,31.005925&name=%E8%80%81%E7%96%AF%E6%9D%A8%E5%8A%A8%E7%89%A9%E5%8C%BB%E9%99%A2&src=vetmap&coordinate=gaode&callnative=1","route_id":"r1","route_name":"第1段","global_order":5}]}