{"summary":{"id":"d02068","province":"四川省","city":"广元市","district":"利州区","count":13,"route_count":1,"max_route_clinics":13,"total_distance_km":57.025,"coordinate_system":"GCJ-02 / Amap","generated_at":"2026-05-07 21:26:39"},"routes":[{"id":"r1","name":"第1段","count":13,"total_distance_km":57.025,"rows":[{"name":"仁芝和宠物中心医院","address":"利州东路,滨河北路港湾国际1栋1-2,1-3,1-15号","phone":"0839-3505120","category":"医疗保健服务;动物医疗场所;宠物诊所","area":"","lng":105.881485,"lat":32.427353,"amap_id":"B0J3AZLYQH","order":1,"prev_distance_km":0.0,"cumulative_distance_km":0.0,"amap_marker_url":"https://uri.amap.com/marker?position=105.881485,32.427353&name=%E4%BB%81%E8%8A%9D%E5%92%8C%E5%AE%A0%E7%89%A9%E4%B8%AD%E5%BF%83%E5%8C%BB%E9%99%A2&src=vetmap&coordinate=gaode&callnative=1","route_id":"r1","route_name":"第1段"},{"name":"毛毛牛的宠物医院","address":"万达中央华城翠云路9号","phone":"0839-3273722;18048113623","category":"医疗保健服务;动物医疗场所;宠物诊所","area":"","lng":105.880161,"lat":32.424524,"amap_id":"B0FFIXKPBV","order":2,"prev_distance_km":0.338,"cumulative_distance_km":0.338,"amap_marker_url":"https://uri.amap.com/marker?position=105.880161,32.424524&name=%E6%AF%9B%E6%AF%9B%E7%89%9B%E7%9A%84%E5%AE%A0%E7%89%A9%E5%8C%BB%E9%99%A2&src=vetmap&coordinate=gaode&callnative=1","route_id":"r1","route_name":"第1段"},{"name":"嘉禾动物医院","address":"东坝万源托斯卡纳B3-1东侧","phone":"15183932923;18657473897","category":"医疗保健服务;动物医疗场所;宠物诊所","area":"","lng":105.864537,"lat":32.420026,"amap_id":"B0IAD5X9XD","order":3,"prev_distance_km":1.549,"cumulative_distance_km":1.888,"amap_marker_url":"https://uri.amap.com/marker?position=105.864537,32.420026&name=%E5%98%89%E7%A6%BE%E5%8A%A8%E7%89%A9%E5%8C%BB%E9%99%A2&src=vetmap&coordinate=gaode&callnative=1","route_id":"r1","route_name":"第1段"},{"name":"宠医堂动物医院","address":"东坝河阳路1号(城市花园1期西门靠河边)","phone":"0839-3230123;13378172229","category":"医疗保健服务;动物医疗场所;宠物诊所","area":"","lng":105.855368,"lat":32.423595,"amap_id":"B0FFH6KECZ","order":4,"prev_distance_km":0.948,"cumulative_distance_km":2.835,"amap_marker_url":"https://uri.amap.com/marker?position=105.855368,32.423595&name=%E5%AE%A0%E5%8C%BB%E5%A0%82%E5%8A%A8%E7%89%A9%E5%8C%BB%E9%99%A2&src=vetmap&coordinate=gaode&callnative=1","route_id":"r1","route_name":"第1段"},{"name":"宠逸堂宠物医院·神经外科·骨科·高级影像中心(广元总院)","address":"利州东路中段牡丹花园二期一幢1-5号","phone":"0839-3366331","category":"医疗保健服务;动物医疗场所;宠物诊所","area":"","lng":105.855937,"lat":32.431963,"amap_id":"B0GRVAT8X9","order":5,"prev_distance_km":0.932,"cumulative_distance_km":3.767,"amap_marker_url":"https://uri.amap.com/marker?position=105.855937,32.431963&name=%E5%AE%A0%E9%80%B8%E5%A0%82%E5%AE%A0%E7%89%A9%E5%8C%BB%E9%99%A2%C2%B7%E7%A5%9E%E7%BB%8F%E5%A4%96%E7%A7%91%C2%B7%E9%AA%A8%E7%A7%91%C2%B7%E9%AB%98%E7%BA%A7%E5%BD%B1%E5%83%8F%E4%B8%AD%E5%BF%83%28%E5%B9%BF%E5%85%83%E6%80%BB%E9%99%A2%29&src=vetmap&coordinate=gaode&callnative=1","route_id":"r1","route_name":"第1段"},{"name":"星萌动物诊所","address":"东坝办事处东屏社区三组广元天立学府华庭地下室商业服务35号","phone":"18188358792","category":"医疗保健服务;动物医疗场所;宠物诊所","area":"","lng":105.845981,"lat":32.456139,"amap_id":"B0L3Z50FFB","order":6,"prev_distance_km":2.846,"cumulative_distance_km":6.613,"amap_marker_url":"https://uri.amap.com/marker?position=105.845981,32.456139&name=%E6%98%9F%E8%90%8C%E5%8A%A8%E7%89%A9%E8%AF%8A%E6%89%80&src=vetmap&coordinate=gaode&callnative=1","route_id":"r1","route_name":"第1段"},{"name":"好主人动物医院","address":"利州东路一段平桥街70号(凤琴岚湾东门二楼)","phone":"0839-3269151;13219497400","category":"医疗保健服务;动物医疗场所;宠物诊所","area":"","lng":105.83593,"lat":32.4367,"amap_id":"B03470042N","order":7,"prev_distance_km":2.358,"cumulative_distance_km":8.972,"amap_marker_url":"https://uri.amap.com/marker?position=105.835930,32.436700&name=%E5%A5%BD%E4%B8%BB%E4%BA%BA%E5%8A%A8%E7%89%A9%E5%8C%BB%E9%99%A2&src=vetmap&coordinate=gaode&callnative=1","route_id":"r1","route_name":"第1段"},{"name":"爱美森宠物诊所","address":"建设路41号","phone":"13684338621","category":"医疗保健服务;动物医疗场所;宠物诊所","area":"","lng":105.826102,"lat":32.444392,"amap_id":"B03470022I","order":8,"prev_distance_km":1.258,"cumulative_distance_km":10.23,"amap_marker_url":"https://uri.amap.com/marker?position=105.826102,32.444392&name=%E7%88%B1%E7%BE%8E%E6%A3%AE%E5%AE%A0%E7%89%A9%E8%AF%8A%E6%89%80&src=vetmap&coordinate=gaode&callnative=1","route_id":"r1","route_name":"第1段"},{"name":"吉祥宠物(海星巷)","address":"上河街花鸟市场入口","phone":"13981280631","category":"医疗保健服务;动物医疗场所;动物医疗场所","area":"","lng":105.818852,"lat":32.437657,"amap_id":"B0FFFK3LOH","order":9,"prev_distance_km":1.012,"cumulative_distance_km":11.241,"amap_marker_url":"https://uri.amap.com/marker?position=105.818852,32.437657&name=%E5%90%89%E7%A5%A5%E5%AE%A0%E7%89%A9%28%E6%B5%B7%E6%98%9F%E5%B7%B7%29&src=vetmap&coordinate=gaode&callnative=1","route_id":"r1","route_name":"第1段"},{"name":"毛毛牛的宠物医院(老城分院)","address":"嘉陵街道古渡路44号","phone":"0839-3273705","category":"医疗保健服务;动物医疗场所;宠物诊所","area":"","lng":105.822785,"lat":32.430214,"amap_id":"B0FFJM2R5O","order":10,"prev_distance_km":0.906,"cumulative_distance_km":12.148,"amap_marker_url":"https://uri.amap.com/marker?position=105.822785,32.430214&name=%E6%AF%9B%E6%AF%9B%E7%89%9B%E7%9A%84%E5%AE%A0%E7%89%A9%E5%8C%BB%E9%99%A2%28%E8%80%81%E5%9F%8E%E5%88%86%E9%99%A2%29&src=vetmap&coordinate=gaode&callnative=1","route_id":"r1","route_name":"第1段"},{"name":"伴侣动物诊所","address":"郑州路659号","phone":"18981289183","category":"医疗保健服务;动物医疗场所;宠物诊所","area":"","lng":105.822324,"lat":32.425679,"amap_id":"B0FFFK3JKJ","order":11,"prev_distance_km":0.506,"cumulative_distance_km":12.654,"amap_marker_url":"https://uri.amap.com/marker?position=105.822324,32.425679&name=%E4%BC%B4%E4%BE%A3%E5%8A%A8%E7%89%A9%E8%AF%8A%E6%89%80&src=vetmap&coordinate=gaode&callnative=1","route_id":"r1","route_name":"第1段"},{"name":"宝轮唯爱动物诊所","address":"宝轮镇澳援大道190号","phone":"15983910922;18284984131","category":"医疗保健服务;动物医疗场所;宠物诊所","area":"","lng":105.649369,"lat":32.376519,"amap_id":"B0HAODI7HX","order":12,"prev_distance_km":17.133,"cumulative_distance_km":29.787,"amap_marker_url":"https://uri.amap.com/marker?position=105.649369,32.376519&name=%E5%AE%9D%E8%BD%AE%E5%94%AF%E7%88%B1%E5%8A%A8%E7%89%A9%E8%AF%8A%E6%89%80&src=vetmap&coordinate=gaode&callnative=1","route_id":"r1","route_name":"第1段"},{"name":"腾达兽医","address":"白龙湖社区居委会东北侧60米","phone":"","category":"医疗保健服务;动物医疗场所;宠物诊所","area":"","lng":105.556819,"lat":32.60871,"amap_id":"B0K2ACXK5U","order":13,"prev_distance_km":27.239,"cumulative_distance_km":57.025,"amap_marker_url":"https://uri.amap.com/marker?position=105.556819,32.608710&name=%E8%85%BE%E8%BE%BE%E5%85%BD%E5%8C%BB&src=vetmap&coordinate=gaode&callnative=1","route_id":"r1","route_name":"第1段"}]}],"rows":[{"name":"仁芝和宠物中心医院","address":"利州东路,滨河北路港湾国际1栋1-2,1-3,1-15号","phone":"0839-3505120","category":"医疗保健服务;动物医疗场所;宠物诊所","area":"","lng":105.881485,"lat":32.427353,"amap_id":"B0J3AZLYQH","order":1,"prev_distance_km":0.0,"cumulative_distance_km":0.0,"amap_marker_url":"https://uri.amap.com/marker?position=105.881485,32.427353&name=%E4%BB%81%E8%8A%9D%E5%92%8C%E5%AE%A0%E7%89%A9%E4%B8%AD%E5%BF%83%E5%8C%BB%E9%99%A2&src=vetmap&coordinate=gaode&callnative=1","route_id":"r1","route_name":"第1段","global_order":1},{"name":"毛毛牛的宠物医院","address":"万达中央华城翠云路9号","phone":"0839-3273722;18048113623","category":"医疗保健服务;动物医疗场所;宠物诊所","area":"","lng":105.880161,"lat":32.424524,"amap_id":"B0FFIXKPBV","order":2,"prev_distance_km":0.338,"cumulative_distance_km":0.338,"amap_marker_url":"https://uri.amap.com/marker?position=105.880161,32.424524&name=%E6%AF%9B%E6%AF%9B%E7%89%9B%E7%9A%84%E5%AE%A0%E7%89%A9%E5%8C%BB%E9%99%A2&src=vetmap&coordinate=gaode&callnative=1","route_id":"r1","route_name":"第1段","global_order":2},{"name":"嘉禾动物医院","address":"东坝万源托斯卡纳B3-1东侧","phone":"15183932923;18657473897","category":"医疗保健服务;动物医疗场所;宠物诊所","area":"","lng":105.864537,"lat":32.420026,"amap_id":"B0IAD5X9XD","order":3,"prev_distance_km":1.549,"cumulative_distance_km":1.888,"amap_marker_url":"https://uri.amap.com/marker?position=105.864537,32.420026&name=%E5%98%89%E7%A6%BE%E5%8A%A8%E7%89%A9%E5%8C%BB%E9%99%A2&src=vetmap&coordinate=gaode&callnative=1","route_id":"r1","route_name":"第1段","global_order":3},{"name":"宠医堂动物医院","address":"东坝河阳路1号(城市花园1期西门靠河边)","phone":"0839-3230123;13378172229","category":"医疗保健服务;动物医疗场所;宠物诊所","area":"","lng":105.855368,"lat":32.423595,"amap_id":"B0FFH6KECZ","order":4,"prev_distance_km":0.948,"cumulative_distance_km":2.835,"amap_marker_url":"https://uri.amap.com/marker?position=105.855368,32.423595&name=%E5%AE%A0%E5%8C%BB%E5%A0%82%E5%8A%A8%E7%89%A9%E5%8C%BB%E9%99%A2&src=vetmap&coordinate=gaode&callnative=1","route_id":"r1","route_name":"第1段","global_order":4},{"name":"宠逸堂宠物医院·神经外科·骨科·高级影像中心(广元总院)","address":"利州东路中段牡丹花园二期一幢1-5号","phone":"0839-3366331","category":"医疗保健服务;动物医疗场所;宠物诊所","area":"","lng":105.855937,"lat":32.431963,"amap_id":"B0GRVAT8X9","order":5,"prev_distance_km":0.932,"cumulative_distance_km":3.767,"amap_marker_url":"https://uri.amap.com/marker?position=105.855937,32.431963&name=%E5%AE%A0%E9%80%B8%E5%A0%82%E5%AE%A0%E7%89%A9%E5%8C%BB%E9%99%A2%C2%B7%E7%A5%9E%E7%BB%8F%E5%A4%96%E7%A7%91%C2%B7%E9%AA%A8%E7%A7%91%C2%B7%E9%AB%98%E7%BA%A7%E5%BD%B1%E5%83%8F%E4%B8%AD%E5%BF%83%28%E5%B9%BF%E5%85%83%E6%80%BB%E9%99%A2%29&src=vetmap&coordinate=gaode&callnative=1","route_id":"r1","route_name":"第1段","global_order":5},{"name":"星萌动物诊所","address":"东坝办事处东屏社区三组广元天立学府华庭地下室商业服务35号","phone":"18188358792","category":"医疗保健服务;动物医疗场所;宠物诊所","area":"","lng":105.845981,"lat":32.456139,"amap_id":"B0L3Z50FFB","order":6,"prev_distance_km":2.846,"cumulative_distance_km":6.613,"amap_marker_url":"https://uri.amap.com/marker?position=105.845981,32.456139&name=%E6%98%9F%E8%90%8C%E5%8A%A8%E7%89%A9%E8%AF%8A%E6%89%80&src=vetmap&coordinate=gaode&callnative=1","route_id":"r1","route_name":"第1段","global_order":6},{"name":"好主人动物医院","address":"利州东路一段平桥街70号(凤琴岚湾东门二楼)","phone":"0839-3269151;13219497400","category":"医疗保健服务;动物医疗场所;宠物诊所","area":"","lng":105.83593,"lat":32.4367,"amap_id":"B03470042N","order":7,"prev_distance_km":2.358,"cumulative_distance_km":8.972,"amap_marker_url":"https://uri.amap.com/marker?position=105.835930,32.436700&name=%E5%A5%BD%E4%B8%BB%E4%BA%BA%E5%8A%A8%E7%89%A9%E5%8C%BB%E9%99%A2&src=vetmap&coordinate=gaode&callnative=1","route_id":"r1","route_name":"第1段","global_order":7},{"name":"爱美森宠物诊所","address":"建设路41号","phone":"13684338621","category":"医疗保健服务;动物医疗场所;宠物诊所","area":"","lng":105.826102,"lat":32.444392,"amap_id":"B03470022I","order":8,"prev_distance_km":1.258,"cumulative_distance_km":10.23,"amap_marker_url":"https://uri.amap.com/marker?position=105.826102,32.444392&name=%E7%88%B1%E7%BE%8E%E6%A3%AE%E5%AE%A0%E7%89%A9%E8%AF%8A%E6%89%80&src=vetmap&coordinate=gaode&callnative=1","route_id":"r1","route_name":"第1段","global_order":8},{"name":"吉祥宠物(海星巷)","address":"上河街花鸟市场入口","phone":"13981280631","category":"医疗保健服务;动物医疗场所;动物医疗场所","area":"","lng":105.818852,"lat":32.437657,"amap_id":"B0FFFK3LOH","order":9,"prev_distance_km":1.012,"cumulative_distance_km":11.241,"amap_marker_url":"https://uri.amap.com/marker?position=105.818852,32.437657&name=%E5%90%89%E7%A5%A5%E5%AE%A0%E7%89%A9%28%E6%B5%B7%E6%98%9F%E5%B7%B7%29&src=vetmap&coordinate=gaode&callnative=1","route_id":"r1","route_name":"第1段","global_order":9},{"name":"毛毛牛的宠物医院(老城分院)","address":"嘉陵街道古渡路44号","phone":"0839-3273705","category":"医疗保健服务;动物医疗场所;宠物诊所","area":"","lng":105.822785,"lat":32.430214,"amap_id":"B0FFJM2R5O","order":10,"prev_distance_km":0.906,"cumulative_distance_km":12.148,"amap_marker_url":"https://uri.amap.com/marker?position=105.822785,32.430214&name=%E6%AF%9B%E6%AF%9B%E7%89%9B%E7%9A%84%E5%AE%A0%E7%89%A9%E5%8C%BB%E9%99%A2%28%E8%80%81%E5%9F%8E%E5%88%86%E9%99%A2%29&src=vetmap&coordinate=gaode&callnative=1","route_id":"r1","route_name":"第1段","global_order":10},{"name":"伴侣动物诊所","address":"郑州路659号","phone":"18981289183","category":"医疗保健服务;动物医疗场所;宠物诊所","area":"","lng":105.822324,"lat":32.425679,"amap_id":"B0FFFK3JKJ","order":11,"prev_distance_km":0.506,"cumulative_distance_km":12.654,"amap_marker_url":"https://uri.amap.com/marker?position=105.822324,32.425679&name=%E4%BC%B4%E4%BE%A3%E5%8A%A8%E7%89%A9%E8%AF%8A%E6%89%80&src=vetmap&coordinate=gaode&callnative=1","route_id":"r1","route_name":"第1段","global_order":11},{"name":"宝轮唯爱动物诊所","address":"宝轮镇澳援大道190号","phone":"15983910922;18284984131","category":"医疗保健服务;动物医疗场所;宠物诊所","area":"","lng":105.649369,"lat":32.376519,"amap_id":"B0HAODI7HX","order":12,"prev_distance_km":17.133,"cumulative_distance_km":29.787,"amap_marker_url":"https://uri.amap.com/marker?position=105.649369,32.376519&name=%E5%AE%9D%E8%BD%AE%E5%94%AF%E7%88%B1%E5%8A%A8%E7%89%A9%E8%AF%8A%E6%89%80&src=vetmap&coordinate=gaode&callnative=1","route_id":"r1","route_name":"第1段","global_order":12},{"name":"腾达兽医","address":"白龙湖社区居委会东北侧60米","phone":"","category":"医疗保健服务;动物医疗场所;宠物诊所","area":"","lng":105.556819,"lat":32.60871,"amap_id":"B0K2ACXK5U","order":13,"prev_distance_km":27.239,"cumulative_distance_km":57.025,"amap_marker_url":"https://uri.amap.com/marker?position=105.556819,32.608710&name=%E8%85%BE%E8%BE%BE%E5%85%BD%E5%8C%BB&src=vetmap&coordinate=gaode&callnative=1","route_id":"r1","route_name":"第1段","global_order":13}]}