{"summary":{"id":"d02096","province":"四川省","city":"成都市","district":"简阳市","count":18,"route_count":1,"max_route_clinics":18,"total_distance_km":72.23,"coordinate_system":"GCJ-02 / Amap","generated_at":"2026-05-08 19:40:56"},"routes":[{"id":"r1","name":"第1段","count":18,"total_distance_km":72.23,"rows":[{"name":"简阳心连心宠物诊所","address":"罄和家园1号楼1层5号","phone":"028-27556511;15775196981;18708202628","category":"医疗保健服务;动物医疗场所;宠物诊所","area":"","lng":104.557969,"lat":30.387359,"amap_id":"B0FFHDRMJ4","order":1,"prev_distance_km":0.0,"cumulative_distance_km":0.0,"amap_marker_url":"https://uri.amap.com/marker?position=104.557969,30.387359&name=%E7%AE%80%E9%98%B3%E5%BF%83%E8%BF%9E%E5%BF%83%E5%AE%A0%E7%89%A9%E8%AF%8A%E6%89%80&src=vetmap&coordinate=gaode&callnative=1","route_id":"r1","route_name":"第1段"},{"name":"鹿鸣·动物医院","address":"蓝鲸路111号","phone":"19981290348","category":"医疗保健服务;动物医疗场所;宠物诊所","area":"","lng":104.555052,"lat":30.392166,"amap_id":"B0G3VREGVQ","order":2,"prev_distance_km":0.603,"cumulative_distance_km":0.603,"amap_marker_url":"https://uri.amap.com/marker?position=104.555052,30.392166&name=%E9%B9%BF%E9%B8%A3%C2%B7%E5%8A%A8%E7%89%A9%E5%8C%BB%E9%99%A2&src=vetmap&coordinate=gaode&callnative=1","route_id":"r1","route_name":"第1段"},{"name":"友爱宠物医院","address":"滨江路三段92号","phone":"18908084949","category":"医疗保健服务;动物医疗场所;宠物诊所","area":"","lng":104.55462,"lat":30.392651,"amap_id":"B0FFF64RSS","order":3,"prev_distance_km":0.068,"cumulative_distance_km":0.671,"amap_marker_url":"https://uri.amap.com/marker?position=104.554620,30.392651&name=%E5%8F%8B%E7%88%B1%E5%AE%A0%E7%89%A9%E5%8C%BB%E9%99%A2&src=vetmap&coordinate=gaode&callnative=1","route_id":"r1","route_name":"第1段"},{"name":"好主人宠物诊所","address":"新民后街60-64号","phone":"13408229835","category":"医疗保健服务;动物医疗场所;宠物诊所","area":"","lng":104.545442,"lat":30.390782,"amap_id":"B0FFHLQBKH","order":4,"prev_distance_km":0.905,"cumulative_distance_km":1.576,"amap_marker_url":"https://uri.amap.com/marker?position=104.545442,30.390782&name=%E5%A5%BD%E4%B8%BB%E4%BA%BA%E5%AE%A0%E7%89%A9%E8%AF%8A%E6%89%80&src=vetmap&coordinate=gaode&callnative=1","route_id":"r1","route_name":"第1段"},{"name":"佳贝爱动物医院","address":"东滨路南段112号","phone":"19102686189;19382122554","category":"医疗保健服务;动物医疗场所;宠物诊所","area":"","lng":104.550638,"lat":30.399985,"amap_id":"B0K3CZ7KAA","order":5,"prev_distance_km":1.138,"cumulative_distance_km":2.714,"amap_marker_url":"https://uri.amap.com/marker?position=104.550638,30.399985&name=%E4%BD%B3%E8%B4%9D%E7%88%B1%E5%8A%A8%E7%89%A9%E5%8C%BB%E9%99%A2&src=vetmap&coordinate=gaode&callnative=1","route_id":"r1","route_name":"第1段"},{"name":"瑞派宠爱畜科简阳分院","address":"射洪坝街道办事处射洪坝社区河东花园B区6号楼1-6号","phone":"028-27751577","category":"医疗保健服务;动物医疗场所;宠物诊所","area":"","lng":104.550684,"lat":30.40719,"amap_id":"B0FFK87NQ0","order":6,"prev_distance_km":0.801,"cumulative_distance_km":3.515,"amap_marker_url":"https://uri.amap.com/marker?position=104.550684,30.407190&name=%E7%91%9E%E6%B4%BE%E5%AE%A0%E7%88%B1%E7%95%9C%E7%A7%91%E7%AE%80%E9%98%B3%E5%88%86%E9%99%A2&src=vetmap&coordinate=gaode&callnative=1","route_id":"r1","route_name":"第1段"},{"name":"仁爱宠物诊所(学园路店)","address":"石桥镇学园路德盛·香江逸景附近","phone":"13882983281","category":"医疗保健服务;动物医疗场所;宠物诊所","area":"","lng":104.544652,"lat":30.40392,"amap_id":"B0FFGJETCH","order":7,"prev_distance_km":0.683,"cumulative_distance_km":4.198,"amap_marker_url":"https://uri.amap.com/marker?position=104.544652,30.403920&name=%E4%BB%81%E7%88%B1%E5%AE%A0%E7%89%A9%E8%AF%8A%E6%89%80%28%E5%AD%A6%E5%9B%AD%E8%B7%AF%E5%BA%97%29&src=vetmap&coordinate=gaode&callnative=1","route_id":"r1","route_name":"第1段"},{"name":"相伴宠物医院","address":"鸿雁路109号1层","phone":"18080535034","category":"医疗保健服务;动物医疗场所;宠物诊所","area":"","lng":104.54066,"lat":30.411036,"amap_id":"B0LGJLLR2R","order":8,"prev_distance_km":0.879,"cumulative_distance_km":5.078,"amap_marker_url":"https://uri.amap.com/marker?position=104.540660,30.411036&name=%E7%9B%B8%E4%BC%B4%E5%AE%A0%E7%89%A9%E5%8C%BB%E9%99%A2&src=vetmap&coordinate=gaode&callnative=1","route_id":"r1","route_name":"第1段"},{"name":"米亚宠物诊所","address":"万安三峰·悠山郡东南门西南60米","phone":"18328383525","category":"医疗保健服务;动物医疗场所;宠物诊所","area":"","lng":104.537961,"lat":30.411193,"amap_id":"B0FFL8XW6M","order":9,"prev_distance_km":0.259,"cumulative_distance_km":5.337,"amap_marker_url":"https://uri.amap.com/marker?position=104.537961,30.411193&name=%E7%B1%B3%E4%BA%9A%E5%AE%A0%E7%89%A9%E8%AF%8A%E6%89%80&src=vetmap&coordinate=gaode&callnative=1","route_id":"r1","route_name":"第1段"},{"name":"友爱宠物医院(城东新区店)","address":"射洪坝街解放路9号11号","phone":"19113982430","category":"医疗保健服务;动物医疗场所;宠物诊所","area":"","lng":104.527346,"lat":30.417006,"amap_id":"B0KAGLOS2Y","order":10,"prev_distance_km":1.206,"cumulative_distance_km":6.543,"amap_marker_url":"https://uri.amap.com/marker?position=104.527346,30.417006&name=%E5%8F%8B%E7%88%B1%E5%AE%A0%E7%89%A9%E5%8C%BB%E9%99%A2%28%E5%9F%8E%E4%B8%9C%E6%96%B0%E5%8C%BA%E5%BA%97%29&src=vetmap&coordinate=gaode&callnative=1","route_id":"r1","route_name":"第1段"},{"name":"友特宠物诊所","address":"蜀阳路256号依云谷友特宠物诊所","phone":"13350874762","category":"医疗保健服务;动物医疗场所;宠物诊所","area":"","lng":104.52974,"lat":30.419501,"amap_id":"B0G0V5ML4P","order":11,"prev_distance_km":0.36,"cumulative_distance_km":6.903,"amap_marker_url":"https://uri.amap.com/marker?position=104.529740,30.419501&name=%E5%8F%8B%E7%89%B9%E5%AE%A0%E7%89%A9%E8%AF%8A%E6%89%80&src=vetmap&coordinate=gaode&callnative=1","route_id":"r1","route_name":"第1段"},{"name":"鹿鸣动物医院(河东店)","address":"雄州大道北段131号(云樾名邸)11栋2楼4.5号","phone":"028-27725566;13550324857","category":"医疗保健服务;动物医疗场所;宠物诊所","area":"","lng":104.53179,"lat":30.421385,"amap_id":"B0JGPDK9FU","order":12,"prev_distance_km":0.287,"cumulative_distance_km":7.19,"amap_marker_url":"https://uri.amap.com/marker?position=104.531790,30.421385&name=%E9%B9%BF%E9%B8%A3%E5%8A%A8%E7%89%A9%E5%8C%BB%E9%99%A2%28%E6%B2%B3%E4%B8%9C%E5%BA%97%29&src=vetmap&coordinate=gaode&callnative=1","route_id":"r1","route_name":"第1段"},{"name":"萌宠堡宠物诊所","address":"锦官天辰东壮路204号","phone":"","category":"医疗保健服务;动物医疗场所;宠物诊所","area":"","lng":104.544602,"lat":30.426976,"amap_id":"B0L65MNMME","order":13,"prev_distance_km":1.377,"cumulative_distance_km":8.567,"amap_marker_url":"https://uri.amap.com/marker?position=104.544602,30.426976&name=%E8%90%8C%E5%AE%A0%E5%A0%A1%E5%AE%A0%E7%89%A9%E8%AF%8A%E6%89%80&src=vetmap&coordinate=gaode&callnative=1","route_id":"r1","route_name":"第1段"},{"name":"简阳市兽药经营部","address":"银杏中街与186县道交叉口西南160米","phone":"","category":"购物服务;购物相关场所;购物相关场所|医疗保健服务;动物医疗场所;动物医疗场所","area":"东部新区","lng":104.455775,"lat":30.535975,"amap_id":"B0M6PRN1O8","order":14,"prev_distance_km":14.811,"cumulative_distance_km":23.377,"amap_marker_url":"https://uri.amap.com/marker?position=104.455775,30.535975&name=%E7%AE%80%E9%98%B3%E5%B8%82%E5%85%BD%E8%8D%AF%E7%BB%8F%E8%90%A5%E9%83%A8&src=vetmap&coordinate=gaode&callnative=1","route_id":"r1","route_name":"第1段"},{"name":"贾家街道畜牧兽医站","address":"贾家街道光明路","phone":"","category":"医疗保健服务;动物医疗场所;兽医站","area":"","lng":104.357248,"lat":30.431488,"amap_id":"B0340013WE","order":15,"prev_distance_km":14.971,"cumulative_distance_km":38.348,"amap_marker_url":"https://uri.amap.com/marker?position=104.357248,30.431488&name=%E8%B4%BE%E5%AE%B6%E8%A1%97%E9%81%93%E7%95%9C%E7%89%A7%E5%85%BD%E5%8C%BB%E7%AB%99&src=vetmap&coordinate=gaode&callnative=1","route_id":"r1","route_name":"第1段"},{"name":"铭俯动物诊所","address":"三岔镇湖滨横街56-58号","phone":"15828268120","category":"医疗保健服务;动物医疗场所;宠物诊所","area":"","lng":104.298486,"lat":30.298791,"amap_id":"B0HGTH8S9R","order":16,"prev_distance_km":15.796,"cumulative_distance_km":54.144,"amap_marker_url":"https://uri.amap.com/marker?position=104.298486,30.298791&name=%E9%93%AD%E4%BF%AF%E5%8A%A8%E7%89%A9%E8%AF%8A%E6%89%80&src=vetmap&coordinate=gaode&callnative=1","route_id":"r1","route_name":"第1段"},{"name":"成都东羿动物医院","address":"草池街道裕民街440号","phone":"13778486322","category":"医疗保健服务;动物医疗场所;宠物诊所","area":"东部新区","lng":104.40241,"lat":30.32672,"amap_id":"B0KKZZEWXH","order":17,"prev_distance_km":10.448,"cumulative_distance_km":64.592,"amap_marker_url":"https://uri.amap.com/marker?position=104.402410,30.326720&name=%E6%88%90%E9%83%BD%E4%B8%9C%E7%BE%BF%E5%8A%A8%E7%89%A9%E5%8C%BB%E9%99%A2&src=vetmap&coordinate=gaode&callnative=1","route_id":"r1","route_name":"第1段"},{"name":"畜牧兽医","address":"芦葭桥街与芦新街交叉口南20米","phone":"","category":"医疗保健服务;动物医疗场所;兽医站","area":"东部新区","lng":104.446428,"lat":30.269504,"amap_id":"B0HG6HELJM","order":18,"prev_distance_km":7.638,"cumulative_distance_km":72.23,"amap_marker_url":"https://uri.amap.com/marker?position=104.446428,30.269504&name=%E7%95%9C%E7%89%A7%E5%85%BD%E5%8C%BB&src=vetmap&coordinate=gaode&callnative=1","route_id":"r1","route_name":"第1段"}]}],"rows":[{"name":"简阳心连心宠物诊所","address":"罄和家园1号楼1层5号","phone":"028-27556511;15775196981;18708202628","category":"医疗保健服务;动物医疗场所;宠物诊所","area":"","lng":104.557969,"lat":30.387359,"amap_id":"B0FFHDRMJ4","order":1,"prev_distance_km":0.0,"cumulative_distance_km":0.0,"amap_marker_url":"https://uri.amap.com/marker?position=104.557969,30.387359&name=%E7%AE%80%E9%98%B3%E5%BF%83%E8%BF%9E%E5%BF%83%E5%AE%A0%E7%89%A9%E8%AF%8A%E6%89%80&src=vetmap&coordinate=gaode&callnative=1","route_id":"r1","route_name":"第1段","global_order":1},{"name":"鹿鸣·动物医院","address":"蓝鲸路111号","phone":"19981290348","category":"医疗保健服务;动物医疗场所;宠物诊所","area":"","lng":104.555052,"lat":30.392166,"amap_id":"B0G3VREGVQ","order":2,"prev_distance_km":0.603,"cumulative_distance_km":0.603,"amap_marker_url":"https://uri.amap.com/marker?position=104.555052,30.392166&name=%E9%B9%BF%E9%B8%A3%C2%B7%E5%8A%A8%E7%89%A9%E5%8C%BB%E9%99%A2&src=vetmap&coordinate=gaode&callnative=1","route_id":"r1","route_name":"第1段","global_order":2},{"name":"友爱宠物医院","address":"滨江路三段92号","phone":"18908084949","category":"医疗保健服务;动物医疗场所;宠物诊所","area":"","lng":104.55462,"lat":30.392651,"amap_id":"B0FFF64RSS","order":3,"prev_distance_km":0.068,"cumulative_distance_km":0.671,"amap_marker_url":"https://uri.amap.com/marker?position=104.554620,30.392651&name=%E5%8F%8B%E7%88%B1%E5%AE%A0%E7%89%A9%E5%8C%BB%E9%99%A2&src=vetmap&coordinate=gaode&callnative=1","route_id":"r1","route_name":"第1段","global_order":3},{"name":"好主人宠物诊所","address":"新民后街60-64号","phone":"13408229835","category":"医疗保健服务;动物医疗场所;宠物诊所","area":"","lng":104.545442,"lat":30.390782,"amap_id":"B0FFHLQBKH","order":4,"prev_distance_km":0.905,"cumulative_distance_km":1.576,"amap_marker_url":"https://uri.amap.com/marker?position=104.545442,30.390782&name=%E5%A5%BD%E4%B8%BB%E4%BA%BA%E5%AE%A0%E7%89%A9%E8%AF%8A%E6%89%80&src=vetmap&coordinate=gaode&callnative=1","route_id":"r1","route_name":"第1段","global_order":4},{"name":"佳贝爱动物医院","address":"东滨路南段112号","phone":"19102686189;19382122554","category":"医疗保健服务;动物医疗场所;宠物诊所","area":"","lng":104.550638,"lat":30.399985,"amap_id":"B0K3CZ7KAA","order":5,"prev_distance_km":1.138,"cumulative_distance_km":2.714,"amap_marker_url":"https://uri.amap.com/marker?position=104.550638,30.399985&name=%E4%BD%B3%E8%B4%9D%E7%88%B1%E5%8A%A8%E7%89%A9%E5%8C%BB%E9%99%A2&src=vetmap&coordinate=gaode&callnative=1","route_id":"r1","route_name":"第1段","global_order":5},{"name":"瑞派宠爱畜科简阳分院","address":"射洪坝街道办事处射洪坝社区河东花园B区6号楼1-6号","phone":"028-27751577","category":"医疗保健服务;动物医疗场所;宠物诊所","area":"","lng":104.550684,"lat":30.40719,"amap_id":"B0FFK87NQ0","order":6,"prev_distance_km":0.801,"cumulative_distance_km":3.515,"amap_marker_url":"https://uri.amap.com/marker?position=104.550684,30.407190&name=%E7%91%9E%E6%B4%BE%E5%AE%A0%E7%88%B1%E7%95%9C%E7%A7%91%E7%AE%80%E9%98%B3%E5%88%86%E9%99%A2&src=vetmap&coordinate=gaode&callnative=1","route_id":"r1","route_name":"第1段","global_order":6},{"name":"仁爱宠物诊所(学园路店)","address":"石桥镇学园路德盛·香江逸景附近","phone":"13882983281","category":"医疗保健服务;动物医疗场所;宠物诊所","area":"","lng":104.544652,"lat":30.40392,"amap_id":"B0FFGJETCH","order":7,"prev_distance_km":0.683,"cumulative_distance_km":4.198,"amap_marker_url":"https://uri.amap.com/marker?position=104.544652,30.403920&name=%E4%BB%81%E7%88%B1%E5%AE%A0%E7%89%A9%E8%AF%8A%E6%89%80%28%E5%AD%A6%E5%9B%AD%E8%B7%AF%E5%BA%97%29&src=vetmap&coordinate=gaode&callnative=1","route_id":"r1","route_name":"第1段","global_order":7},{"name":"相伴宠物医院","address":"鸿雁路109号1层","phone":"18080535034","category":"医疗保健服务;动物医疗场所;宠物诊所","area":"","lng":104.54066,"lat":30.411036,"amap_id":"B0LGJLLR2R","order":8,"prev_distance_km":0.879,"cumulative_distance_km":5.078,"amap_marker_url":"https://uri.amap.com/marker?position=104.540660,30.411036&name=%E7%9B%B8%E4%BC%B4%E5%AE%A0%E7%89%A9%E5%8C%BB%E9%99%A2&src=vetmap&coordinate=gaode&callnative=1","route_id":"r1","route_name":"第1段","global_order":8},{"name":"米亚宠物诊所","address":"万安三峰·悠山郡东南门西南60米","phone":"18328383525","category":"医疗保健服务;动物医疗场所;宠物诊所","area":"","lng":104.537961,"lat":30.411193,"amap_id":"B0FFL8XW6M","order":9,"prev_distance_km":0.259,"cumulative_distance_km":5.337,"amap_marker_url":"https://uri.amap.com/marker?position=104.537961,30.411193&name=%E7%B1%B3%E4%BA%9A%E5%AE%A0%E7%89%A9%E8%AF%8A%E6%89%80&src=vetmap&coordinate=gaode&callnative=1","route_id":"r1","route_name":"第1段","global_order":9},{"name":"友爱宠物医院(城东新区店)","address":"射洪坝街解放路9号11号","phone":"19113982430","category":"医疗保健服务;动物医疗场所;宠物诊所","area":"","lng":104.527346,"lat":30.417006,"amap_id":"B0KAGLOS2Y","order":10,"prev_distance_km":1.206,"cumulative_distance_km":6.543,"amap_marker_url":"https://uri.amap.com/marker?position=104.527346,30.417006&name=%E5%8F%8B%E7%88%B1%E5%AE%A0%E7%89%A9%E5%8C%BB%E9%99%A2%28%E5%9F%8E%E4%B8%9C%E6%96%B0%E5%8C%BA%E5%BA%97%29&src=vetmap&coordinate=gaode&callnative=1","route_id":"r1","route_name":"第1段","global_order":10},{"name":"友特宠物诊所","address":"蜀阳路256号依云谷友特宠物诊所","phone":"13350874762","category":"医疗保健服务;动物医疗场所;宠物诊所","area":"","lng":104.52974,"lat":30.419501,"amap_id":"B0G0V5ML4P","order":11,"prev_distance_km":0.36,"cumulative_distance_km":6.903,"amap_marker_url":"https://uri.amap.com/marker?position=104.529740,30.419501&name=%E5%8F%8B%E7%89%B9%E5%AE%A0%E7%89%A9%E8%AF%8A%E6%89%80&src=vetmap&coordinate=gaode&callnative=1","route_id":"r1","route_name":"第1段","global_order":11},{"name":"鹿鸣动物医院(河东店)","address":"雄州大道北段131号(云樾名邸)11栋2楼4.5号","phone":"028-27725566;13550324857","category":"医疗保健服务;动物医疗场所;宠物诊所","area":"","lng":104.53179,"lat":30.421385,"amap_id":"B0JGPDK9FU","order":12,"prev_distance_km":0.287,"cumulative_distance_km":7.19,"amap_marker_url":"https://uri.amap.com/marker?position=104.531790,30.421385&name=%E9%B9%BF%E9%B8%A3%E5%8A%A8%E7%89%A9%E5%8C%BB%E9%99%A2%28%E6%B2%B3%E4%B8%9C%E5%BA%97%29&src=vetmap&coordinate=gaode&callnative=1","route_id":"r1","route_name":"第1段","global_order":12},{"name":"萌宠堡宠物诊所","address":"锦官天辰东壮路204号","phone":"","category":"医疗保健服务;动物医疗场所;宠物诊所","area":"","lng":104.544602,"lat":30.426976,"amap_id":"B0L65MNMME","order":13,"prev_distance_km":1.377,"cumulative_distance_km":8.567,"amap_marker_url":"https://uri.amap.com/marker?position=104.544602,30.426976&name=%E8%90%8C%E5%AE%A0%E5%A0%A1%E5%AE%A0%E7%89%A9%E8%AF%8A%E6%89%80&src=vetmap&coordinate=gaode&callnative=1","route_id":"r1","route_name":"第1段","global_order":13},{"name":"简阳市兽药经营部","address":"银杏中街与186县道交叉口西南160米","phone":"","category":"购物服务;购物相关场所;购物相关场所|医疗保健服务;动物医疗场所;动物医疗场所","area":"东部新区","lng":104.455775,"lat":30.535975,"amap_id":"B0M6PRN1O8","order":14,"prev_distance_km":14.811,"cumulative_distance_km":23.377,"amap_marker_url":"https://uri.amap.com/marker?position=104.455775,30.535975&name=%E7%AE%80%E9%98%B3%E5%B8%82%E5%85%BD%E8%8D%AF%E7%BB%8F%E8%90%A5%E9%83%A8&src=vetmap&coordinate=gaode&callnative=1","route_id":"r1","route_name":"第1段","global_order":14},{"name":"贾家街道畜牧兽医站","address":"贾家街道光明路","phone":"","category":"医疗保健服务;动物医疗场所;兽医站","area":"","lng":104.357248,"lat":30.431488,"amap_id":"B0340013WE","order":15,"prev_distance_km":14.971,"cumulative_distance_km":38.348,"amap_marker_url":"https://uri.amap.com/marker?position=104.357248,30.431488&name=%E8%B4%BE%E5%AE%B6%E8%A1%97%E9%81%93%E7%95%9C%E7%89%A7%E5%85%BD%E5%8C%BB%E7%AB%99&src=vetmap&coordinate=gaode&callnative=1","route_id":"r1","route_name":"第1段","global_order":15},{"name":"铭俯动物诊所","address":"三岔镇湖滨横街56-58号","phone":"15828268120","category":"医疗保健服务;动物医疗场所;宠物诊所","area":"","lng":104.298486,"lat":30.298791,"amap_id":"B0HGTH8S9R","order":16,"prev_distance_km":15.796,"cumulative_distance_km":54.144,"amap_marker_url":"https://uri.amap.com/marker?position=104.298486,30.298791&name=%E9%93%AD%E4%BF%AF%E5%8A%A8%E7%89%A9%E8%AF%8A%E6%89%80&src=vetmap&coordinate=gaode&callnative=1","route_id":"r1","route_name":"第1段","global_order":16},{"name":"成都东羿动物医院","address":"草池街道裕民街440号","phone":"13778486322","category":"医疗保健服务;动物医疗场所;宠物诊所","area":"东部新区","lng":104.40241,"lat":30.32672,"amap_id":"B0KKZZEWXH","order":17,"prev_distance_km":10.448,"cumulative_distance_km":64.592,"amap_marker_url":"https://uri.amap.com/marker?position=104.402410,30.326720&name=%E6%88%90%E9%83%BD%E4%B8%9C%E7%BE%BF%E5%8A%A8%E7%89%A9%E5%8C%BB%E9%99%A2&src=vetmap&coordinate=gaode&callnative=1","route_id":"r1","route_name":"第1段","global_order":17},{"name":"畜牧兽医","address":"芦葭桥街与芦新街交叉口南20米","phone":"","category":"医疗保健服务;动物医疗场所;兽医站","area":"东部新区","lng":104.446428,"lat":30.269504,"amap_id":"B0HG6HELJM","order":18,"prev_distance_km":7.638,"cumulative_distance_km":72.23,"amap_marker_url":"https://uri.amap.com/marker?position=104.446428,30.269504&name=%E7%95%9C%E7%89%A7%E5%85%BD%E5%8C%BB&src=vetmap&coordinate=gaode&callnative=1","route_id":"r1","route_name":"第1段","global_order":18}]}