{"summary":{"id":"d02086","province":"四川省","city":"德阳市","district":"罗江区","count":5,"total_distance_km":36.75,"coordinate_system":"GCJ-02 / Amap","generated_at":"2026-05-07 20:21:26"},"rows":[{"name":"德阳市罗江区略坪镇畜牧兽医站","address":"绵罗路与明清街交叉口西北60米","phone":"","category":"医疗保健服务;动物医疗场所;兽医站","area":"","lng":104.40684,"lat":31.331179,"amap_id":"B03460NGTB","order":1,"prev_distance_km":0.0,"cumulative_distance_km":0.0,"amap_marker_url":"https://uri.amap.com/marker?position=104.406840,31.331179&name=%E5%BE%B7%E9%98%B3%E5%B8%82%E7%BD%97%E6%B1%9F%E5%8C%BA%E7%95%A5%E5%9D%AA%E9%95%87%E7%95%9C%E7%89%A7%E5%85%BD%E5%8C%BB%E7%AB%99&src=vetmap&coordinate=gaode&callnative=1"},{"name":"贝康宠物诊所(罗江店)","address":"麓峰南路82号","phone":"0838-3306870;15183863096","category":"医疗保健服务;动物医疗场所;宠物诊所","area":"","lng":104.503049,"lat":31.296611,"amap_id":"B0FFKBIGGO","order":2,"prev_distance_km":9.915,"cumulative_distance_km":9.915,"amap_marker_url":"https://uri.amap.com/marker?position=104.503049,31.296611&name=%E8%B4%9D%E5%BA%B7%E5%AE%A0%E7%89%A9%E8%AF%8A%E6%89%80%28%E7%BD%97%E6%B1%9F%E5%BA%97%29&src=vetmap&coordinate=gaode&callnative=1"},{"name":"芊宇宠物门诊","address":"万安镇北街服装城","phone":"15348103037","category":"医疗保健服务;动物医疗场所;宠物诊所","area":"","lng":104.504942,"lat":31.303099,"amap_id":"B0FFIVM5GT","order":3,"prev_distance_km":0.744,"cumulative_distance_km":10.659,"amap_marker_url":"https://uri.amap.com/marker?position=104.504942,31.303099&name=%E8%8A%8A%E5%AE%87%E5%AE%A0%E7%89%A9%E9%97%A8%E8%AF%8A&src=vetmap&coordinate=gaode&callnative=1"},{"name":"金山镇畜牧兽医站","address":"老川陕路与团结路交叉口南140米","phone":"","category":"医疗保健服务;动物医疗场所;兽医站","area":"","lng":104.544328,"lat":31.386171,"amap_id":"B034600LOX","order":4,"prev_distance_km":9.966,"cumulative_distance_km":20.624,"amap_marker_url":"https://uri.amap.com/marker?position=104.544328,31.386171&name=%E9%87%91%E5%B1%B1%E9%95%87%E7%95%9C%E7%89%A7%E5%85%BD%E5%8C%BB%E7%AB%99&src=vetmap&coordinate=gaode&callnative=1"},{"name":"德阳市罗江区新盛镇畜牧兽医站","address":"子汉路88号","phone":"","category":"医疗保健服务;动物医疗场所;兽医站","area":"","lng":104.63786,"lat":31.265141,"amap_id":"B0K64DOLC1","order":5,"prev_distance_km":16.126,"cumulative_distance_km":36.75,"amap_marker_url":"https://uri.amap.com/marker?position=104.637860,31.265141&name=%E5%BE%B7%E9%98%B3%E5%B8%82%E7%BD%97%E6%B1%9F%E5%8C%BA%E6%96%B0%E7%9B%9B%E9%95%87%E7%95%9C%E7%89%A7%E5%85%BD%E5%8C%BB%E7%AB%99&src=vetmap&coordinate=gaode&callnative=1"}]}