{"summary":{"id":"d02083","province":"四川省","city":"德阳市","district":"广汉市","count":17,"total_distance_km":52.854,"coordinate_system":"GCJ-02 / Amap","generated_at":"2026-05-07 20:21:25"},"rows":[{"name":"广汉市向阳镇畜牧兽医站","address":"幸福路与向张路交叉口东南80米","phone":"0838-5400787","category":"医疗保健服务;动物医疗场所;兽医站","area":"","lng":104.224837,"lat":30.906027,"amap_id":"B0G23AAGL5","order":1,"prev_distance_km":0.0,"cumulative_distance_km":0.0,"amap_marker_url":"https://uri.amap.com/marker?position=104.224837,30.906027&name=%E5%B9%BF%E6%B1%89%E5%B8%82%E5%90%91%E9%98%B3%E9%95%87%E7%95%9C%E7%89%A7%E5%85%BD%E5%8C%BB%E7%AB%99&src=vetmap&coordinate=gaode&callnative=1"},{"name":"广汉市三星堆镇畜牧兽医站","address":"","phone":"","category":"医疗保健服务;动物医疗场所;兽医站","area":"","lng":104.239288,"lat":30.95998,"amap_id":"B0FFKYGO46","order":2,"prev_distance_km":6.156,"cumulative_distance_km":6.156,"amap_marker_url":"https://uri.amap.com/marker?position=104.239288,30.959980&name=%E5%B9%BF%E6%B1%89%E5%B8%82%E4%B8%89%E6%98%9F%E5%A0%86%E9%95%87%E7%95%9C%E7%89%A7%E5%85%BD%E5%8C%BB%E7%AB%99&src=vetmap&coordinate=gaode&callnative=1"},{"name":"动物防疫","address":"榕树花园东北侧100米","phone":"","category":"医疗保健服务;动物医疗场所;动物医疗场所","area":"","lng":104.239325,"lat":30.960075,"amap_id":"B0MBN6RSZV","order":3,"prev_distance_km":0.011,"cumulative_distance_km":6.167,"amap_marker_url":"https://uri.amap.com/marker?position=104.239325,30.960075&name=%E5%8A%A8%E7%89%A9%E9%98%B2%E7%96%AB&src=vetmap&coordinate=gaode&callnative=1"},{"name":"宠爱一生动物医院","address":"韶山路二段6号附1、2号","phone":"0838-5250335;13908101710","category":"医疗保健服务;动物医疗场所;宠物诊所","area":"","lng":104.270197,"lat":30.980454,"amap_id":"B0FFLIZ82L","order":4,"prev_distance_km":3.715,"cumulative_distance_km":9.881,"amap_marker_url":"https://uri.amap.com/marker?position=104.270197,30.980454&name=%E5%AE%A0%E7%88%B1%E4%B8%80%E7%94%9F%E5%8A%A8%E7%89%A9%E5%8C%BB%E9%99%A2&src=vetmap&coordinate=gaode&callnative=1"},{"name":"瑞森贝贝宠物医院(西湖路店)","address":"西湖路东段-78号附4.5号","phone":"19950613344","category":"医疗保健服务;动物医疗场所;宠物诊所","area":"","lng":104.276127,"lat":30.974156,"amap_id":"B0IGSU3TOA","order":5,"prev_distance_km":0.9,"cumulative_distance_km":10.781,"amap_marker_url":"https://uri.amap.com/marker?position=104.276127,30.974156&name=%E7%91%9E%E6%A3%AE%E8%B4%9D%E8%B4%9D%E5%AE%A0%E7%89%A9%E5%8C%BB%E9%99%A2%28%E8%A5%BF%E6%B9%96%E8%B7%AF%E5%BA%97%29&src=vetmap&coordinate=gaode&callnative=1"},{"name":"康贝宠物医院","address":"佛山路西一段82号附12号","phone":"0838-5517708;17738358464","category":"医疗保健服务;动物医疗场所;宠物诊所","area":"","lng":104.277539,"lat":30.967945,"amap_id":"B0FFG6OZBN","order":6,"prev_distance_km":0.704,"cumulative_distance_km":11.485,"amap_marker_url":"https://uri.amap.com/marker?position=104.277539,30.967945&name=%E5%BA%B7%E8%B4%9D%E5%AE%A0%E7%89%A9%E5%8C%BB%E9%99%A2&src=vetmap&coordinate=gaode&callnative=1"},{"name":"贝诺宠物医院","address":"中山大道天阶汇一楼","phone":"17716427697","category":"医疗保健服务;动物医疗场所;宠物诊所","area":"","lng":104.280319,"lat":30.964811,"amap_id":"B0M64AIJVA","order":7,"prev_distance_km":0.438,"cumulative_distance_km":11.923,"amap_marker_url":"https://uri.amap.com/marker?position=104.280319,30.964811&name=%E8%B4%9D%E8%AF%BA%E5%AE%A0%E7%89%A9%E5%8C%BB%E9%99%A2&src=vetmap&coordinate=gaode&callnative=1"},{"name":"康立动物医院","address":"汉口路一段109-111号","phone":"0838-5517398;13778406905","category":"医疗保健服务;动物医疗场所;宠物诊所","area":"","lng":104.287359,"lat":30.975951,"amap_id":"B0I2BSWQLZ","order":8,"prev_distance_km":1.409,"cumulative_distance_km":13.332,"amap_marker_url":"https://uri.amap.com/marker?position=104.287359,30.975951&name=%E5%BA%B7%E7%AB%8B%E5%8A%A8%E7%89%A9%E5%8C%BB%E9%99%A2&src=vetmap&coordinate=gaode&callnative=1"},{"name":"小宠宠物美容","address":"雒城街道中山大道北二段142号","phone":"15283880262","category":"医疗保健服务;动物医疗场所;宠物诊所","area":"","lng":104.280334,"lat":30.983053,"amap_id":"B0L07L2ZG1","order":9,"prev_distance_km":1.035,"cumulative_distance_km":14.367,"amap_marker_url":"https://uri.amap.com/marker?position=104.280334,30.983053&name=%E5%B0%8F%E5%AE%A0%E5%AE%A0%E7%89%A9%E7%BE%8E%E5%AE%B9&src=vetmap&coordinate=gaode&callnative=1"},{"name":"谐和益家动物医院(广汉城北分院)","address":"雒城街道天津路东一段45号","phone":"0838-5511778;15883681663","category":"医疗保健服务;动物医疗场所;宠物诊所","area":"","lng":104.288127,"lat":30.995175,"amap_id":"B0JUA7QS0S","order":10,"prev_distance_km":1.539,"cumulative_distance_km":15.906,"amap_marker_url":"https://uri.amap.com/marker?position=104.288127,30.995175&name=%E8%B0%90%E5%92%8C%E7%9B%8A%E5%AE%B6%E5%8A%A8%E7%89%A9%E5%8C%BB%E9%99%A2%28%E5%B9%BF%E6%B1%89%E5%9F%8E%E5%8C%97%E5%88%86%E9%99%A2%29&src=vetmap&coordinate=gaode&callnative=1"},{"name":"仁诺动物医院·宠保定点","address":"雁江北路西一段32号3436","phone":"17738871143","category":"医疗保健服务;动物医疗场所;宠物诊所","area":"","lng":104.282123,"lat":30.992283,"amap_id":"B0JB4ZZS7D","order":11,"prev_distance_km":0.656,"cumulative_distance_km":16.563,"amap_marker_url":"https://uri.amap.com/marker?position=104.282123,30.992283&name=%E4%BB%81%E8%AF%BA%E5%8A%A8%E7%89%A9%E5%8C%BB%E9%99%A2%C2%B7%E5%AE%A0%E4%BF%9D%E5%AE%9A%E7%82%B9&src=vetmap&coordinate=gaode&callnative=1"},{"name":"徐氏宝之来宠物医院","address":"张任路一段31号","phone":"0838-5303022;13309021489","category":"医疗保健服务;动物医疗场所;宠物诊所","area":"","lng":104.27404,"lat":30.993445,"amap_id":"B0IKFC5Z1A","order":12,"prev_distance_km":0.781,"cumulative_distance_km":17.344,"amap_marker_url":"https://uri.amap.com/marker?position=104.274040,30.993445&name=%E5%BE%90%E6%B0%8F%E5%AE%9D%E4%B9%8B%E6%9D%A5%E5%AE%A0%E7%89%A9%E5%8C%BB%E9%99%A2&src=vetmap&coordinate=gaode&callnative=1"},{"name":"瑞森贝贝宠物医院(银川路店)","address":"银川路55号","phone":"13808007222","category":"医疗保健服务;动物医疗场所;宠物诊所","area":"","lng":104.276106,"lat":30.997851,"amap_id":"B0H33HU545","order":13,"prev_distance_km":0.528,"cumulative_distance_km":17.872,"amap_marker_url":"https://uri.amap.com/marker?position=104.276106,30.997851&name=%E7%91%9E%E6%A3%AE%E8%B4%9D%E8%B4%9D%E5%AE%A0%E7%89%A9%E5%8C%BB%E9%99%A2%28%E9%93%B6%E5%B7%9D%E8%B7%AF%E5%BA%97%29&src=vetmap&coordinate=gaode&callnative=1"},{"name":"广汉市高坪镇畜牧兽医站","address":"高坪镇高雄路北段","phone":"","category":"医疗保健服务;动物医疗场所;兽医站","area":"","lng":104.21998,"lat":31.049019,"amap_id":"B0FFL1CW6F","order":14,"prev_distance_km":7.809,"cumulative_distance_km":25.681,"amap_marker_url":"https://uri.amap.com/marker?position=104.219980,31.049019&name=%E5%B9%BF%E6%B1%89%E5%B8%82%E9%AB%98%E5%9D%AA%E9%95%87%E7%95%9C%E7%89%A7%E5%85%BD%E5%8C%BB%E7%AB%99&src=vetmap&coordinate=gaode&callnative=1"},{"name":"广汉市金轮镇畜牧兽医站","address":"","phone":"","category":"医疗保健服务;动物医疗场所;兽医站","area":"","lng":104.271061,"lat":31.089471,"amap_id":"B0LGBZX7VZ","order":15,"prev_distance_km":6.626,"cumulative_distance_km":32.307,"amap_marker_url":"https://uri.amap.com/marker?position=104.271061,31.089471&name=%E5%B9%BF%E6%B1%89%E5%B8%82%E9%87%91%E8%BD%AE%E9%95%87%E7%95%9C%E7%89%A7%E5%85%BD%E5%8C%BB%E7%AB%99&src=vetmap&coordinate=gaode&callnative=1"},{"name":"广汉市小汉镇畜牧兽医站","address":"兴城路南一段81号","phone":"","category":"医疗保健服务;动物医疗场所;兽医站","area":"","lng":104.342797,"lat":31.047456,"amap_id":"B0LGGSRLOW","order":16,"prev_distance_km":8.277,"cumulative_distance_km":40.583,"amap_marker_url":"https://uri.amap.com/marker?position=104.342797,31.047456&name=%E5%B9%BF%E6%B1%89%E5%B8%82%E5%B0%8F%E6%B1%89%E9%95%87%E7%95%9C%E7%89%A7%E5%85%BD%E5%8C%BB%E7%AB%99&src=vetmap&coordinate=gaode&callnative=1"},{"name":"广汉市松林镇畜牧兽医站","address":"旌金公路","phone":"","category":"医疗保健服务;动物医疗场所;兽医站","area":"","lng":104.430325,"lat":30.966525,"amap_id":"B03460NED3","order":17,"prev_distance_km":12.271,"cumulative_distance_km":52.854,"amap_marker_url":"https://uri.amap.com/marker?position=104.430325,30.966525&name=%E5%B9%BF%E6%B1%89%E5%B8%82%E6%9D%BE%E6%9E%97%E9%95%87%E7%95%9C%E7%89%A7%E5%85%BD%E5%8C%BB%E7%AB%99&src=vetmap&coordinate=gaode&callnative=1"}]}