{"summary":{"id":"d02095","province":"四川省","city":"成都市","district":"温江区","count":58,"route_count":2,"max_route_clinics":29,"total_distance_km":40.539,"coordinate_system":"GCJ-02 / Amap","generated_at":"2026-05-07 21:26:47"},"routes":[{"id":"r1","name":"第1段","count":29,"total_distance_km":19.487,"rows":[{"name":"温江区博美宠物诊所","address":"万春镇天乡路二段299号68栋附8号","phone":"17760456348","category":"医疗保健服务;动物医疗场所;宠物诊所","area":"万春","lng":103.834478,"lat":30.717147,"amap_id":"B0J0V7WQ8X","order":1,"prev_distance_km":0.0,"cumulative_distance_km":0.0,"amap_marker_url":"https://uri.amap.com/marker?position=103.834478,30.717147&name=%E6%B8%A9%E6%B1%9F%E5%8C%BA%E5%8D%9A%E7%BE%8E%E5%AE%A0%E7%89%A9%E8%AF%8A%E6%89%80&src=vetmap&coordinate=gaode&callnative=1","route_id":"r1","route_name":"第1段"},{"name":"柒宸宠美","address":"国色天乡·奥特莱斯55栋","phone":"","category":"医疗保健服务;动物医疗场所;宠物诊所","area":"万春","lng":103.82392,"lat":30.723592,"amap_id":"B0LA5DPTSA","order":2,"prev_distance_km":1.238,"cumulative_distance_km":1.238,"amap_marker_url":"https://uri.amap.com/marker?position=103.823920,30.723592&name=%E6%9F%92%E5%AE%B8%E5%AE%A0%E7%BE%8E&src=vetmap&coordinate=gaode&callnative=1","route_id":"r1","route_name":"第1段"},{"name":"康贝宠物医院","address":"花蕊路与天乡路二段交叉口西北240米","phone":"13658044668","category":"医疗保健服务;动物医疗场所;宠物诊所","area":"万春","lng":103.815497,"lat":30.71454,"amap_id":"B0JGBS7MOO","order":3,"prev_distance_km":1.289,"cumulative_distance_km":2.527,"amap_marker_url":"https://uri.amap.com/marker?position=103.815497,30.714540&name=%E5%BA%B7%E8%B4%9D%E5%AE%A0%E7%89%A9%E5%8C%BB%E9%99%A2&src=vetmap&coordinate=gaode&callnative=1","route_id":"r1","route_name":"第1段"},{"name":"爱犬堂宠物美容店","address":"花蕊路与天乡路二段交叉口西北220米","phone":"","category":"医疗保健服务;动物医疗场所;动物医疗场所","area":"万春","lng":103.815525,"lat":30.714425,"amap_id":"B0LKNLR3JG","order":4,"prev_distance_km":0.013,"cumulative_distance_km":2.54,"amap_marker_url":"https://uri.amap.com/marker?position=103.815525,30.714425&name=%E7%88%B1%E7%8A%AC%E5%A0%82%E5%AE%A0%E7%89%A9%E7%BE%8E%E5%AE%B9%E5%BA%97&src=vetmap&coordinate=gaode&callnative=1","route_id":"r1","route_name":"第1段"},{"name":"奥鸿力宠物","address":"万春镇天乡路二段天府宠物市场","phone":"","category":"医疗保健服务;动物医疗场所;宠物诊所","area":"万春","lng":103.816729,"lat":30.71331,"amap_id":"B0J22AZL5C","order":5,"prev_distance_km":0.169,"cumulative_distance_km":2.709,"amap_marker_url":"https://uri.amap.com/marker?position=103.816729,30.713310&name=%E5%A5%A5%E9%B8%BF%E5%8A%9B%E5%AE%A0%E7%89%A9&src=vetmap&coordinate=gaode&callnative=1","route_id":"r1","route_name":"第1段"},{"name":"温江惠康动物医院","address":"战备渠北路251号","phone":"028-61469828","category":"医疗保健服务;动物医疗场所;宠物诊所","area":"柳城","lng":103.82408,"lat":30.703679,"amap_id":"B0FFIVBXMF","order":6,"prev_distance_km":1.281,"cumulative_distance_km":3.99,"amap_marker_url":"https://uri.amap.com/marker?position=103.824080,30.703679&name=%E6%B8%A9%E6%B1%9F%E6%83%A0%E5%BA%B7%E5%8A%A8%E7%89%A9%E5%8C%BB%E9%99%A2&src=vetmap&coordinate=gaode&callnative=1","route_id":"r1","route_name":"第1段"},{"name":"小宠当家宠物美容店","address":"柳城街道战备渠北路250号","phone":"17311250080","category":"医疗保健服务;动物医疗场所;宠物诊所","area":"天府","lng":103.824129,"lat":30.703689,"amap_id":"B0FFHMRK9I","order":7,"prev_distance_km":0.005,"cumulative_distance_km":3.995,"amap_marker_url":"https://uri.amap.com/marker?position=103.824129,30.703689&name=%E5%B0%8F%E5%AE%A0%E5%BD%93%E5%AE%B6%E5%AE%A0%E7%89%A9%E7%BE%8E%E5%AE%B9%E5%BA%97&src=vetmap&coordinate=gaode&callnative=1","route_id":"r1","route_name":"第1段"},{"name":"温江协和动物医院(柳河路店)","address":"柳河路666号(市五医院地铁站F口步行320米)","phone":"13880240321","category":"医疗保健服务;动物医疗场所;宠物诊所","area":"柳城","lng":103.826952,"lat":30.697877,"amap_id":"B0FFFOP111","order":8,"prev_distance_km":0.7,"cumulative_distance_km":4.695,"amap_marker_url":"https://uri.amap.com/marker?position=103.826952,30.697877&name=%E6%B8%A9%E6%B1%9F%E5%8D%8F%E5%92%8C%E5%8A%A8%E7%89%A9%E5%8C%BB%E9%99%A2%28%E6%9F%B3%E6%B2%B3%E8%B7%AF%E5%BA%97%29&src=vetmap&coordinate=gaode&callnative=1","route_id":"r1","route_name":"第1段"},{"name":"精典动物医院","address":"德通桥南路3-5号","phone":"18583949379","category":"医疗保健服务;动物医疗场所;宠物诊所","area":"柳城","lng":103.819213,"lat":30.694243,"amap_id":"B0FFHE3G2C","order":9,"prev_distance_km":0.843,"cumulative_distance_km":5.538,"amap_marker_url":"https://uri.amap.com/marker?position=103.819213,30.694243&name=%E7%B2%BE%E5%85%B8%E5%8A%A8%E7%89%A9%E5%8C%BB%E9%99%A2&src=vetmap&coordinate=gaode&callnative=1","route_id":"r1","route_name":"第1段"},{"name":"瑞鹏宠物医院农苑分院","address":"德通桥路431号","phone":"028-82735596","category":"医疗保健服务;动物医疗场所;宠物诊所","area":"凤溪大道","lng":103.817274,"lat":30.694246,"amap_id":"B0FFHGE7Y7","order":10,"prev_distance_km":0.185,"cumulative_distance_km":5.724,"amap_marker_url":"https://uri.amap.com/marker?position=103.817274,30.694246&name=%E7%91%9E%E9%B9%8F%E5%AE%A0%E7%89%A9%E5%8C%BB%E9%99%A2%E5%86%9C%E8%8B%91%E5%88%86%E9%99%A2&src=vetmap&coordinate=gaode&callnative=1","route_id":"r1","route_name":"第1段"},{"name":"瑞鹏宠物医院农苑动物医院","address":"德通桥路431号","phone":"028-82735596","category":"医疗保健服务;动物医疗场所;宠物诊所","area":"柳城","lng":103.817274,"lat":30.694246,"amap_id":"B0G2UN2D9L","order":11,"prev_distance_km":0.0,"cumulative_distance_km":5.724,"amap_marker_url":"https://uri.amap.com/marker?position=103.817274,30.694246&name=%E7%91%9E%E9%B9%8F%E5%AE%A0%E7%89%A9%E5%8C%BB%E9%99%A2%E5%86%9C%E8%8B%91%E5%8A%A8%E7%89%A9%E5%8C%BB%E9%99%A2&src=vetmap&coordinate=gaode&callnative=1","route_id":"r1","route_name":"第1段"},{"name":"淘淘动物医院(柳台店)","address":"柳台大道东段27号","phone":"028-82682368","category":"医疗保健服务;动物医疗场所;宠物诊所","area":"柳城","lng":103.827412,"lat":30.689599,"amap_id":"B001C92KHN","order":12,"prev_distance_km":1.099,"cumulative_distance_km":6.822,"amap_marker_url":"https://uri.amap.com/marker?position=103.827412,30.689599&name=%E6%B7%98%E6%B7%98%E5%8A%A8%E7%89%A9%E5%8C%BB%E9%99%A2%28%E6%9F%B3%E5%8F%B0%E5%BA%97%29&src=vetmap&coordinate=gaode&callnative=1","route_id":"r1","route_name":"第1段"},{"name":"新博雅动物医院","address":"杨柳东路北段7号","phone":"18481156710","category":"医疗保健服务;动物医疗场所;宠物诊所","area":"柳城","lng":103.82843,"lat":30.691238,"amap_id":"B0FFK6DGLG","order":13,"prev_distance_km":0.207,"cumulative_distance_km":7.029,"amap_marker_url":"https://uri.amap.com/marker?position=103.828430,30.691238&name=%E6%96%B0%E5%8D%9A%E9%9B%85%E5%8A%A8%E7%89%A9%E5%8C%BB%E9%99%A2&src=vetmap&coordinate=gaode&callnative=1","route_id":"r1","route_name":"第1段"},{"name":"温江佳友宠物医院","address":"云凤路351号","phone":"028-61702549;15388176023","category":"医疗保健服务;动物医疗场所;宠物诊所","area":"柳城","lng":103.827867,"lat":30.692938,"amap_id":"B001C8MWSC","order":14,"prev_distance_km":0.197,"cumulative_distance_km":7.225,"amap_marker_url":"https://uri.amap.com/marker?position=103.827867,30.692938&name=%E6%B8%A9%E6%B1%9F%E4%BD%B3%E5%8F%8B%E5%AE%A0%E7%89%A9%E5%8C%BB%E9%99%A2&src=vetmap&coordinate=gaode&callnative=1","route_id":"r1","route_name":"第1段"},{"name":"温江区博美宠物医院","address":"团结巷31-35","phone":"028-82716909;13308090973","category":"医疗保健服务;动物医疗场所;宠物诊所","area":"柳城","lng":103.84187,"lat":30.694768,"amap_id":"B001C7RU71","order":15,"prev_distance_km":1.354,"cumulative_distance_km":8.58,"amap_marker_url":"https://uri.amap.com/marker?position=103.841870,30.694768&name=%E6%B8%A9%E6%B1%9F%E5%8C%BA%E5%8D%9A%E7%BE%8E%E5%AE%A0%E7%89%A9%E5%8C%BB%E9%99%A2&src=vetmap&coordinate=gaode&callnative=1","route_id":"r1","route_name":"第1段"},{"name":"凯尔倍特动物医院·医保定点","address":"南江路430号","phone":"028-60351786;18884788584","category":"医疗保健服务;动物医疗场所;宠物诊所","area":"凤溪大道","lng":103.847496,"lat":30.685772,"amap_id":"B0JG978VBA","order":16,"prev_distance_km":1.136,"cumulative_distance_km":9.715,"amap_marker_url":"https://uri.amap.com/marker?position=103.847496,30.685772&name=%E5%87%AF%E5%B0%94%E5%80%8D%E7%89%B9%E5%8A%A8%E7%89%A9%E5%8C%BB%E9%99%A2%C2%B7%E5%8C%BB%E4%BF%9D%E5%AE%9A%E7%82%B9&src=vetmap&coordinate=gaode&callnative=1","route_id":"r1","route_name":"第1段"},{"name":"宠医星初心宠(物医院温江区店)","address":"柳城街办凤溪大道南段405、407号","phone":"18982120120","category":"医疗保健服务;动物医疗场所;宠物诊所","area":"凤溪大道","lng":103.848782,"lat":30.682065,"amap_id":"B0FFJF3PGW","order":17,"prev_distance_km":0.43,"cumulative_distance_km":10.146,"amap_marker_url":"https://uri.amap.com/marker?position=103.848782,30.682065&name=%E5%AE%A0%E5%8C%BB%E6%98%9F%E5%88%9D%E5%BF%83%E5%AE%A0%28%E7%89%A9%E5%8C%BB%E9%99%A2%E6%B8%A9%E6%B1%9F%E5%8C%BA%E5%BA%97%29&src=vetmap&coordinate=gaode&callnative=1","route_id":"r1","route_name":"第1段"},{"name":"宠爱伴侣动物医院温江分院","address":"南熏大道二段732-734号","phone":"028-82727669","category":"医疗保健服务;动物医疗场所;宠物诊所","area":"柳城","lng":103.838571,"lat":30.684608,"amap_id":"B0KDUCFFNY","order":18,"prev_distance_km":1.017,"cumulative_distance_km":11.162,"amap_marker_url":"https://uri.amap.com/marker?position=103.838571,30.684608&name=%E5%AE%A0%E7%88%B1%E4%BC%B4%E4%BE%A3%E5%8A%A8%E7%89%A9%E5%8C%BB%E9%99%A2%E6%B8%A9%E6%B1%9F%E5%88%86%E9%99%A2&src=vetmap&coordinate=gaode&callnative=1","route_id":"r1","route_name":"第1段"},{"name":"宠博士动物医院(凤溪河分院)","address":"柳城街办南熏大道二段833号附107号","phone":"028-64258385;19102857973","category":"医疗保健服务;动物医疗场所;宠物诊所","area":"凤溪大道","lng":103.838574,"lat":30.682986,"amap_id":"B0HAZ77YPO","order":19,"prev_distance_km":0.18,"cumulative_distance_km":11.342,"amap_marker_url":"https://uri.amap.com/marker?position=103.838574,30.682986&name=%E5%AE%A0%E5%8D%9A%E5%A3%AB%E5%8A%A8%E7%89%A9%E5%8C%BB%E9%99%A2%28%E5%87%A4%E6%BA%AA%E6%B2%B3%E5%88%86%E9%99%A2%29&src=vetmap&coordinate=gaode&callnative=1","route_id":"r1","route_name":"第1段"},{"name":"爱贝特动物医院·猫口炎专科","address":"杨柳东路中段282号(都市水岸大学城杨柳河)","phone":"18328049255","category":"医疗保健服务;动物医疗场所;宠物诊所","area":"柳城","lng":103.833825,"lat":30.682793,"amap_id":"B0FFFVKR4D","order":20,"prev_distance_km":0.455,"cumulative_distance_km":11.797,"amap_marker_url":"https://uri.amap.com/marker?position=103.833825,30.682793&name=%E7%88%B1%E8%B4%9D%E7%89%B9%E5%8A%A8%E7%89%A9%E5%8C%BB%E9%99%A2%C2%B7%E7%8C%AB%E5%8F%A3%E7%82%8E%E4%B8%93%E7%A7%91&src=vetmap&coordinate=gaode&callnative=1","route_id":"r1","route_name":"第1段"},{"name":"溢熙动物诊所","address":"天府街道百信路28号附5号","phone":"13111858897","category":"医疗保健服务;动物医疗场所;宠物诊所","area":"凤溪大道","lng":103.834585,"lat":30.678773,"amap_id":"B0LR2C5MPY","order":21,"prev_distance_km":0.453,"cumulative_distance_km":12.25,"amap_marker_url":"https://uri.amap.com/marker?position=103.834585,30.678773&name=%E6%BA%A2%E7%86%99%E5%8A%A8%E7%89%A9%E8%AF%8A%E6%89%80&src=vetmap&coordinate=gaode&callnative=1","route_id":"r1","route_name":"第1段"},{"name":"成都市温江区金马镇畜牧兽医站","address":"杨柳东路南段与南江路交叉口东南100米","phone":"13608043144","category":"医疗保健服务;动物医疗场所;兽医站","area":"凤溪大道","lng":103.836394,"lat":30.678522,"amap_id":"B0FFJ8WM85","order":22,"prev_distance_km":0.175,"cumulative_distance_km":12.425,"amap_marker_url":"https://uri.amap.com/marker?position=103.836394,30.678522&name=%E6%88%90%E9%83%BD%E5%B8%82%E6%B8%A9%E6%B1%9F%E5%8C%BA%E9%87%91%E9%A9%AC%E9%95%87%E7%95%9C%E7%89%A7%E5%85%BD%E5%8C%BB%E7%AB%99&src=vetmap&coordinate=gaode&callnative=1","route_id":"r1","route_name":"第1段"},{"name":"汪小喵宠物美容馆(明信城店)","address":"明信诚A区4号门旁","phone":"","category":"医疗保健服务;动物医疗场所;动物医疗场所","area":"凤溪大道","lng":103.835413,"lat":30.675517,"amap_id":"B0KDRM3NT0","order":23,"prev_distance_km":0.347,"cumulative_distance_km":12.772,"amap_marker_url":"https://uri.amap.com/marker?position=103.835413,30.675517&name=%E6%B1%AA%E5%B0%8F%E5%96%B5%E5%AE%A0%E7%89%A9%E7%BE%8E%E5%AE%B9%E9%A6%86%28%E6%98%8E%E4%BF%A1%E5%9F%8E%E5%BA%97%29&src=vetmap&coordinate=gaode&callnative=1","route_id":"r1","route_name":"第1段"},{"name":"宠博士动物医院(大学城分院)","address":"海科路东段636号(万盛地铁站D口步行260米)","phone":"028-65481858;19938483481","category":"医疗保健服务;动物医疗场所;宠物诊所","area":"","lng":103.816017,"lat":30.674391,"amap_id":"B0HRFZ30HH","order":24,"prev_distance_km":1.859,"cumulative_distance_km":14.631,"amap_marker_url":"https://uri.amap.com/marker?position=103.816017,30.674391&name=%E5%AE%A0%E5%8D%9A%E5%A3%AB%E5%8A%A8%E7%89%A9%E5%8C%BB%E9%99%A2%28%E5%A4%A7%E5%AD%A6%E5%9F%8E%E5%88%86%E9%99%A2%29&src=vetmap&coordinate=gaode&callnative=1","route_id":"r1","route_name":"第1段"},{"name":"恒爱宠宝动物医院·犬猫全科·重症专科(温江店)","address":"海科路东段672号(万盛地铁站D口步行340米)","phone":"","category":"医疗保健服务;动物医疗场所;宠物诊所","area":"","lng":103.815125,"lat":30.673975,"amap_id":"B0I2PB3Q1E","order":25,"prev_distance_km":0.097,"cumulative_distance_km":14.729,"amap_marker_url":"https://uri.amap.com/marker?position=103.815125,30.673975&name=%E6%81%92%E7%88%B1%E5%AE%A0%E5%AE%9D%E5%8A%A8%E7%89%A9%E5%8C%BB%E9%99%A2%C2%B7%E7%8A%AC%E7%8C%AB%E5%85%A8%E7%A7%91%C2%B7%E9%87%8D%E7%97%87%E4%B8%93%E7%A7%91%28%E6%B8%A9%E6%B1%9F%E5%BA%97%29&src=vetmap&coordinate=gaode&callnative=1","route_id":"r1","route_name":"第1段"},{"name":"恒爱宠宝宠物诊所","address":"海科路东段672号(万盛地铁站D口步行360米)","phone":"19382163371","category":"医疗保健服务;动物医疗场所;宠物诊所","area":"","lng":103.815074,"lat":30.673969,"amap_id":"B0IR9LTT3F","order":26,"prev_distance_km":0.005,"cumulative_distance_km":14.733,"amap_marker_url":"https://uri.amap.com/marker?position=103.815074,30.673969&name=%E6%81%92%E7%88%B1%E5%AE%A0%E5%AE%9D%E5%AE%A0%E7%89%A9%E8%AF%8A%E6%89%80&src=vetmap&coordinate=gaode&callnative=1","route_id":"r1","route_name":"第1段"},{"name":"牧信动物诊所","address":"海天路260号","phone":"19950376131","category":"医疗保健服务;动物医疗场所;宠物诊所","area":"天府","lng":103.812019,"lat":30.677748,"amap_id":"B0H3F5AED1","order":27,"prev_distance_km":0.512,"cumulative_distance_km":15.245,"amap_marker_url":"https://uri.amap.com/marker?position=103.812019,30.677748&name=%E7%89%A7%E4%BF%A1%E5%8A%A8%E7%89%A9%E8%AF%8A%E6%89%80&src=vetmap&coordinate=gaode&callnative=1","route_id":"r1","route_name":"第1段"},{"name":"爱奇动物诊所","address":"金马街道太极大道266号科源路1057号","phone":"19934609856","category":"医疗保健服务;动物医疗场所;宠物诊所","area":"金马","lng":103.802361,"lat":30.643807,"amap_id":"B0J3YA7LBC","order":28,"prev_distance_km":3.885,"cumulative_distance_km":19.131,"amap_marker_url":"https://uri.amap.com/marker?position=103.802361,30.643807&name=%E7%88%B1%E5%A5%87%E5%8A%A8%E7%89%A9%E8%AF%8A%E6%89%80&src=vetmap&coordinate=gaode&callnative=1","route_id":"r1","route_name":"第1段"},{"name":"河马动物医院","address":"金马街道太极大道277号","phone":"19181931656","category":"医疗保健服务;动物医疗场所;宠物诊所","area":"金马","lng":103.803949,"lat":30.640911,"amap_id":"B0H1ZS7KPT","order":29,"prev_distance_km":0.356,"cumulative_distance_km":19.487,"amap_marker_url":"https://uri.amap.com/marker?position=103.803949,30.640911&name=%E6%B2%B3%E9%A9%AC%E5%8A%A8%E7%89%A9%E5%8C%BB%E9%99%A2&src=vetmap&coordinate=gaode&callnative=1","route_id":"r1","route_name":"第1段"}]},{"id":"r2","name":"第2段","count":29,"total_distance_km":21.052,"rows":[{"name":"宠一研动物医院","address":"永宁街道芙蓉大道三段322号-324","phone":"18881888661","category":"医疗保健服务;动物医疗场所;宠物诊所","area":"电子科大科创谷园区","lng":103.914489,"lat":30.719297,"amap_id":"B0H0B7ZAIY","order":1,"prev_distance_km":0.0,"cumulative_distance_km":0.0,"amap_marker_url":"https://uri.amap.com/marker?position=103.914489,30.719297&name=%E5%AE%A0%E4%B8%80%E7%A0%94%E5%8A%A8%E7%89%A9%E5%8C%BB%E9%99%A2&src=vetmap&coordinate=gaode&callnative=1","route_id":"r2","route_name":"第2段"},{"name":"波比动物医院·外科·内科·影像中心","address":"鸡鸣路589号","phone":"19381926137","category":"医疗保健服务;动物医疗场所;宠物诊所","area":"","lng":103.888096,"lat":30.690862,"amap_id":"B0I2NRO2I5","order":2,"prev_distance_km":4.045,"cumulative_distance_km":4.045,"amap_marker_url":"https://uri.amap.com/marker?position=103.888096,30.690862&name=%E6%B3%A2%E6%AF%94%E5%8A%A8%E7%89%A9%E5%8C%BB%E9%99%A2%C2%B7%E5%A4%96%E7%A7%91%C2%B7%E5%86%85%E7%A7%91%C2%B7%E5%BD%B1%E5%83%8F%E4%B8%AD%E5%BF%83&src=vetmap&coordinate=gaode&callnative=1","route_id":"r2","route_name":"第2段"},{"name":"仁华宠物医院(温江总院)24小时","address":"千禧河畔C区南门东70米","phone":"19158866120","category":"医疗保健服务;动物医疗场所;宠物诊所","area":"涌泉","lng":103.887981,"lat":30.688012,"amap_id":"B0IROZWOVJ","order":3,"prev_distance_km":0.317,"cumulative_distance_km":4.362,"amap_marker_url":"https://uri.amap.com/marker?position=103.887981,30.688012&name=%E4%BB%81%E5%8D%8E%E5%AE%A0%E7%89%A9%E5%8C%BB%E9%99%A2%28%E6%B8%A9%E6%B1%9F%E6%80%BB%E9%99%A2%2924%E5%B0%8F%E6%97%B6&src=vetmap&coordinate=gaode&callnative=1","route_id":"r2","route_name":"第2段"},{"name":"柳畔动物诊所","address":"都堂路204号","phone":"18190834882","category":"医疗保健服务;动物医疗场所;宠物诊所","area":"涌泉","lng":103.883466,"lat":30.689191,"amap_id":"B0JBTR5JWM","order":4,"prev_distance_km":0.451,"cumulative_distance_km":4.814,"amap_marker_url":"https://uri.amap.com/marker?position=103.883466,30.689191&name=%E6%9F%B3%E7%95%94%E5%8A%A8%E7%89%A9%E8%AF%8A%E6%89%80&src=vetmap&coordinate=gaode&callnative=1","route_id":"r2","route_name":"第2段"},{"name":"维诺转诊动物医院","address":"江平路213号","phone":"18109042442;19150314120","category":"医疗保健服务;动物医疗场所;宠物诊所","area":"涌泉","lng":103.878554,"lat":30.687371,"amap_id":"B0FFKYKUKG","order":5,"prev_distance_km":0.511,"cumulative_distance_km":5.325,"amap_marker_url":"https://uri.amap.com/marker?position=103.878554,30.687371&name=%E7%BB%B4%E8%AF%BA%E8%BD%AC%E8%AF%8A%E5%8A%A8%E7%89%A9%E5%8C%BB%E9%99%A2&src=vetmap&coordinate=gaode&callnative=1","route_id":"r2","route_name":"第2段"},{"name":"瑞鹏宠物医院(涌泉分院)","address":"清泉北街357号","phone":"028-85568166","category":"医疗保健服务;动物医疗场所;宠物诊所","area":"涌泉","lng":103.881207,"lat":30.686001,"amap_id":"B0FFJDBXPR","order":6,"prev_distance_km":0.296,"cumulative_distance_km":5.621,"amap_marker_url":"https://uri.amap.com/marker?position=103.881207,30.686001&name=%E7%91%9E%E9%B9%8F%E5%AE%A0%E7%89%A9%E5%8C%BB%E9%99%A2%28%E6%B6%8C%E6%B3%89%E5%88%86%E9%99%A2%29&src=vetmap&coordinate=gaode&callnative=1","route_id":"r2","route_name":"第2段"},{"name":"瑞派华茜宠物医院(温江店)","address":"涌泉江浦路626号628号","phone":"028-82744133","category":"医疗保健服务;动物医疗场所;宠物诊所","area":"涌泉","lng":103.885857,"lat":30.684254,"amap_id":"B0GKB5FFJJ","order":7,"prev_distance_km":0.485,"cumulative_distance_km":6.106,"amap_marker_url":"https://uri.amap.com/marker?position=103.885857,30.684254&name=%E7%91%9E%E6%B4%BE%E5%8D%8E%E8%8C%9C%E5%AE%A0%E7%89%A9%E5%8C%BB%E9%99%A2%28%E6%B8%A9%E6%B1%9F%E5%BA%97%29&src=vetmap&coordinate=gaode&callnative=1","route_id":"r2","route_name":"第2段"},{"name":"同伴宠物诊所","address":"凤凰北大街73号(凤凰大街地铁站C1口步行240米)","phone":"15928118679","category":"医疗保健服务;动物医疗场所;宠物诊所","area":"涌泉","lng":103.890574,"lat":30.680377,"amap_id":"B0FFKRFJAE","order":8,"prev_distance_km":0.624,"cumulative_distance_km":6.73,"amap_marker_url":"https://uri.amap.com/marker?position=103.890574,30.680377&name=%E5%90%8C%E4%BC%B4%E5%AE%A0%E7%89%A9%E8%AF%8A%E6%89%80&src=vetmap&coordinate=gaode&callnative=1","route_id":"r2","route_name":"第2段"},{"name":"百思宠物诊所","address":"仁和春天南门29栋106号","phone":"17380655544","category":"医疗保健服务;动物医疗场所;宠物诊所","area":"涌泉","lng":103.89562,"lat":30.677854,"amap_id":"B0KRPRNEUM","order":9,"prev_distance_km":0.558,"cumulative_distance_km":7.288,"amap_marker_url":"https://uri.amap.com/marker?position=103.895620,30.677854&name=%E7%99%BE%E6%80%9D%E5%AE%A0%E7%89%A9%E8%AF%8A%E6%89%80&src=vetmap&coordinate=gaode&callnative=1","route_id":"r2","route_name":"第2段"},{"name":"仁爱宠物诊所(花土路)","address":"花土路1469号","phone":"18080861913","category":"医疗保健服务;动物医疗场所;宠物诊所","area":"涌泉","lng":103.887511,"lat":30.671172,"amap_id":"B0FFIN1I5J","order":10,"prev_distance_km":1.074,"cumulative_distance_km":8.362,"amap_marker_url":"https://uri.amap.com/marker?position=103.887511,30.671172&name=%E4%BB%81%E7%88%B1%E5%AE%A0%E7%89%A9%E8%AF%8A%E6%89%80%28%E8%8A%B1%E5%9C%9F%E8%B7%AF%29&src=vetmap&coordinate=gaode&callnative=1","route_id":"r2","route_name":"第2段"},{"name":"康恒动物医院","address":"光华大道611号","phone":"028-64959028","category":"医疗保健服务;动物医疗场所;宠物诊所","area":"涌泉","lng":103.883177,"lat":30.677309,"amap_id":"B0FFHS4PP2","order":11,"prev_distance_km":0.798,"cumulative_distance_km":9.161,"amap_marker_url":"https://uri.amap.com/marker?position=103.883177,30.677309&name=%E5%BA%B7%E6%81%92%E5%8A%A8%E7%89%A9%E5%8C%BB%E9%99%A2&src=vetmap&coordinate=gaode&callnative=1","route_id":"r2","route_name":"第2段"},{"name":"温江佳萌动物诊所","address":"涌泉街办清泉北街2号1栋1层2号","phone":"028-63104826;19113292050","category":"医疗保健服务;动物医疗场所;宠物诊所","area":"涌泉","lng":103.878619,"lat":30.6794,"amap_id":"B0GR75HUNI","order":12,"prev_distance_km":0.494,"cumulative_distance_km":9.655,"amap_marker_url":"https://uri.amap.com/marker?position=103.878619,30.679400&name=%E6%B8%A9%E6%B1%9F%E4%BD%B3%E8%90%8C%E5%8A%A8%E7%89%A9%E8%AF%8A%E6%89%80&src=vetmap&coordinate=gaode&callnative=1","route_id":"r2","route_name":"第2段"},{"name":"嘉阳宠物医院","address":"鹏程路248号","phone":"18113020050","category":"医疗保健服务;动物医疗场所;宠物诊所","area":"涌泉","lng":103.87684,"lat":30.674682,"amap_id":"B0H39SRBCH","order":13,"prev_distance_km":0.552,"cumulative_distance_km":10.206,"amap_marker_url":"https://uri.amap.com/marker?position=103.876840,30.674682&name=%E5%98%89%E9%98%B3%E5%AE%A0%E7%89%A9%E5%8C%BB%E9%99%A2&src=vetmap&coordinate=gaode&callnative=1","route_id":"r2","route_name":"第2段"},{"name":"飞异动物医院","address":"洪江路1069-1071","phone":"17323264640","category":"医疗保健服务;动物医疗场所;宠物诊所","area":"涌泉","lng":103.874896,"lat":30.666351,"amap_id":"B0LAH5FPBN","order":14,"prev_distance_km":0.945,"cumulative_distance_km":11.151,"amap_marker_url":"https://uri.amap.com/marker?position=103.874896,30.666351&name=%E9%A3%9E%E5%BC%82%E5%8A%A8%E7%89%A9%E5%8C%BB%E9%99%A2&src=vetmap&coordinate=gaode&callnative=1","route_id":"r2","route_name":"第2段"},{"name":"和美宠物诊所","address":"花土路105-107号","phone":"15882195146","category":"医疗保健服务;动物医疗场所;宠物诊所","area":"涌泉","lng":103.867244,"lat":30.673776,"amap_id":"B0H1YAWO0T","order":15,"prev_distance_km":1.103,"cumulative_distance_km":12.254,"amap_marker_url":"https://uri.amap.com/marker?position=103.867244,30.673776&name=%E5%92%8C%E7%BE%8E%E5%AE%A0%E7%89%A9%E8%AF%8A%E6%89%80&src=vetmap&coordinate=gaode&callnative=1","route_id":"r2","route_name":"第2段"},{"name":"御宠道宠物诊所(温江店)","address":"恒大未来城1期南门西南50米","phone":"19182200120","category":"医疗保健服务;动物医疗场所;宠物诊所","area":"涌泉","lng":103.863602,"lat":30.671907,"amap_id":"B0LB7UFBPG","order":16,"prev_distance_km":0.406,"cumulative_distance_km":12.66,"amap_marker_url":"https://uri.amap.com/marker?position=103.863602,30.671907&name=%E5%BE%A1%E5%AE%A0%E9%81%93%E5%AE%A0%E7%89%A9%E8%AF%8A%E6%89%80%28%E6%B8%A9%E6%B1%9F%E5%BA%97%29&src=vetmap&coordinate=gaode&callnative=1","route_id":"r2","route_name":"第2段"},{"name":"千宠宠物(时代金悦店)","address":"温泉大道二段438号","phone":"15881039023","category":"医疗保健服务;动物医疗场所;动物医疗场所","area":"涌泉","lng":103.862673,"lat":30.674765,"amap_id":"B0HDU5JYP3","order":17,"prev_distance_km":0.33,"cumulative_distance_km":12.99,"amap_marker_url":"https://uri.amap.com/marker?position=103.862673,30.674765&name=%E5%8D%83%E5%AE%A0%E5%AE%A0%E7%89%A9%28%E6%97%B6%E4%BB%A3%E9%87%91%E6%82%A6%E5%BA%97%29&src=vetmap&coordinate=gaode&callnative=1","route_id":"r2","route_name":"第2段"},{"name":"宠博士宠物医院(涌泉店)","address":"政通东路411号","phone":"028-81021487;18180534917","category":"医疗保健服务;动物医疗场所;宠物诊所","area":"涌泉","lng":103.861763,"lat":30.676125,"amap_id":"B0LR0XQN1R","order":18,"prev_distance_km":0.174,"cumulative_distance_km":13.165,"amap_marker_url":"https://uri.amap.com/marker?position=103.861763,30.676125&name=%E5%AE%A0%E5%8D%9A%E5%A3%AB%E5%AE%A0%E7%89%A9%E5%8C%BB%E9%99%A2%28%E6%B6%8C%E6%B3%89%E5%BA%97%29&src=vetmap&coordinate=gaode&callnative=1","route_id":"r2","route_name":"第2段"},{"name":"宠之堂","address":"政和街678号","phone":"13350878751","category":"医疗保健服务;动物医疗场所;宠物诊所","area":"凤溪大道","lng":103.86086,"lat":30.674062,"amap_id":"B0JK1UJFWN","order":19,"prev_distance_km":0.245,"cumulative_distance_km":13.41,"amap_marker_url":"https://uri.amap.com/marker?position=103.860860,30.674062&name=%E5%AE%A0%E4%B9%8B%E5%A0%82&src=vetmap&coordinate=gaode&callnative=1","route_id":"r2","route_name":"第2段"},{"name":"宠医森宠物诊所","address":"干石路267号(温泉大道地铁站D口步行470米)","phone":"19180501835","category":"医疗保健服务;动物医疗场所;宠物诊所","area":"凤溪大道","lng":103.858392,"lat":30.673373,"amap_id":"B0I3RZS2ML","order":20,"prev_distance_km":0.248,"cumulative_distance_km":13.658,"amap_marker_url":"https://uri.amap.com/marker?position=103.858392,30.673373&name=%E5%AE%A0%E5%8C%BB%E6%A3%AE%E5%AE%A0%E7%89%A9%E8%AF%8A%E6%89%80&src=vetmap&coordinate=gaode&callnative=1","route_id":"r2","route_name":"第2段"},{"name":"谐和益家动物医院(温江分院)","address":"政通西路11号(农商银行温江政通分理处旁)","phone":"17345750944","category":"医疗保健服务;动物医疗场所;宠物诊所","area":"凤溪大道","lng":103.854097,"lat":30.679791,"amap_id":"B0G0XD040P","order":21,"prev_distance_km":0.823,"cumulative_distance_km":14.481,"amap_marker_url":"https://uri.amap.com/marker?position=103.854097,30.679791&name=%E8%B0%90%E5%92%8C%E7%9B%8A%E5%AE%B6%E5%8A%A8%E7%89%A9%E5%8C%BB%E9%99%A2%28%E6%B8%A9%E6%B1%9F%E5%88%86%E9%99%A2%29&src=vetmap&coordinate=gaode&callnative=1","route_id":"r2","route_name":"第2段"},{"name":"恩伦动物诊所(原多吉动物医院)","address":"人和路148号","phone":"15283523730","category":"医疗保健服务;动物医疗场所;宠物诊所","area":"凤溪大道","lng":103.864258,"lat":30.680924,"amap_id":"B0J30U3SE8","order":22,"prev_distance_km":0.98,"cumulative_distance_km":15.461,"amap_marker_url":"https://uri.amap.com/marker?position=103.864258,30.680924&name=%E6%81%A9%E4%BC%A6%E5%8A%A8%E7%89%A9%E8%AF%8A%E6%89%80%28%E5%8E%9F%E5%A4%9A%E5%90%89%E5%8A%A8%E7%89%A9%E5%8C%BB%E9%99%A2%29&src=vetmap&coordinate=gaode&callnative=1","route_id":"r2","route_name":"第2段"},{"name":"爱德动物医院","address":"同兴一路20号","phone":"15108223530","category":"医疗保健服务;动物医疗场所;宠物诊所","area":"凤溪大道","lng":103.871064,"lat":30.68421,"amap_id":"B0KA7CTC1O","order":23,"prev_distance_km":0.746,"cumulative_distance_km":16.207,"amap_marker_url":"https://uri.amap.com/marker?position=103.871064,30.684210&name=%E7%88%B1%E5%BE%B7%E5%8A%A8%E7%89%A9%E5%8C%BB%E9%99%A2&src=vetmap&coordinate=gaode&callnative=1","route_id":"r2","route_name":"第2段"},{"name":"半岛宠物医院24小时(温江店)","address":"同兴东路387-389号","phone":"028-64255886","category":"医疗保健服务;动物医疗场所;宠物诊所","area":"公平","lng":103.869126,"lat":30.688288,"amap_id":"B0FFJZX3CN","order":24,"prev_distance_km":0.49,"cumulative_distance_km":16.697,"amap_marker_url":"https://uri.amap.com/marker?position=103.869126,30.688288&name=%E5%8D%8A%E5%B2%9B%E5%AE%A0%E7%89%A9%E5%8C%BB%E9%99%A224%E5%B0%8F%E6%97%B6%28%E6%B8%A9%E6%B1%9F%E5%BA%97%29&src=vetmap&coordinate=gaode&callnative=1","route_id":"r2","route_name":"第2段"},{"name":"巍尼动物医院","address":"公平花都大道西段769号","phone":"17318939255;17780700704","category":"医疗保健服务;动物医疗场所;宠物诊所","area":"公平","lng":103.86037,"lat":30.696637,"amap_id":"B0I0NR7G2N","order":25,"prev_distance_km":1.25,"cumulative_distance_km":17.947,"amap_marker_url":"https://uri.amap.com/marker?position=103.860370,30.696637&name=%E5%B7%8D%E5%B0%BC%E5%8A%A8%E7%89%A9%E5%8C%BB%E9%99%A2&src=vetmap&coordinate=gaode&callnative=1","route_id":"r2","route_name":"第2段"},{"name":"蓉腾动物诊所","address":"长安路293号","phone":"028-62346600","category":"医疗保健服务;动物医疗场所;宠物诊所","area":"公平","lng":103.85693,"lat":30.698522,"amap_id":"B0HR548JZA","order":26,"prev_distance_km":0.39,"cumulative_distance_km":18.337,"amap_marker_url":"https://uri.amap.com/marker?position=103.856930,30.698522&name=%E8%93%89%E8%85%BE%E5%8A%A8%E7%89%A9%E8%AF%8A%E6%89%80&src=vetmap&coordinate=gaode&callnative=1","route_id":"r2","route_name":"第2段"},{"name":"福康宠物医院(长安路店)","address":"长安路35号","phone":"13094475467","category":"医疗保健服务;动物医疗场所;宠物诊所","area":"公平","lng":103.849248,"lat":30.700679,"amap_id":"B0FFFAAXXQ","order":27,"prev_distance_km":0.773,"cumulative_distance_km":19.11,"amap_marker_url":"https://uri.amap.com/marker?position=103.849248,30.700679&name=%E7%A6%8F%E5%BA%B7%E5%AE%A0%E7%89%A9%E5%8C%BB%E9%99%A2%28%E9%95%BF%E5%AE%89%E8%B7%AF%E5%BA%97%29&src=vetmap&coordinate=gaode&callnative=1","route_id":"r2","route_name":"第2段"},{"name":"四川农业大学成都校区教学动物医院","address":"四川农业大学成都校区南门旁","phone":"028-86296382","category":"医疗保健服务;动物医疗场所;宠物诊所","area":"公平","lng":103.862401,"lat":30.701267,"amap_id":"B0FFIKVZWA","order":28,"prev_distance_km":1.259,"cumulative_distance_km":20.369,"amap_marker_url":"https://uri.amap.com/marker?position=103.862401,30.701267&name=%E5%9B%9B%E5%B7%9D%E5%86%9C%E4%B8%9A%E5%A4%A7%E5%AD%A6%E6%88%90%E9%83%BD%E6%A0%A1%E5%8C%BA%E6%95%99%E5%AD%A6%E5%8A%A8%E7%89%A9%E5%8C%BB%E9%99%A2&src=vetmap&coordinate=gaode&callnative=1","route_id":"r2","route_name":"第2段"},{"name":"周师兄动物医院","address":"惠民社区民乐北巷18号","phone":"18080888960","category":"医疗保健服务;动物医疗场所;宠物诊所","area":"公平","lng":103.865997,"lat":30.706574,"amap_id":"B0FFKMLZIO","order":29,"prev_distance_km":0.683,"cumulative_distance_km":21.052,"amap_marker_url":"https://uri.amap.com/marker?position=103.865997,30.706574&name=%E5%91%A8%E5%B8%88%E5%85%84%E5%8A%A8%E7%89%A9%E5%8C%BB%E9%99%A2&src=vetmap&coordinate=gaode&callnative=1","route_id":"r2","route_name":"第2段"}]}],"rows":[{"name":"温江区博美宠物诊所","address":"万春镇天乡路二段299号68栋附8号","phone":"17760456348","category":"医疗保健服务;动物医疗场所;宠物诊所","area":"万春","lng":103.834478,"lat":30.717147,"amap_id":"B0J0V7WQ8X","order":1,"prev_distance_km":0.0,"cumulative_distance_km":0.0,"amap_marker_url":"https://uri.amap.com/marker?position=103.834478,30.717147&name=%E6%B8%A9%E6%B1%9F%E5%8C%BA%E5%8D%9A%E7%BE%8E%E5%AE%A0%E7%89%A9%E8%AF%8A%E6%89%80&src=vetmap&coordinate=gaode&callnative=1","route_id":"r1","route_name":"第1段","global_order":1},{"name":"柒宸宠美","address":"国色天乡·奥特莱斯55栋","phone":"","category":"医疗保健服务;动物医疗场所;宠物诊所","area":"万春","lng":103.82392,"lat":30.723592,"amap_id":"B0LA5DPTSA","order":2,"prev_distance_km":1.238,"cumulative_distance_km":1.238,"amap_marker_url":"https://uri.amap.com/marker?position=103.823920,30.723592&name=%E6%9F%92%E5%AE%B8%E5%AE%A0%E7%BE%8E&src=vetmap&coordinate=gaode&callnative=1","route_id":"r1","route_name":"第1段","global_order":2},{"name":"康贝宠物医院","address":"花蕊路与天乡路二段交叉口西北240米","phone":"13658044668","category":"医疗保健服务;动物医疗场所;宠物诊所","area":"万春","lng":103.815497,"lat":30.71454,"amap_id":"B0JGBS7MOO","order":3,"prev_distance_km":1.289,"cumulative_distance_km":2.527,"amap_marker_url":"https://uri.amap.com/marker?position=103.815497,30.714540&name=%E5%BA%B7%E8%B4%9D%E5%AE%A0%E7%89%A9%E5%8C%BB%E9%99%A2&src=vetmap&coordinate=gaode&callnative=1","route_id":"r1","route_name":"第1段","global_order":3},{"name":"爱犬堂宠物美容店","address":"花蕊路与天乡路二段交叉口西北220米","phone":"","category":"医疗保健服务;动物医疗场所;动物医疗场所","area":"万春","lng":103.815525,"lat":30.714425,"amap_id":"B0LKNLR3JG","order":4,"prev_distance_km":0.013,"cumulative_distance_km":2.54,"amap_marker_url":"https://uri.amap.com/marker?position=103.815525,30.714425&name=%E7%88%B1%E7%8A%AC%E5%A0%82%E5%AE%A0%E7%89%A9%E7%BE%8E%E5%AE%B9%E5%BA%97&src=vetmap&coordinate=gaode&callnative=1","route_id":"r1","route_name":"第1段","global_order":4},{"name":"奥鸿力宠物","address":"万春镇天乡路二段天府宠物市场","phone":"","category":"医疗保健服务;动物医疗场所;宠物诊所","area":"万春","lng":103.816729,"lat":30.71331,"amap_id":"B0J22AZL5C","order":5,"prev_distance_km":0.169,"cumulative_distance_km":2.709,"amap_marker_url":"https://uri.amap.com/marker?position=103.816729,30.713310&name=%E5%A5%A5%E9%B8%BF%E5%8A%9B%E5%AE%A0%E7%89%A9&src=vetmap&coordinate=gaode&callnative=1","route_id":"r1","route_name":"第1段","global_order":5},{"name":"温江惠康动物医院","address":"战备渠北路251号","phone":"028-61469828","category":"医疗保健服务;动物医疗场所;宠物诊所","area":"柳城","lng":103.82408,"lat":30.703679,"amap_id":"B0FFIVBXMF","order":6,"prev_distance_km":1.281,"cumulative_distance_km":3.99,"amap_marker_url":"https://uri.amap.com/marker?position=103.824080,30.703679&name=%E6%B8%A9%E6%B1%9F%E6%83%A0%E5%BA%B7%E5%8A%A8%E7%89%A9%E5%8C%BB%E9%99%A2&src=vetmap&coordinate=gaode&callnative=1","route_id":"r1","route_name":"第1段","global_order":6},{"name":"小宠当家宠物美容店","address":"柳城街道战备渠北路250号","phone":"17311250080","category":"医疗保健服务;动物医疗场所;宠物诊所","area":"天府","lng":103.824129,"lat":30.703689,"amap_id":"B0FFHMRK9I","order":7,"prev_distance_km":0.005,"cumulative_distance_km":3.995,"amap_marker_url":"https://uri.amap.com/marker?position=103.824129,30.703689&name=%E5%B0%8F%E5%AE%A0%E5%BD%93%E5%AE%B6%E5%AE%A0%E7%89%A9%E7%BE%8E%E5%AE%B9%E5%BA%97&src=vetmap&coordinate=gaode&callnative=1","route_id":"r1","route_name":"第1段","global_order":7},{"name":"温江协和动物医院(柳河路店)","address":"柳河路666号(市五医院地铁站F口步行320米)","phone":"13880240321","category":"医疗保健服务;动物医疗场所;宠物诊所","area":"柳城","lng":103.826952,"lat":30.697877,"amap_id":"B0FFFOP111","order":8,"prev_distance_km":0.7,"cumulative_distance_km":4.695,"amap_marker_url":"https://uri.amap.com/marker?position=103.826952,30.697877&name=%E6%B8%A9%E6%B1%9F%E5%8D%8F%E5%92%8C%E5%8A%A8%E7%89%A9%E5%8C%BB%E9%99%A2%28%E6%9F%B3%E6%B2%B3%E8%B7%AF%E5%BA%97%29&src=vetmap&coordinate=gaode&callnative=1","route_id":"r1","route_name":"第1段","global_order":8},{"name":"精典动物医院","address":"德通桥南路3-5号","phone":"18583949379","category":"医疗保健服务;动物医疗场所;宠物诊所","area":"柳城","lng":103.819213,"lat":30.694243,"amap_id":"B0FFHE3G2C","order":9,"prev_distance_km":0.843,"cumulative_distance_km":5.538,"amap_marker_url":"https://uri.amap.com/marker?position=103.819213,30.694243&name=%E7%B2%BE%E5%85%B8%E5%8A%A8%E7%89%A9%E5%8C%BB%E9%99%A2&src=vetmap&coordinate=gaode&callnative=1","route_id":"r1","route_name":"第1段","global_order":9},{"name":"瑞鹏宠物医院农苑分院","address":"德通桥路431号","phone":"028-82735596","category":"医疗保健服务;动物医疗场所;宠物诊所","area":"凤溪大道","lng":103.817274,"lat":30.694246,"amap_id":"B0FFHGE7Y7","order":10,"prev_distance_km":0.185,"cumulative_distance_km":5.724,"amap_marker_url":"https://uri.amap.com/marker?position=103.817274,30.694246&name=%E7%91%9E%E9%B9%8F%E5%AE%A0%E7%89%A9%E5%8C%BB%E9%99%A2%E5%86%9C%E8%8B%91%E5%88%86%E9%99%A2&src=vetmap&coordinate=gaode&callnative=1","route_id":"r1","route_name":"第1段","global_order":10},{"name":"瑞鹏宠物医院农苑动物医院","address":"德通桥路431号","phone":"028-82735596","category":"医疗保健服务;动物医疗场所;宠物诊所","area":"柳城","lng":103.817274,"lat":30.694246,"amap_id":"B0G2UN2D9L","order":11,"prev_distance_km":0.0,"cumulative_distance_km":5.724,"amap_marker_url":"https://uri.amap.com/marker?position=103.817274,30.694246&name=%E7%91%9E%E9%B9%8F%E5%AE%A0%E7%89%A9%E5%8C%BB%E9%99%A2%E5%86%9C%E8%8B%91%E5%8A%A8%E7%89%A9%E5%8C%BB%E9%99%A2&src=vetmap&coordinate=gaode&callnative=1","route_id":"r1","route_name":"第1段","global_order":11},{"name":"淘淘动物医院(柳台店)","address":"柳台大道东段27号","phone":"028-82682368","category":"医疗保健服务;动物医疗场所;宠物诊所","area":"柳城","lng":103.827412,"lat":30.689599,"amap_id":"B001C92KHN","order":12,"prev_distance_km":1.099,"cumulative_distance_km":6.822,"amap_marker_url":"https://uri.amap.com/marker?position=103.827412,30.689599&name=%E6%B7%98%E6%B7%98%E5%8A%A8%E7%89%A9%E5%8C%BB%E9%99%A2%28%E6%9F%B3%E5%8F%B0%E5%BA%97%29&src=vetmap&coordinate=gaode&callnative=1","route_id":"r1","route_name":"第1段","global_order":12},{"name":"新博雅动物医院","address":"杨柳东路北段7号","phone":"18481156710","category":"医疗保健服务;动物医疗场所;宠物诊所","area":"柳城","lng":103.82843,"lat":30.691238,"amap_id":"B0FFK6DGLG","order":13,"prev_distance_km":0.207,"cumulative_distance_km":7.029,"amap_marker_url":"https://uri.amap.com/marker?position=103.828430,30.691238&name=%E6%96%B0%E5%8D%9A%E9%9B%85%E5%8A%A8%E7%89%A9%E5%8C%BB%E9%99%A2&src=vetmap&coordinate=gaode&callnative=1","route_id":"r1","route_name":"第1段","global_order":13},{"name":"温江佳友宠物医院","address":"云凤路351号","phone":"028-61702549;15388176023","category":"医疗保健服务;动物医疗场所;宠物诊所","area":"柳城","lng":103.827867,"lat":30.692938,"amap_id":"B001C8MWSC","order":14,"prev_distance_km":0.197,"cumulative_distance_km":7.225,"amap_marker_url":"https://uri.amap.com/marker?position=103.827867,30.692938&name=%E6%B8%A9%E6%B1%9F%E4%BD%B3%E5%8F%8B%E5%AE%A0%E7%89%A9%E5%8C%BB%E9%99%A2&src=vetmap&coordinate=gaode&callnative=1","route_id":"r1","route_name":"第1段","global_order":14},{"name":"温江区博美宠物医院","address":"团结巷31-35","phone":"028-82716909;13308090973","category":"医疗保健服务;动物医疗场所;宠物诊所","area":"柳城","lng":103.84187,"lat":30.694768,"amap_id":"B001C7RU71","order":15,"prev_distance_km":1.354,"cumulative_distance_km":8.58,"amap_marker_url":"https://uri.amap.com/marker?position=103.841870,30.694768&name=%E6%B8%A9%E6%B1%9F%E5%8C%BA%E5%8D%9A%E7%BE%8E%E5%AE%A0%E7%89%A9%E5%8C%BB%E9%99%A2&src=vetmap&coordinate=gaode&callnative=1","route_id":"r1","route_name":"第1段","global_order":15},{"name":"凯尔倍特动物医院·医保定点","address":"南江路430号","phone":"028-60351786;18884788584","category":"医疗保健服务;动物医疗场所;宠物诊所","area":"凤溪大道","lng":103.847496,"lat":30.685772,"amap_id":"B0JG978VBA","order":16,"prev_distance_km":1.136,"cumulative_distance_km":9.715,"amap_marker_url":"https://uri.amap.com/marker?position=103.847496,30.685772&name=%E5%87%AF%E5%B0%94%E5%80%8D%E7%89%B9%E5%8A%A8%E7%89%A9%E5%8C%BB%E9%99%A2%C2%B7%E5%8C%BB%E4%BF%9D%E5%AE%9A%E7%82%B9&src=vetmap&coordinate=gaode&callnative=1","route_id":"r1","route_name":"第1段","global_order":16},{"name":"宠医星初心宠(物医院温江区店)","address":"柳城街办凤溪大道南段405、407号","phone":"18982120120","category":"医疗保健服务;动物医疗场所;宠物诊所","area":"凤溪大道","lng":103.848782,"lat":30.682065,"amap_id":"B0FFJF3PGW","order":17,"prev_distance_km":0.43,"cumulative_distance_km":10.146,"amap_marker_url":"https://uri.amap.com/marker?position=103.848782,30.682065&name=%E5%AE%A0%E5%8C%BB%E6%98%9F%E5%88%9D%E5%BF%83%E5%AE%A0%28%E7%89%A9%E5%8C%BB%E9%99%A2%E6%B8%A9%E6%B1%9F%E5%8C%BA%E5%BA%97%29&src=vetmap&coordinate=gaode&callnative=1","route_id":"r1","route_name":"第1段","global_order":17},{"name":"宠爱伴侣动物医院温江分院","address":"南熏大道二段732-734号","phone":"028-82727669","category":"医疗保健服务;动物医疗场所;宠物诊所","area":"柳城","lng":103.838571,"lat":30.684608,"amap_id":"B0KDUCFFNY","order":18,"prev_distance_km":1.017,"cumulative_distance_km":11.162,"amap_marker_url":"https://uri.amap.com/marker?position=103.838571,30.684608&name=%E5%AE%A0%E7%88%B1%E4%BC%B4%E4%BE%A3%E5%8A%A8%E7%89%A9%E5%8C%BB%E9%99%A2%E6%B8%A9%E6%B1%9F%E5%88%86%E9%99%A2&src=vetmap&coordinate=gaode&callnative=1","route_id":"r1","route_name":"第1段","global_order":18},{"name":"宠博士动物医院(凤溪河分院)","address":"柳城街办南熏大道二段833号附107号","phone":"028-64258385;19102857973","category":"医疗保健服务;动物医疗场所;宠物诊所","area":"凤溪大道","lng":103.838574,"lat":30.682986,"amap_id":"B0HAZ77YPO","order":19,"prev_distance_km":0.18,"cumulative_distance_km":11.342,"amap_marker_url":"https://uri.amap.com/marker?position=103.838574,30.682986&name=%E5%AE%A0%E5%8D%9A%E5%A3%AB%E5%8A%A8%E7%89%A9%E5%8C%BB%E9%99%A2%28%E5%87%A4%E6%BA%AA%E6%B2%B3%E5%88%86%E9%99%A2%29&src=vetmap&coordinate=gaode&callnative=1","route_id":"r1","route_name":"第1段","global_order":19},{"name":"爱贝特动物医院·猫口炎专科","address":"杨柳东路中段282号(都市水岸大学城杨柳河)","phone":"18328049255","category":"医疗保健服务;动物医疗场所;宠物诊所","area":"柳城","lng":103.833825,"lat":30.682793,"amap_id":"B0FFFVKR4D","order":20,"prev_distance_km":0.455,"cumulative_distance_km":11.797,"amap_marker_url":"https://uri.amap.com/marker?position=103.833825,30.682793&name=%E7%88%B1%E8%B4%9D%E7%89%B9%E5%8A%A8%E7%89%A9%E5%8C%BB%E9%99%A2%C2%B7%E7%8C%AB%E5%8F%A3%E7%82%8E%E4%B8%93%E7%A7%91&src=vetmap&coordinate=gaode&callnative=1","route_id":"r1","route_name":"第1段","global_order":20},{"name":"溢熙动物诊所","address":"天府街道百信路28号附5号","phone":"13111858897","category":"医疗保健服务;动物医疗场所;宠物诊所","area":"凤溪大道","lng":103.834585,"lat":30.678773,"amap_id":"B0LR2C5MPY","order":21,"prev_distance_km":0.453,"cumulative_distance_km":12.25,"amap_marker_url":"https://uri.amap.com/marker?position=103.834585,30.678773&name=%E6%BA%A2%E7%86%99%E5%8A%A8%E7%89%A9%E8%AF%8A%E6%89%80&src=vetmap&coordinate=gaode&callnative=1","route_id":"r1","route_name":"第1段","global_order":21},{"name":"成都市温江区金马镇畜牧兽医站","address":"杨柳东路南段与南江路交叉口东南100米","phone":"13608043144","category":"医疗保健服务;动物医疗场所;兽医站","area":"凤溪大道","lng":103.836394,"lat":30.678522,"amap_id":"B0FFJ8WM85","order":22,"prev_distance_km":0.175,"cumulative_distance_km":12.425,"amap_marker_url":"https://uri.amap.com/marker?position=103.836394,30.678522&name=%E6%88%90%E9%83%BD%E5%B8%82%E6%B8%A9%E6%B1%9F%E5%8C%BA%E9%87%91%E9%A9%AC%E9%95%87%E7%95%9C%E7%89%A7%E5%85%BD%E5%8C%BB%E7%AB%99&src=vetmap&coordinate=gaode&callnative=1","route_id":"r1","route_name":"第1段","global_order":22},{"name":"汪小喵宠物美容馆(明信城店)","address":"明信诚A区4号门旁","phone":"","category":"医疗保健服务;动物医疗场所;动物医疗场所","area":"凤溪大道","lng":103.835413,"lat":30.675517,"amap_id":"B0KDRM3NT0","order":23,"prev_distance_km":0.347,"cumulative_distance_km":12.772,"amap_marker_url":"https://uri.amap.com/marker?position=103.835413,30.675517&name=%E6%B1%AA%E5%B0%8F%E5%96%B5%E5%AE%A0%E7%89%A9%E7%BE%8E%E5%AE%B9%E9%A6%86%28%E6%98%8E%E4%BF%A1%E5%9F%8E%E5%BA%97%29&src=vetmap&coordinate=gaode&callnative=1","route_id":"r1","route_name":"第1段","global_order":23},{"name":"宠博士动物医院(大学城分院)","address":"海科路东段636号(万盛地铁站D口步行260米)","phone":"028-65481858;19938483481","category":"医疗保健服务;动物医疗场所;宠物诊所","area":"","lng":103.816017,"lat":30.674391,"amap_id":"B0HRFZ30HH","order":24,"prev_distance_km":1.859,"cumulative_distance_km":14.631,"amap_marker_url":"https://uri.amap.com/marker?position=103.816017,30.674391&name=%E5%AE%A0%E5%8D%9A%E5%A3%AB%E5%8A%A8%E7%89%A9%E5%8C%BB%E9%99%A2%28%E5%A4%A7%E5%AD%A6%E5%9F%8E%E5%88%86%E9%99%A2%29&src=vetmap&coordinate=gaode&callnative=1","route_id":"r1","route_name":"第1段","global_order":24},{"name":"恒爱宠宝动物医院·犬猫全科·重症专科(温江店)","address":"海科路东段672号(万盛地铁站D口步行340米)","phone":"","category":"医疗保健服务;动物医疗场所;宠物诊所","area":"","lng":103.815125,"lat":30.673975,"amap_id":"B0I2PB3Q1E","order":25,"prev_distance_km":0.097,"cumulative_distance_km":14.729,"amap_marker_url":"https://uri.amap.com/marker?position=103.815125,30.673975&name=%E6%81%92%E7%88%B1%E5%AE%A0%E5%AE%9D%E5%8A%A8%E7%89%A9%E5%8C%BB%E9%99%A2%C2%B7%E7%8A%AC%E7%8C%AB%E5%85%A8%E7%A7%91%C2%B7%E9%87%8D%E7%97%87%E4%B8%93%E7%A7%91%28%E6%B8%A9%E6%B1%9F%E5%BA%97%29&src=vetmap&coordinate=gaode&callnative=1","route_id":"r1","route_name":"第1段","global_order":25},{"name":"恒爱宠宝宠物诊所","address":"海科路东段672号(万盛地铁站D口步行360米)","phone":"19382163371","category":"医疗保健服务;动物医疗场所;宠物诊所","area":"","lng":103.815074,"lat":30.673969,"amap_id":"B0IR9LTT3F","order":26,"prev_distance_km":0.005,"cumulative_distance_km":14.733,"amap_marker_url":"https://uri.amap.com/marker?position=103.815074,30.673969&name=%E6%81%92%E7%88%B1%E5%AE%A0%E5%AE%9D%E5%AE%A0%E7%89%A9%E8%AF%8A%E6%89%80&src=vetmap&coordinate=gaode&callnative=1","route_id":"r1","route_name":"第1段","global_order":26},{"name":"牧信动物诊所","address":"海天路260号","phone":"19950376131","category":"医疗保健服务;动物医疗场所;宠物诊所","area":"天府","lng":103.812019,"lat":30.677748,"amap_id":"B0H3F5AED1","order":27,"prev_distance_km":0.512,"cumulative_distance_km":15.245,"amap_marker_url":"https://uri.amap.com/marker?position=103.812019,30.677748&name=%E7%89%A7%E4%BF%A1%E5%8A%A8%E7%89%A9%E8%AF%8A%E6%89%80&src=vetmap&coordinate=gaode&callnative=1","route_id":"r1","route_name":"第1段","global_order":27},{"name":"爱奇动物诊所","address":"金马街道太极大道266号科源路1057号","phone":"19934609856","category":"医疗保健服务;动物医疗场所;宠物诊所","area":"金马","lng":103.802361,"lat":30.643807,"amap_id":"B0J3YA7LBC","order":28,"prev_distance_km":3.885,"cumulative_distance_km":19.131,"amap_marker_url":"https://uri.amap.com/marker?position=103.802361,30.643807&name=%E7%88%B1%E5%A5%87%E5%8A%A8%E7%89%A9%E8%AF%8A%E6%89%80&src=vetmap&coordinate=gaode&callnative=1","route_id":"r1","route_name":"第1段","global_order":28},{"name":"河马动物医院","address":"金马街道太极大道277号","phone":"19181931656","category":"医疗保健服务;动物医疗场所;宠物诊所","area":"金马","lng":103.803949,"lat":30.640911,"amap_id":"B0H1ZS7KPT","order":29,"prev_distance_km":0.356,"cumulative_distance_km":19.487,"amap_marker_url":"https://uri.amap.com/marker?position=103.803949,30.640911&name=%E6%B2%B3%E9%A9%AC%E5%8A%A8%E7%89%A9%E5%8C%BB%E9%99%A2&src=vetmap&coordinate=gaode&callnative=1","route_id":"r1","route_name":"第1段","global_order":29},{"name":"宠一研动物医院","address":"永宁街道芙蓉大道三段322号-324","phone":"18881888661","category":"医疗保健服务;动物医疗场所;宠物诊所","area":"电子科大科创谷园区","lng":103.914489,"lat":30.719297,"amap_id":"B0H0B7ZAIY","order":1,"prev_distance_km":0.0,"cumulative_distance_km":0.0,"amap_marker_url":"https://uri.amap.com/marker?position=103.914489,30.719297&name=%E5%AE%A0%E4%B8%80%E7%A0%94%E5%8A%A8%E7%89%A9%E5%8C%BB%E9%99%A2&src=vetmap&coordinate=gaode&callnative=1","route_id":"r2","route_name":"第2段","global_order":30},{"name":"波比动物医院·外科·内科·影像中心","address":"鸡鸣路589号","phone":"19381926137","category":"医疗保健服务;动物医疗场所;宠物诊所","area":"","lng":103.888096,"lat":30.690862,"amap_id":"B0I2NRO2I5","order":2,"prev_distance_km":4.045,"cumulative_distance_km":4.045,"amap_marker_url":"https://uri.amap.com/marker?position=103.888096,30.690862&name=%E6%B3%A2%E6%AF%94%E5%8A%A8%E7%89%A9%E5%8C%BB%E9%99%A2%C2%B7%E5%A4%96%E7%A7%91%C2%B7%E5%86%85%E7%A7%91%C2%B7%E5%BD%B1%E5%83%8F%E4%B8%AD%E5%BF%83&src=vetmap&coordinate=gaode&callnative=1","route_id":"r2","route_name":"第2段","global_order":31},{"name":"仁华宠物医院(温江总院)24小时","address":"千禧河畔C区南门东70米","phone":"19158866120","category":"医疗保健服务;动物医疗场所;宠物诊所","area":"涌泉","lng":103.887981,"lat":30.688012,"amap_id":"B0IROZWOVJ","order":3,"prev_distance_km":0.317,"cumulative_distance_km":4.362,"amap_marker_url":"https://uri.amap.com/marker?position=103.887981,30.688012&name=%E4%BB%81%E5%8D%8E%E5%AE%A0%E7%89%A9%E5%8C%BB%E9%99%A2%28%E6%B8%A9%E6%B1%9F%E6%80%BB%E9%99%A2%2924%E5%B0%8F%E6%97%B6&src=vetmap&coordinate=gaode&callnative=1","route_id":"r2","route_name":"第2段","global_order":32},{"name":"柳畔动物诊所","address":"都堂路204号","phone":"18190834882","category":"医疗保健服务;动物医疗场所;宠物诊所","area":"涌泉","lng":103.883466,"lat":30.689191,"amap_id":"B0JBTR5JWM","order":4,"prev_distance_km":0.451,"cumulative_distance_km":4.814,"amap_marker_url":"https://uri.amap.com/marker?position=103.883466,30.689191&name=%E6%9F%B3%E7%95%94%E5%8A%A8%E7%89%A9%E8%AF%8A%E6%89%80&src=vetmap&coordinate=gaode&callnative=1","route_id":"r2","route_name":"第2段","global_order":33},{"name":"维诺转诊动物医院","address":"江平路213号","phone":"18109042442;19150314120","category":"医疗保健服务;动物医疗场所;宠物诊所","area":"涌泉","lng":103.878554,"lat":30.687371,"amap_id":"B0FFKYKUKG","order":5,"prev_distance_km":0.511,"cumulative_distance_km":5.325,"amap_marker_url":"https://uri.amap.com/marker?position=103.878554,30.687371&name=%E7%BB%B4%E8%AF%BA%E8%BD%AC%E8%AF%8A%E5%8A%A8%E7%89%A9%E5%8C%BB%E9%99%A2&src=vetmap&coordinate=gaode&callnative=1","route_id":"r2","route_name":"第2段","global_order":34},{"name":"瑞鹏宠物医院(涌泉分院)","address":"清泉北街357号","phone":"028-85568166","category":"医疗保健服务;动物医疗场所;宠物诊所","area":"涌泉","lng":103.881207,"lat":30.686001,"amap_id":"B0FFJDBXPR","order":6,"prev_distance_km":0.296,"cumulative_distance_km":5.621,"amap_marker_url":"https://uri.amap.com/marker?position=103.881207,30.686001&name=%E7%91%9E%E9%B9%8F%E5%AE%A0%E7%89%A9%E5%8C%BB%E9%99%A2%28%E6%B6%8C%E6%B3%89%E5%88%86%E9%99%A2%29&src=vetmap&coordinate=gaode&callnative=1","route_id":"r2","route_name":"第2段","global_order":35},{"name":"瑞派华茜宠物医院(温江店)","address":"涌泉江浦路626号628号","phone":"028-82744133","category":"医疗保健服务;动物医疗场所;宠物诊所","area":"涌泉","lng":103.885857,"lat":30.684254,"amap_id":"B0GKB5FFJJ","order":7,"prev_distance_km":0.485,"cumulative_distance_km":6.106,"amap_marker_url":"https://uri.amap.com/marker?position=103.885857,30.684254&name=%E7%91%9E%E6%B4%BE%E5%8D%8E%E8%8C%9C%E5%AE%A0%E7%89%A9%E5%8C%BB%E9%99%A2%28%E6%B8%A9%E6%B1%9F%E5%BA%97%29&src=vetmap&coordinate=gaode&callnative=1","route_id":"r2","route_name":"第2段","global_order":36},{"name":"同伴宠物诊所","address":"凤凰北大街73号(凤凰大街地铁站C1口步行240米)","phone":"15928118679","category":"医疗保健服务;动物医疗场所;宠物诊所","area":"涌泉","lng":103.890574,"lat":30.680377,"amap_id":"B0FFKRFJAE","order":8,"prev_distance_km":0.624,"cumulative_distance_km":6.73,"amap_marker_url":"https://uri.amap.com/marker?position=103.890574,30.680377&name=%E5%90%8C%E4%BC%B4%E5%AE%A0%E7%89%A9%E8%AF%8A%E6%89%80&src=vetmap&coordinate=gaode&callnative=1","route_id":"r2","route_name":"第2段","global_order":37},{"name":"百思宠物诊所","address":"仁和春天南门29栋106号","phone":"17380655544","category":"医疗保健服务;动物医疗场所;宠物诊所","area":"涌泉","lng":103.89562,"lat":30.677854,"amap_id":"B0KRPRNEUM","order":9,"prev_distance_km":0.558,"cumulative_distance_km":7.288,"amap_marker_url":"https://uri.amap.com/marker?position=103.895620,30.677854&name=%E7%99%BE%E6%80%9D%E5%AE%A0%E7%89%A9%E8%AF%8A%E6%89%80&src=vetmap&coordinate=gaode&callnative=1","route_id":"r2","route_name":"第2段","global_order":38},{"name":"仁爱宠物诊所(花土路)","address":"花土路1469号","phone":"18080861913","category":"医疗保健服务;动物医疗场所;宠物诊所","area":"涌泉","lng":103.887511,"lat":30.671172,"amap_id":"B0FFIN1I5J","order":10,"prev_distance_km":1.074,"cumulative_distance_km":8.362,"amap_marker_url":"https://uri.amap.com/marker?position=103.887511,30.671172&name=%E4%BB%81%E7%88%B1%E5%AE%A0%E7%89%A9%E8%AF%8A%E6%89%80%28%E8%8A%B1%E5%9C%9F%E8%B7%AF%29&src=vetmap&coordinate=gaode&callnative=1","route_id":"r2","route_name":"第2段","global_order":39},{"name":"康恒动物医院","address":"光华大道611号","phone":"028-64959028","category":"医疗保健服务;动物医疗场所;宠物诊所","area":"涌泉","lng":103.883177,"lat":30.677309,"amap_id":"B0FFHS4PP2","order":11,"prev_distance_km":0.798,"cumulative_distance_km":9.161,"amap_marker_url":"https://uri.amap.com/marker?position=103.883177,30.677309&name=%E5%BA%B7%E6%81%92%E5%8A%A8%E7%89%A9%E5%8C%BB%E9%99%A2&src=vetmap&coordinate=gaode&callnative=1","route_id":"r2","route_name":"第2段","global_order":40},{"name":"温江佳萌动物诊所","address":"涌泉街办清泉北街2号1栋1层2号","phone":"028-63104826;19113292050","category":"医疗保健服务;动物医疗场所;宠物诊所","area":"涌泉","lng":103.878619,"lat":30.6794,"amap_id":"B0GR75HUNI","order":12,"prev_distance_km":0.494,"cumulative_distance_km":9.655,"amap_marker_url":"https://uri.amap.com/marker?position=103.878619,30.679400&name=%E6%B8%A9%E6%B1%9F%E4%BD%B3%E8%90%8C%E5%8A%A8%E7%89%A9%E8%AF%8A%E6%89%80&src=vetmap&coordinate=gaode&callnative=1","route_id":"r2","route_name":"第2段","global_order":41},{"name":"嘉阳宠物医院","address":"鹏程路248号","phone":"18113020050","category":"医疗保健服务;动物医疗场所;宠物诊所","area":"涌泉","lng":103.87684,"lat":30.674682,"amap_id":"B0H39SRBCH","order":13,"prev_distance_km":0.552,"cumulative_distance_km":10.206,"amap_marker_url":"https://uri.amap.com/marker?position=103.876840,30.674682&name=%E5%98%89%E9%98%B3%E5%AE%A0%E7%89%A9%E5%8C%BB%E9%99%A2&src=vetmap&coordinate=gaode&callnative=1","route_id":"r2","route_name":"第2段","global_order":42},{"name":"飞异动物医院","address":"洪江路1069-1071","phone":"17323264640","category":"医疗保健服务;动物医疗场所;宠物诊所","area":"涌泉","lng":103.874896,"lat":30.666351,"amap_id":"B0LAH5FPBN","order":14,"prev_distance_km":0.945,"cumulative_distance_km":11.151,"amap_marker_url":"https://uri.amap.com/marker?position=103.874896,30.666351&name=%E9%A3%9E%E5%BC%82%E5%8A%A8%E7%89%A9%E5%8C%BB%E9%99%A2&src=vetmap&coordinate=gaode&callnative=1","route_id":"r2","route_name":"第2段","global_order":43},{"name":"和美宠物诊所","address":"花土路105-107号","phone":"15882195146","category":"医疗保健服务;动物医疗场所;宠物诊所","area":"涌泉","lng":103.867244,"lat":30.673776,"amap_id":"B0H1YAWO0T","order":15,"prev_distance_km":1.103,"cumulative_distance_km":12.254,"amap_marker_url":"https://uri.amap.com/marker?position=103.867244,30.673776&name=%E5%92%8C%E7%BE%8E%E5%AE%A0%E7%89%A9%E8%AF%8A%E6%89%80&src=vetmap&coordinate=gaode&callnative=1","route_id":"r2","route_name":"第2段","global_order":44},{"name":"御宠道宠物诊所(温江店)","address":"恒大未来城1期南门西南50米","phone":"19182200120","category":"医疗保健服务;动物医疗场所;宠物诊所","area":"涌泉","lng":103.863602,"lat":30.671907,"amap_id":"B0LB7UFBPG","order":16,"prev_distance_km":0.406,"cumulative_distance_km":12.66,"amap_marker_url":"https://uri.amap.com/marker?position=103.863602,30.671907&name=%E5%BE%A1%E5%AE%A0%E9%81%93%E5%AE%A0%E7%89%A9%E8%AF%8A%E6%89%80%28%E6%B8%A9%E6%B1%9F%E5%BA%97%29&src=vetmap&coordinate=gaode&callnative=1","route_id":"r2","route_name":"第2段","global_order":45},{"name":"千宠宠物(时代金悦店)","address":"温泉大道二段438号","phone":"15881039023","category":"医疗保健服务;动物医疗场所;动物医疗场所","area":"涌泉","lng":103.862673,"lat":30.674765,"amap_id":"B0HDU5JYP3","order":17,"prev_distance_km":0.33,"cumulative_distance_km":12.99,"amap_marker_url":"https://uri.amap.com/marker?position=103.862673,30.674765&name=%E5%8D%83%E5%AE%A0%E5%AE%A0%E7%89%A9%28%E6%97%B6%E4%BB%A3%E9%87%91%E6%82%A6%E5%BA%97%29&src=vetmap&coordinate=gaode&callnative=1","route_id":"r2","route_name":"第2段","global_order":46},{"name":"宠博士宠物医院(涌泉店)","address":"政通东路411号","phone":"028-81021487;18180534917","category":"医疗保健服务;动物医疗场所;宠物诊所","area":"涌泉","lng":103.861763,"lat":30.676125,"amap_id":"B0LR0XQN1R","order":18,"prev_distance_km":0.174,"cumulative_distance_km":13.165,"amap_marker_url":"https://uri.amap.com/marker?position=103.861763,30.676125&name=%E5%AE%A0%E5%8D%9A%E5%A3%AB%E5%AE%A0%E7%89%A9%E5%8C%BB%E9%99%A2%28%E6%B6%8C%E6%B3%89%E5%BA%97%29&src=vetmap&coordinate=gaode&callnative=1","route_id":"r2","route_name":"第2段","global_order":47},{"name":"宠之堂","address":"政和街678号","phone":"13350878751","category":"医疗保健服务;动物医疗场所;宠物诊所","area":"凤溪大道","lng":103.86086,"lat":30.674062,"amap_id":"B0JK1UJFWN","order":19,"prev_distance_km":0.245,"cumulative_distance_km":13.41,"amap_marker_url":"https://uri.amap.com/marker?position=103.860860,30.674062&name=%E5%AE%A0%E4%B9%8B%E5%A0%82&src=vetmap&coordinate=gaode&callnative=1","route_id":"r2","route_name":"第2段","global_order":48},{"name":"宠医森宠物诊所","address":"干石路267号(温泉大道地铁站D口步行470米)","phone":"19180501835","category":"医疗保健服务;动物医疗场所;宠物诊所","area":"凤溪大道","lng":103.858392,"lat":30.673373,"amap_id":"B0I3RZS2ML","order":20,"prev_distance_km":0.248,"cumulative_distance_km":13.658,"amap_marker_url":"https://uri.amap.com/marker?position=103.858392,30.673373&name=%E5%AE%A0%E5%8C%BB%E6%A3%AE%E5%AE%A0%E7%89%A9%E8%AF%8A%E6%89%80&src=vetmap&coordinate=gaode&callnative=1","route_id":"r2","route_name":"第2段","global_order":49},{"name":"谐和益家动物医院(温江分院)","address":"政通西路11号(农商银行温江政通分理处旁)","phone":"17345750944","category":"医疗保健服务;动物医疗场所;宠物诊所","area":"凤溪大道","lng":103.854097,"lat":30.679791,"amap_id":"B0G0XD040P","order":21,"prev_distance_km":0.823,"cumulative_distance_km":14.481,"amap_marker_url":"https://uri.amap.com/marker?position=103.854097,30.679791&name=%E8%B0%90%E5%92%8C%E7%9B%8A%E5%AE%B6%E5%8A%A8%E7%89%A9%E5%8C%BB%E9%99%A2%28%E6%B8%A9%E6%B1%9F%E5%88%86%E9%99%A2%29&src=vetmap&coordinate=gaode&callnative=1","route_id":"r2","route_name":"第2段","global_order":50},{"name":"恩伦动物诊所(原多吉动物医院)","address":"人和路148号","phone":"15283523730","category":"医疗保健服务;动物医疗场所;宠物诊所","area":"凤溪大道","lng":103.864258,"lat":30.680924,"amap_id":"B0J30U3SE8","order":22,"prev_distance_km":0.98,"cumulative_distance_km":15.461,"amap_marker_url":"https://uri.amap.com/marker?position=103.864258,30.680924&name=%E6%81%A9%E4%BC%A6%E5%8A%A8%E7%89%A9%E8%AF%8A%E6%89%80%28%E5%8E%9F%E5%A4%9A%E5%90%89%E5%8A%A8%E7%89%A9%E5%8C%BB%E9%99%A2%29&src=vetmap&coordinate=gaode&callnative=1","route_id":"r2","route_name":"第2段","global_order":51},{"name":"爱德动物医院","address":"同兴一路20号","phone":"15108223530","category":"医疗保健服务;动物医疗场所;宠物诊所","area":"凤溪大道","lng":103.871064,"lat":30.68421,"amap_id":"B0KA7CTC1O","order":23,"prev_distance_km":0.746,"cumulative_distance_km":16.207,"amap_marker_url":"https://uri.amap.com/marker?position=103.871064,30.684210&name=%E7%88%B1%E5%BE%B7%E5%8A%A8%E7%89%A9%E5%8C%BB%E9%99%A2&src=vetmap&coordinate=gaode&callnative=1","route_id":"r2","route_name":"第2段","global_order":52},{"name":"半岛宠物医院24小时(温江店)","address":"同兴东路387-389号","phone":"028-64255886","category":"医疗保健服务;动物医疗场所;宠物诊所","area":"公平","lng":103.869126,"lat":30.688288,"amap_id":"B0FFJZX3CN","order":24,"prev_distance_km":0.49,"cumulative_distance_km":16.697,"amap_marker_url":"https://uri.amap.com/marker?position=103.869126,30.688288&name=%E5%8D%8A%E5%B2%9B%E5%AE%A0%E7%89%A9%E5%8C%BB%E9%99%A224%E5%B0%8F%E6%97%B6%28%E6%B8%A9%E6%B1%9F%E5%BA%97%29&src=vetmap&coordinate=gaode&callnative=1","route_id":"r2","route_name":"第2段","global_order":53},{"name":"巍尼动物医院","address":"公平花都大道西段769号","phone":"17318939255;17780700704","category":"医疗保健服务;动物医疗场所;宠物诊所","area":"公平","lng":103.86037,"lat":30.696637,"amap_id":"B0I0NR7G2N","order":25,"prev_distance_km":1.25,"cumulative_distance_km":17.947,"amap_marker_url":"https://uri.amap.com/marker?position=103.860370,30.696637&name=%E5%B7%8D%E5%B0%BC%E5%8A%A8%E7%89%A9%E5%8C%BB%E9%99%A2&src=vetmap&coordinate=gaode&callnative=1","route_id":"r2","route_name":"第2段","global_order":54},{"name":"蓉腾动物诊所","address":"长安路293号","phone":"028-62346600","category":"医疗保健服务;动物医疗场所;宠物诊所","area":"公平","lng":103.85693,"lat":30.698522,"amap_id":"B0HR548JZA","order":26,"prev_distance_km":0.39,"cumulative_distance_km":18.337,"amap_marker_url":"https://uri.amap.com/marker?position=103.856930,30.698522&name=%E8%93%89%E8%85%BE%E5%8A%A8%E7%89%A9%E8%AF%8A%E6%89%80&src=vetmap&coordinate=gaode&callnative=1","route_id":"r2","route_name":"第2段","global_order":55},{"name":"福康宠物医院(长安路店)","address":"长安路35号","phone":"13094475467","category":"医疗保健服务;动物医疗场所;宠物诊所","area":"公平","lng":103.849248,"lat":30.700679,"amap_id":"B0FFFAAXXQ","order":27,"prev_distance_km":0.773,"cumulative_distance_km":19.11,"amap_marker_url":"https://uri.amap.com/marker?position=103.849248,30.700679&name=%E7%A6%8F%E5%BA%B7%E5%AE%A0%E7%89%A9%E5%8C%BB%E9%99%A2%28%E9%95%BF%E5%AE%89%E8%B7%AF%E5%BA%97%29&src=vetmap&coordinate=gaode&callnative=1","route_id":"r2","route_name":"第2段","global_order":56},{"name":"四川农业大学成都校区教学动物医院","address":"四川农业大学成都校区南门旁","phone":"028-86296382","category":"医疗保健服务;动物医疗场所;宠物诊所","area":"公平","lng":103.862401,"lat":30.701267,"amap_id":"B0FFIKVZWA","order":28,"prev_distance_km":1.259,"cumulative_distance_km":20.369,"amap_marker_url":"https://uri.amap.com/marker?position=103.862401,30.701267&name=%E5%9B%9B%E5%B7%9D%E5%86%9C%E4%B8%9A%E5%A4%A7%E5%AD%A6%E6%88%90%E9%83%BD%E6%A0%A1%E5%8C%BA%E6%95%99%E5%AD%A6%E5%8A%A8%E7%89%A9%E5%8C%BB%E9%99%A2&src=vetmap&coordinate=gaode&callnative=1","route_id":"r2","route_name":"第2段","global_order":57},{"name":"周师兄动物医院","address":"惠民社区民乐北巷18号","phone":"18080888960","category":"医疗保健服务;动物医疗场所;宠物诊所","area":"公平","lng":103.865997,"lat":30.706574,"amap_id":"B0FFKMLZIO","order":29,"prev_distance_km":0.683,"cumulative_distance_km":21.052,"amap_marker_url":"https://uri.amap.com/marker?position=103.865997,30.706574&name=%E5%91%A8%E5%B8%88%E5%85%84%E5%8A%A8%E7%89%A9%E5%8C%BB%E9%99%A2&src=vetmap&coordinate=gaode&callnative=1","route_id":"r2","route_name":"第2段","global_order":58}]}