{"summary":{"id":"d02046","province":"四川省","city":"南充市","district":"嘉陵区","count":6,"total_distance_km":36.646,"coordinate_system":"GCJ-02 / Amap","generated_at":"2026-05-07 20:21:23"},"rows":[{"name":"安平畜牧兽医服务站","address":"斜桥街与李龙路交叉口西南160米","phone":"","category":"医疗保健服务;动物医疗场所;兽医站","area":"","lng":105.910185,"lat":30.645394,"amap_id":"B0LDMUEFL7","order":1,"prev_distance_km":0.0,"cumulative_distance_km":0.0,"amap_marker_url":"https://uri.amap.com/marker?position=105.910185,30.645394&name=%E5%AE%89%E5%B9%B3%E7%95%9C%E7%89%A7%E5%85%BD%E5%8C%BB%E6%9C%8D%E5%8A%A1%E7%AB%99&src=vetmap&coordinate=gaode&callnative=1"},{"name":"牧康动保","address":"正蟠街与龙兴路交叉口东南200米","phone":"","category":"医疗保健服务;动物医疗场所;动物医疗场所","area":"","lng":105.887162,"lat":30.799247,"amap_id":"B0LR9BNZ0V","order":2,"prev_distance_km":17.249,"cumulative_distance_km":17.249,"amap_marker_url":"https://uri.amap.com/marker?position=105.887162,30.799247&name=%E7%89%A7%E5%BA%B7%E5%8A%A8%E4%BF%9D&src=vetmap&coordinate=gaode&callnative=1"},{"name":"佳诚宠物诊所","address":"嘉西路246号","phone":"17778489883","category":"医疗保健服务;动物医疗场所;宠物诊所","area":"","lng":106.058625,"lat":30.768039,"amap_id":"B0M6O7M4YU","order":3,"prev_distance_km":16.743,"cumulative_distance_km":33.992,"amap_marker_url":"https://uri.amap.com/marker?position=106.058625,30.768039&name=%E4%BD%B3%E8%AF%9A%E5%AE%A0%E7%89%A9%E8%AF%8A%E6%89%80&src=vetmap&coordinate=gaode&callnative=1"},{"name":"唯爱动物医馆嘉陵店·猫友好医院","address":"都尉路一段188号附5.6号","phone":"17378880601","category":"医疗保健服务;动物医疗场所;宠物诊所","area":"","lng":106.062511,"lat":30.759168,"amap_id":"B0JA77S13R","order":4,"prev_distance_km":1.054,"cumulative_distance_km":35.046,"amap_marker_url":"https://uri.amap.com/marker?position=106.062511,30.759168&name=%E5%94%AF%E7%88%B1%E5%8A%A8%E7%89%A9%E5%8C%BB%E9%A6%86%E5%98%89%E9%99%B5%E5%BA%97%C2%B7%E7%8C%AB%E5%8F%8B%E5%A5%BD%E5%8C%BB%E9%99%A2&src=vetmap&coordinate=gaode&callnative=1"},{"name":"佳灵动物医院(嘉陵店)","address":"都尉路二段120号丽景府停车场旁边","phone":"0817-3818963;18615709994","category":"医疗保健服务;动物医疗场所;宠物诊所","area":"","lng":106.057939,"lat":30.750409,"amap_id":"B0H2DOHDPS","order":5,"prev_distance_km":1.067,"cumulative_distance_km":36.113,"amap_marker_url":"https://uri.amap.com/marker?position=106.057939,30.750409&name=%E4%BD%B3%E7%81%B5%E5%8A%A8%E7%89%A9%E5%8C%BB%E9%99%A2%28%E5%98%89%E9%99%B5%E5%BA%97%29&src=vetmap&coordinate=gaode&callnative=1"},{"name":"宠急送宠物深夜急救站","address":"晶蓥路8号","phone":"18190613371","category":"医疗保健服务;动物医疗场所;动物医疗场所","area":"","lng":106.057122,"lat":30.745674,"amap_id":"B0L3TM79BB","order":6,"prev_distance_km":0.532,"cumulative_distance_km":36.646,"amap_marker_url":"https://uri.amap.com/marker?position=106.057122,30.745674&name=%E5%AE%A0%E6%80%A5%E9%80%81%E5%AE%A0%E7%89%A9%E6%B7%B1%E5%A4%9C%E6%80%A5%E6%95%91%E7%AB%99&src=vetmap&coordinate=gaode&callnative=1"}]}