{"summary":{"id":"d02081","province":"四川省","city":"德阳市","district":"中江县","count":29,"route_count":1,"max_route_clinics":29,"total_distance_km":182.575,"coordinate_system":"GCJ-02 / Amap","generated_at":"2026-05-07 21:26:39"},"routes":[{"id":"r1","name":"第1段","count":29,"total_distance_km":182.575,"rows":[{"name":"中江县黄鹿镇畜牧兽医站","address":"储粮街68号","phone":"","category":"医疗保健服务;动物医疗场所;兽医站","area":"","lng":104.705457,"lat":31.247604,"amap_id":"B034600LFA","order":1,"prev_distance_km":0.0,"cumulative_distance_km":0.0,"amap_marker_url":"https://uri.amap.com/marker?position=104.705457,31.247604&name=%E4%B8%AD%E6%B1%9F%E5%8E%BF%E9%BB%84%E9%B9%BF%E9%95%87%E7%95%9C%E7%89%A7%E5%85%BD%E5%8C%BB%E7%AB%99&src=vetmap&coordinate=gaode&callnative=1","route_id":"r1","route_name":"第1段"},{"name":"中江县永太镇畜牧兽医站","address":"驭马南街22号","phone":"","category":"医疗保健服务;动物医疗场所;兽医站","area":"","lng":104.676769,"lat":31.13954,"amap_id":"B034601OJZ","order":2,"prev_distance_km":12.322,"cumulative_distance_km":12.322,"amap_marker_url":"https://uri.amap.com/marker?position=104.676769,31.139540&name=%E4%B8%AD%E6%B1%9F%E5%8E%BF%E6%B0%B8%E5%A4%AA%E9%95%87%E7%95%9C%E7%89%A7%E5%85%BD%E5%8C%BB%E7%AB%99&src=vetmap&coordinate=gaode&callnative=1","route_id":"r1","route_name":"第1段"},{"name":"关怀动物医院","address":"一环路北段浩淼大道514号附6-7号","phone":"18981110357;19828485658","category":"医疗保健服务;动物医疗场所;宠物诊所","area":"","lng":104.679316,"lat":31.048943,"amap_id":"B0K27Z6VZ0","order":3,"prev_distance_km":10.077,"cumulative_distance_km":22.399,"amap_marker_url":"https://uri.amap.com/marker?position=104.679316,31.048943&name=%E5%85%B3%E6%80%80%E5%8A%A8%E7%89%A9%E5%8C%BB%E9%99%A2&src=vetmap&coordinate=gaode&callnative=1","route_id":"r1","route_name":"第1段"},{"name":"德济堂动物诊所","address":"凯江镇和贸街120号万世达和映北城","phone":"17311829960","category":"医疗保健服务;动物医疗场所;宠物诊所","area":"","lng":104.675597,"lat":31.045791,"amap_id":"B0FFJPIMHV","order":4,"prev_distance_km":0.498,"cumulative_distance_km":22.897,"amap_marker_url":"https://uri.amap.com/marker?position=104.675597,31.045791&name=%E5%BE%B7%E6%B5%8E%E5%A0%82%E5%8A%A8%E7%89%A9%E8%AF%8A%E6%89%80&src=vetmap&coordinate=gaode&callnative=1","route_id":"r1","route_name":"第1段"},{"name":"廖氏宠物门诊","address":"北塔街89号","phone":"13778265588;13990268822","category":"医疗保健服务;动物医疗场所;宠物诊所","area":"","lng":104.678148,"lat":31.044118,"amap_id":"B0FFFDIX6D","order":5,"prev_distance_km":0.306,"cumulative_distance_km":23.203,"amap_marker_url":"https://uri.amap.com/marker?position=104.678148,31.044118&name=%E5%BB%96%E6%B0%8F%E5%AE%A0%E7%89%A9%E9%97%A8%E8%AF%8A&src=vetmap&coordinate=gaode&callnative=1","route_id":"r1","route_name":"第1段"},{"name":"爱宠宠物美容","address":"凯江镇桥亭街17号","phone":"13320861983","category":"医疗保健服务;动物医疗场所;动物医疗场所","area":"","lng":104.676029,"lat":31.041942,"amap_id":"B0FFHLZNM0","order":6,"prev_distance_km":0.315,"cumulative_distance_km":23.519,"amap_marker_url":"https://uri.amap.com/marker?position=104.676029,31.041942&name=%E7%88%B1%E5%AE%A0%E5%AE%A0%E7%89%A9%E7%BE%8E%E5%AE%B9&src=vetmap&coordinate=gaode&callnative=1","route_id":"r1","route_name":"第1段"},{"name":"雨婷宠物门诊二店","address":"金碧步行街9号","phone":"15883892966","category":"医疗保健服务;动物医疗场所;宠物诊所","area":"","lng":104.673888,"lat":31.037837,"amap_id":"B0FFKMYT3M","order":7,"prev_distance_km":0.5,"cumulative_distance_km":24.018,"amap_marker_url":"https://uri.amap.com/marker?position=104.673888,31.037837&name=%E9%9B%A8%E5%A9%B7%E5%AE%A0%E7%89%A9%E9%97%A8%E8%AF%8A%E4%BA%8C%E5%BA%97&src=vetmap&coordinate=gaode&callnative=1","route_id":"r1","route_name":"第1段"},{"name":"如宠宠物洗护美容","address":"玄武西路与下南街交叉口东40米","phone":"","category":"医疗保健服务;动物医疗场所;宠物诊所","area":"","lng":104.676907,"lat":31.032435,"amap_id":"B0JRH1M3TC","order":8,"prev_distance_km":0.666,"cumulative_distance_km":24.684,"amap_marker_url":"https://uri.amap.com/marker?position=104.676907,31.032435&name=%E5%A6%82%E5%AE%A0%E5%AE%A0%E7%89%A9%E6%B4%97%E6%8A%A4%E7%BE%8E%E5%AE%B9&src=vetmap&coordinate=gaode&callnative=1","route_id":"r1","route_name":"第1段"},{"name":"尚宠动物诊所","address":"横街与下南街交叉口西20米","phone":"","category":"医疗保健服务;动物医疗场所;宠物诊所","area":"","lng":104.6763,"lat":31.032183,"amap_id":"B0J2NPGPYQ","order":9,"prev_distance_km":0.064,"cumulative_distance_km":24.749,"amap_marker_url":"https://uri.amap.com/marker?position=104.676300,31.032183&name=%E5%B0%9A%E5%AE%A0%E5%8A%A8%E7%89%A9%E8%AF%8A%E6%89%80&src=vetmap&coordinate=gaode&callnative=1","route_id":"r1","route_name":"第1段"},{"name":"护航宠物医院","address":"凯江镇朝阳南路4号","phone":"18828582895","category":"医疗保健服务;动物医疗场所;宠物诊所","area":"","lng":104.675846,"lat":31.029032,"amap_id":"B0JDZZAE72","order":10,"prev_distance_km":0.353,"cumulative_distance_km":25.102,"amap_marker_url":"https://uri.amap.com/marker?position=104.675846,31.029032&name=%E6%8A%A4%E8%88%AA%E5%AE%A0%E7%89%A9%E5%8C%BB%E9%99%A2&src=vetmap&coordinate=gaode&callnative=1","route_id":"r1","route_name":"第1段"},{"name":"御马街动物诊所","address":"东河路下段与御马街交叉口东北50米","phone":"0838-7250675;13881081201","category":"医疗保健服务;动物医疗场所;宠物诊所","area":"","lng":104.682083,"lat":31.027516,"amap_id":"B0FFGSIFM1","order":11,"prev_distance_km":0.618,"cumulative_distance_km":25.72,"amap_marker_url":"https://uri.amap.com/marker?position=104.682083,31.027516&name=%E5%BE%A1%E9%A9%AC%E8%A1%97%E5%8A%A8%E7%89%A9%E8%AF%8A%E6%89%80&src=vetmap&coordinate=gaode&callnative=1","route_id":"r1","route_name":"第1段"},{"name":"宠爱动物医院","address":"凯江镇东江右路三段166号南滨国际","phone":"15708217718","category":"医疗保健服务;动物医疗场所;宠物诊所","area":"","lng":104.686314,"lat":31.025853,"amap_id":"B0KU3DIFYE","order":12,"prev_distance_km":0.444,"cumulative_distance_km":26.163,"amap_marker_url":"https://uri.amap.com/marker?position=104.686314,31.025853&name=%E5%AE%A0%E7%88%B1%E5%8A%A8%E7%89%A9%E5%8C%BB%E9%99%A2&src=vetmap&coordinate=gaode&callnative=1","route_id":"r1","route_name":"第1段"},{"name":"中江县通济镇畜牧兽医站","address":"仁和西路34号","phone":"","category":"医疗保健服务;动物医疗场所;兽医站","area":"","lng":104.757253,"lat":31.07283,"amap_id":"B034600LHV","order":13,"prev_distance_km":8.541,"cumulative_distance_km":34.704,"amap_marker_url":"https://uri.amap.com/marker?position=104.757253,31.072830&name=%E4%B8%AD%E6%B1%9F%E5%8E%BF%E9%80%9A%E6%B5%8E%E9%95%87%E7%95%9C%E7%89%A7%E5%85%BD%E5%8C%BB%E7%AB%99&src=vetmap&coordinate=gaode&callnative=1","route_id":"r1","route_name":"第1段"},{"name":"中江县悦来镇畜牧兽医站","address":"悦壁路北50米","phone":"","category":"医疗保健服务;动物医疗场所;兽医站","area":"","lng":104.790659,"lat":30.97254,"amap_id":"B0FFG87IKU","order":14,"prev_distance_km":11.597,"cumulative_distance_km":46.302,"amap_marker_url":"https://uri.amap.com/marker?position=104.790659,30.972540&name=%E4%B8%AD%E6%B1%9F%E5%8E%BF%E6%82%A6%E6%9D%A5%E9%95%87%E7%95%9C%E7%89%A7%E5%85%BD%E5%8C%BB%E7%AB%99&src=vetmap&coordinate=gaode&callnative=1","route_id":"r1","route_name":"第1段"},{"name":"中江县永安镇畜牧兽医站","address":"新繁街48号","phone":"","category":"医疗保健服务;动物医疗场所;兽医站","area":"","lng":104.855133,"lat":30.908457,"amap_id":"B0FFH73YYG","order":15,"prev_distance_km":9.412,"cumulative_distance_km":55.714,"amap_marker_url":"https://uri.amap.com/marker?position=104.855133,30.908457&name=%E4%B8%AD%E6%B1%9F%E5%8E%BF%E6%B0%B8%E5%AE%89%E9%95%87%E7%95%9C%E7%89%A7%E5%85%BD%E5%8C%BB%E7%AB%99&src=vetmap&coordinate=gaode&callnative=1","route_id":"r1","route_name":"第1段"},{"name":"中江县柏树乡畜牧兽医站","address":"三金路","phone":"","category":"医疗保健服务;动物医疗场所;兽医站","area":"","lng":104.912738,"lat":30.905824,"amap_id":"B0K32UAKDN","order":16,"prev_distance_km":5.504,"cumulative_distance_km":61.217,"amap_marker_url":"https://uri.amap.com/marker?position=104.912738,30.905824&name=%E4%B8%AD%E6%B1%9F%E5%8E%BF%E6%9F%8F%E6%A0%91%E4%B9%A1%E7%95%9C%E7%89%A7%E5%85%BD%E5%8C%BB%E7%AB%99&src=vetmap&coordinate=gaode&callnative=1","route_id":"r1","route_name":"第1段"},{"name":"继光镇畜牧兽医站","address":"兴发街36号","phone":"","category":"医疗保健服务;动物医疗场所;兽医站","area":"","lng":104.87043,"lat":30.822769,"amap_id":"B0JRYUBJNI","order":17,"prev_distance_km":10.08,"cumulative_distance_km":71.297,"amap_marker_url":"https://uri.amap.com/marker?position=104.870430,30.822769&name=%E7%BB%A7%E5%85%89%E9%95%87%E7%95%9C%E7%89%A7%E5%85%BD%E5%8C%BB%E7%AB%99&src=vetmap&coordinate=gaode&callnative=1","route_id":"r1","route_name":"第1段"},{"name":"中江县广福镇畜牧兽医站","address":"铜山中街34号","phone":"","category":"医疗保健服务;动物医疗场所;兽医站","area":"","lng":104.935275,"lat":30.755389,"amap_id":"B034600LER","order":18,"prev_distance_km":9.721,"cumulative_distance_km":81.018,"amap_marker_url":"https://uri.amap.com/marker?position=104.935275,30.755389&name=%E4%B8%AD%E6%B1%9F%E5%8E%BF%E5%B9%BF%E7%A6%8F%E9%95%87%E7%95%9C%E7%89%A7%E5%85%BD%E5%8C%BB%E7%AB%99&src=vetmap&coordinate=gaode&callnative=1","route_id":"r1","route_name":"第1段"},{"name":"中江县万福镇畜牧兽医站","address":"广郪路","phone":"","category":"医疗保健服务;动物医疗场所;兽医站","area":"","lng":105.087172,"lat":30.729804,"amap_id":"B0L2ZA3PRS","order":19,"prev_distance_km":14.793,"cumulative_distance_km":95.811,"amap_marker_url":"https://uri.amap.com/marker?position=105.087172,30.729804&name=%E4%B8%AD%E6%B1%9F%E5%8E%BF%E4%B8%87%E7%A6%8F%E9%95%87%E7%95%9C%E7%89%A7%E5%85%BD%E5%8C%BB%E7%AB%99&src=vetmap&coordinate=gaode&callnative=1","route_id":"r1","route_name":"第1段"},{"name":"中江县会龙镇畜牧兽医站","address":"106省道附近","phone":"","category":"医疗保健服务;动物医疗场所;兽医站","area":"","lng":104.976889,"lat":30.690038,"amap_id":"B03460NH4G","order":20,"prev_distance_km":11.433,"cumulative_distance_km":107.244,"amap_marker_url":"https://uri.amap.com/marker?position=104.976889,30.690038&name=%E4%B8%AD%E6%B1%9F%E5%8E%BF%E4%BC%9A%E9%BE%99%E9%95%87%E7%95%9C%E7%89%A7%E5%85%BD%E5%8C%BB%E7%AB%99&src=vetmap&coordinate=gaode&callnative=1","route_id":"r1","route_name":"第1段"},{"name":"动物防疫","address":"冯店派出所西南门旁","phone":"","category":"医疗保健服务;动物医疗场所;动物医疗场所","area":"","lng":104.879908,"lat":30.644907,"amap_id":"B0H3ARBXYN","order":21,"prev_distance_km":10.546,"cumulative_distance_km":117.79,"amap_marker_url":"https://uri.amap.com/marker?position=104.879908,30.644907&name=%E5%8A%A8%E7%89%A9%E9%98%B2%E7%96%AB&src=vetmap&coordinate=gaode&callnative=1","route_id":"r1","route_name":"第1段"},{"name":"中江县冯店镇畜牧兽医站","address":"冯店派出所西南门旁","phone":"","category":"医疗保健服务;动物医疗场所;兽医站","area":"","lng":104.879824,"lat":30.644845,"amap_id":"B0FFGSPXCV","order":22,"prev_distance_km":0.011,"cumulative_distance_km":117.801,"amap_marker_url":"https://uri.amap.com/marker?position=104.879824,30.644845&name=%E4%B8%AD%E6%B1%9F%E5%8E%BF%E5%86%AF%E5%BA%97%E9%95%87%E7%95%9C%E7%89%A7%E5%85%BD%E5%8C%BB%E7%AB%99&src=vetmap&coordinate=gaode&callnative=1","route_id":"r1","route_name":"第1段"},{"name":"中江县永兴镇畜牧兽医站","address":"积淮路与文明街交叉口西南60米","phone":"","category":"医疗保健服务;动物医疗场所;兽医站","area":"","lng":104.779692,"lat":30.75691,"amap_id":"B0FFI5KDBA","order":23,"prev_distance_km":15.714,"cumulative_distance_km":133.515,"amap_marker_url":"https://uri.amap.com/marker?position=104.779692,30.756910&name=%E4%B8%AD%E6%B1%9F%E5%8E%BF%E6%B0%B8%E5%85%B4%E9%95%87%E7%95%9C%E7%89%A7%E5%85%BD%E5%8C%BB%E7%AB%99&src=vetmap&coordinate=gaode&callnative=1","route_id":"r1","route_name":"第1段"},{"name":"中江县石笋乡畜牧兽医站","address":"兴石路与056县道交叉口西360米","phone":"","category":"医疗保健服务;动物医疗场所;兽医站","area":"","lng":104.714895,"lat":30.782909,"amap_id":"B03460NK7R","order":24,"prev_distance_km":6.833,"cumulative_distance_km":140.347,"amap_marker_url":"https://uri.amap.com/marker?position=104.714895,30.782909&name=%E4%B8%AD%E6%B1%9F%E5%8E%BF%E7%9F%B3%E7%AC%8B%E4%B9%A1%E7%95%9C%E7%89%A7%E5%85%BD%E5%8C%BB%E7%AB%99&src=vetmap&coordinate=gaode&callnative=1","route_id":"r1","route_name":"第1段"},{"name":"雷羽养鱼技术服务站","address":"龙台镇飞龙路12号","phone":"19381066668","category":"医疗保健服务;动物医疗场所;兽医站","area":"","lng":104.777643,"lat":30.883669,"amap_id":"B0JU6L0VM2","order":25,"prev_distance_km":12.705,"cumulative_distance_km":153.053,"amap_marker_url":"https://uri.amap.com/marker?position=104.777643,30.883669&name=%E9%9B%B7%E7%BE%BD%E5%85%BB%E9%B1%BC%E6%8A%80%E6%9C%AF%E6%9C%8D%E5%8A%A1%E7%AB%99&src=vetmap&coordinate=gaode&callnative=1","route_id":"r1","route_name":"第1段"},{"name":"中江县动物防疫监督所龙台分所","address":"龙江路142号","phone":"","category":"医疗保健服务;动物医疗场所;兽医站","area":"","lng":104.778754,"lat":30.884231,"amap_id":"B034600JWB","order":26,"prev_distance_km":0.123,"cumulative_distance_km":153.176,"amap_marker_url":"https://uri.amap.com/marker?position=104.778754,30.884231&name=%E4%B8%AD%E6%B1%9F%E5%8E%BF%E5%8A%A8%E7%89%A9%E9%98%B2%E7%96%AB%E7%9B%91%E7%9D%A3%E6%89%80%E9%BE%99%E5%8F%B0%E5%88%86%E6%89%80&src=vetmap&coordinate=gaode&callnative=1","route_id":"r1","route_name":"第1段"},{"name":"中江县玉兴镇畜牧兽医站","address":"350国道与玉兴新街交叉口东南120米","phone":"","category":"医疗保健服务;动物医疗场所;兽医站","area":"","lng":104.736595,"lat":30.929047,"amap_id":"B03460056D","order":27,"prev_distance_km":6.404,"cumulative_distance_km":159.58,"amap_marker_url":"https://uri.amap.com/marker?position=104.736595,30.929047&name=%E4%B8%AD%E6%B1%9F%E5%8E%BF%E7%8E%89%E5%85%B4%E9%95%87%E7%95%9C%E7%89%A7%E5%85%BD%E5%8C%BB%E7%AB%99&src=vetmap&coordinate=gaode&callnative=1","route_id":"r1","route_name":"第1段"},{"name":"辑庆镇畜牧兽医站","address":"前进北街与胜利西街交叉口东北40米","phone":"","category":"医疗保健服务;动物医疗场所;兽医站","area":"","lng":104.627092,"lat":30.918859,"amap_id":"B0FFH9S8JB","order":28,"prev_distance_km":10.507,"cumulative_distance_km":170.086,"amap_marker_url":"https://uri.amap.com/marker?position=104.627092,30.918859&name=%E8%BE%91%E5%BA%86%E9%95%87%E7%95%9C%E7%89%A7%E5%85%BD%E5%8C%BB%E7%AB%99&src=vetmap&coordinate=gaode&callnative=1","route_id":"r1","route_name":"第1段"},{"name":"中江县集凤镇畜牧兽医站","address":"九高路与走马铺街交叉口西340米","phone":"","category":"医疗保健服务;动物医疗场所;兽医站","area":"","lng":104.558812,"lat":31.014708,"amap_id":"B0FFL0WXUA","order":29,"prev_distance_km":12.489,"cumulative_distance_km":182.575,"amap_marker_url":"https://uri.amap.com/marker?position=104.558812,31.014708&name=%E4%B8%AD%E6%B1%9F%E5%8E%BF%E9%9B%86%E5%87%A4%E9%95%87%E7%95%9C%E7%89%A7%E5%85%BD%E5%8C%BB%E7%AB%99&src=vetmap&coordinate=gaode&callnative=1","route_id":"r1","route_name":"第1段"}]}],"rows":[{"name":"中江县黄鹿镇畜牧兽医站","address":"储粮街68号","phone":"","category":"医疗保健服务;动物医疗场所;兽医站","area":"","lng":104.705457,"lat":31.247604,"amap_id":"B034600LFA","order":1,"prev_distance_km":0.0,"cumulative_distance_km":0.0,"amap_marker_url":"https://uri.amap.com/marker?position=104.705457,31.247604&name=%E4%B8%AD%E6%B1%9F%E5%8E%BF%E9%BB%84%E9%B9%BF%E9%95%87%E7%95%9C%E7%89%A7%E5%85%BD%E5%8C%BB%E7%AB%99&src=vetmap&coordinate=gaode&callnative=1","route_id":"r1","route_name":"第1段","global_order":1},{"name":"中江县永太镇畜牧兽医站","address":"驭马南街22号","phone":"","category":"医疗保健服务;动物医疗场所;兽医站","area":"","lng":104.676769,"lat":31.13954,"amap_id":"B034601OJZ","order":2,"prev_distance_km":12.322,"cumulative_distance_km":12.322,"amap_marker_url":"https://uri.amap.com/marker?position=104.676769,31.139540&name=%E4%B8%AD%E6%B1%9F%E5%8E%BF%E6%B0%B8%E5%A4%AA%E9%95%87%E7%95%9C%E7%89%A7%E5%85%BD%E5%8C%BB%E7%AB%99&src=vetmap&coordinate=gaode&callnative=1","route_id":"r1","route_name":"第1段","global_order":2},{"name":"关怀动物医院","address":"一环路北段浩淼大道514号附6-7号","phone":"18981110357;19828485658","category":"医疗保健服务;动物医疗场所;宠物诊所","area":"","lng":104.679316,"lat":31.048943,"amap_id":"B0K27Z6VZ0","order":3,"prev_distance_km":10.077,"cumulative_distance_km":22.399,"amap_marker_url":"https://uri.amap.com/marker?position=104.679316,31.048943&name=%E5%85%B3%E6%80%80%E5%8A%A8%E7%89%A9%E5%8C%BB%E9%99%A2&src=vetmap&coordinate=gaode&callnative=1","route_id":"r1","route_name":"第1段","global_order":3},{"name":"德济堂动物诊所","address":"凯江镇和贸街120号万世达和映北城","phone":"17311829960","category":"医疗保健服务;动物医疗场所;宠物诊所","area":"","lng":104.675597,"lat":31.045791,"amap_id":"B0FFJPIMHV","order":4,"prev_distance_km":0.498,"cumulative_distance_km":22.897,"amap_marker_url":"https://uri.amap.com/marker?position=104.675597,31.045791&name=%E5%BE%B7%E6%B5%8E%E5%A0%82%E5%8A%A8%E7%89%A9%E8%AF%8A%E6%89%80&src=vetmap&coordinate=gaode&callnative=1","route_id":"r1","route_name":"第1段","global_order":4},{"name":"廖氏宠物门诊","address":"北塔街89号","phone":"13778265588;13990268822","category":"医疗保健服务;动物医疗场所;宠物诊所","area":"","lng":104.678148,"lat":31.044118,"amap_id":"B0FFFDIX6D","order":5,"prev_distance_km":0.306,"cumulative_distance_km":23.203,"amap_marker_url":"https://uri.amap.com/marker?position=104.678148,31.044118&name=%E5%BB%96%E6%B0%8F%E5%AE%A0%E7%89%A9%E9%97%A8%E8%AF%8A&src=vetmap&coordinate=gaode&callnative=1","route_id":"r1","route_name":"第1段","global_order":5},{"name":"爱宠宠物美容","address":"凯江镇桥亭街17号","phone":"13320861983","category":"医疗保健服务;动物医疗场所;动物医疗场所","area":"","lng":104.676029,"lat":31.041942,"amap_id":"B0FFHLZNM0","order":6,"prev_distance_km":0.315,"cumulative_distance_km":23.519,"amap_marker_url":"https://uri.amap.com/marker?position=104.676029,31.041942&name=%E7%88%B1%E5%AE%A0%E5%AE%A0%E7%89%A9%E7%BE%8E%E5%AE%B9&src=vetmap&coordinate=gaode&callnative=1","route_id":"r1","route_name":"第1段","global_order":6},{"name":"雨婷宠物门诊二店","address":"金碧步行街9号","phone":"15883892966","category":"医疗保健服务;动物医疗场所;宠物诊所","area":"","lng":104.673888,"lat":31.037837,"amap_id":"B0FFKMYT3M","order":7,"prev_distance_km":0.5,"cumulative_distance_km":24.018,"amap_marker_url":"https://uri.amap.com/marker?position=104.673888,31.037837&name=%E9%9B%A8%E5%A9%B7%E5%AE%A0%E7%89%A9%E9%97%A8%E8%AF%8A%E4%BA%8C%E5%BA%97&src=vetmap&coordinate=gaode&callnative=1","route_id":"r1","route_name":"第1段","global_order":7},{"name":"如宠宠物洗护美容","address":"玄武西路与下南街交叉口东40米","phone":"","category":"医疗保健服务;动物医疗场所;宠物诊所","area":"","lng":104.676907,"lat":31.032435,"amap_id":"B0JRH1M3TC","order":8,"prev_distance_km":0.666,"cumulative_distance_km":24.684,"amap_marker_url":"https://uri.amap.com/marker?position=104.676907,31.032435&name=%E5%A6%82%E5%AE%A0%E5%AE%A0%E7%89%A9%E6%B4%97%E6%8A%A4%E7%BE%8E%E5%AE%B9&src=vetmap&coordinate=gaode&callnative=1","route_id":"r1","route_name":"第1段","global_order":8},{"name":"尚宠动物诊所","address":"横街与下南街交叉口西20米","phone":"","category":"医疗保健服务;动物医疗场所;宠物诊所","area":"","lng":104.6763,"lat":31.032183,"amap_id":"B0J2NPGPYQ","order":9,"prev_distance_km":0.064,"cumulative_distance_km":24.749,"amap_marker_url":"https://uri.amap.com/marker?position=104.676300,31.032183&name=%E5%B0%9A%E5%AE%A0%E5%8A%A8%E7%89%A9%E8%AF%8A%E6%89%80&src=vetmap&coordinate=gaode&callnative=1","route_id":"r1","route_name":"第1段","global_order":9},{"name":"护航宠物医院","address":"凯江镇朝阳南路4号","phone":"18828582895","category":"医疗保健服务;动物医疗场所;宠物诊所","area":"","lng":104.675846,"lat":31.029032,"amap_id":"B0JDZZAE72","order":10,"prev_distance_km":0.353,"cumulative_distance_km":25.102,"amap_marker_url":"https://uri.amap.com/marker?position=104.675846,31.029032&name=%E6%8A%A4%E8%88%AA%E5%AE%A0%E7%89%A9%E5%8C%BB%E9%99%A2&src=vetmap&coordinate=gaode&callnative=1","route_id":"r1","route_name":"第1段","global_order":10},{"name":"御马街动物诊所","address":"东河路下段与御马街交叉口东北50米","phone":"0838-7250675;13881081201","category":"医疗保健服务;动物医疗场所;宠物诊所","area":"","lng":104.682083,"lat":31.027516,"amap_id":"B0FFGSIFM1","order":11,"prev_distance_km":0.618,"cumulative_distance_km":25.72,"amap_marker_url":"https://uri.amap.com/marker?position=104.682083,31.027516&name=%E5%BE%A1%E9%A9%AC%E8%A1%97%E5%8A%A8%E7%89%A9%E8%AF%8A%E6%89%80&src=vetmap&coordinate=gaode&callnative=1","route_id":"r1","route_name":"第1段","global_order":11},{"name":"宠爱动物医院","address":"凯江镇东江右路三段166号南滨国际","phone":"15708217718","category":"医疗保健服务;动物医疗场所;宠物诊所","area":"","lng":104.686314,"lat":31.025853,"amap_id":"B0KU3DIFYE","order":12,"prev_distance_km":0.444,"cumulative_distance_km":26.163,"amap_marker_url":"https://uri.amap.com/marker?position=104.686314,31.025853&name=%E5%AE%A0%E7%88%B1%E5%8A%A8%E7%89%A9%E5%8C%BB%E9%99%A2&src=vetmap&coordinate=gaode&callnative=1","route_id":"r1","route_name":"第1段","global_order":12},{"name":"中江县通济镇畜牧兽医站","address":"仁和西路34号","phone":"","category":"医疗保健服务;动物医疗场所;兽医站","area":"","lng":104.757253,"lat":31.07283,"amap_id":"B034600LHV","order":13,"prev_distance_km":8.541,"cumulative_distance_km":34.704,"amap_marker_url":"https://uri.amap.com/marker?position=104.757253,31.072830&name=%E4%B8%AD%E6%B1%9F%E5%8E%BF%E9%80%9A%E6%B5%8E%E9%95%87%E7%95%9C%E7%89%A7%E5%85%BD%E5%8C%BB%E7%AB%99&src=vetmap&coordinate=gaode&callnative=1","route_id":"r1","route_name":"第1段","global_order":13},{"name":"中江县悦来镇畜牧兽医站","address":"悦壁路北50米","phone":"","category":"医疗保健服务;动物医疗场所;兽医站","area":"","lng":104.790659,"lat":30.97254,"amap_id":"B0FFG87IKU","order":14,"prev_distance_km":11.597,"cumulative_distance_km":46.302,"amap_marker_url":"https://uri.amap.com/marker?position=104.790659,30.972540&name=%E4%B8%AD%E6%B1%9F%E5%8E%BF%E6%82%A6%E6%9D%A5%E9%95%87%E7%95%9C%E7%89%A7%E5%85%BD%E5%8C%BB%E7%AB%99&src=vetmap&coordinate=gaode&callnative=1","route_id":"r1","route_name":"第1段","global_order":14},{"name":"中江县永安镇畜牧兽医站","address":"新繁街48号","phone":"","category":"医疗保健服务;动物医疗场所;兽医站","area":"","lng":104.855133,"lat":30.908457,"amap_id":"B0FFH73YYG","order":15,"prev_distance_km":9.412,"cumulative_distance_km":55.714,"amap_marker_url":"https://uri.amap.com/marker?position=104.855133,30.908457&name=%E4%B8%AD%E6%B1%9F%E5%8E%BF%E6%B0%B8%E5%AE%89%E9%95%87%E7%95%9C%E7%89%A7%E5%85%BD%E5%8C%BB%E7%AB%99&src=vetmap&coordinate=gaode&callnative=1","route_id":"r1","route_name":"第1段","global_order":15},{"name":"中江县柏树乡畜牧兽医站","address":"三金路","phone":"","category":"医疗保健服务;动物医疗场所;兽医站","area":"","lng":104.912738,"lat":30.905824,"amap_id":"B0K32UAKDN","order":16,"prev_distance_km":5.504,"cumulative_distance_km":61.217,"amap_marker_url":"https://uri.amap.com/marker?position=104.912738,30.905824&name=%E4%B8%AD%E6%B1%9F%E5%8E%BF%E6%9F%8F%E6%A0%91%E4%B9%A1%E7%95%9C%E7%89%A7%E5%85%BD%E5%8C%BB%E7%AB%99&src=vetmap&coordinate=gaode&callnative=1","route_id":"r1","route_name":"第1段","global_order":16},{"name":"继光镇畜牧兽医站","address":"兴发街36号","phone":"","category":"医疗保健服务;动物医疗场所;兽医站","area":"","lng":104.87043,"lat":30.822769,"amap_id":"B0JRYUBJNI","order":17,"prev_distance_km":10.08,"cumulative_distance_km":71.297,"amap_marker_url":"https://uri.amap.com/marker?position=104.870430,30.822769&name=%E7%BB%A7%E5%85%89%E9%95%87%E7%95%9C%E7%89%A7%E5%85%BD%E5%8C%BB%E7%AB%99&src=vetmap&coordinate=gaode&callnative=1","route_id":"r1","route_name":"第1段","global_order":17},{"name":"中江县广福镇畜牧兽医站","address":"铜山中街34号","phone":"","category":"医疗保健服务;动物医疗场所;兽医站","area":"","lng":104.935275,"lat":30.755389,"amap_id":"B034600LER","order":18,"prev_distance_km":9.721,"cumulative_distance_km":81.018,"amap_marker_url":"https://uri.amap.com/marker?position=104.935275,30.755389&name=%E4%B8%AD%E6%B1%9F%E5%8E%BF%E5%B9%BF%E7%A6%8F%E9%95%87%E7%95%9C%E7%89%A7%E5%85%BD%E5%8C%BB%E7%AB%99&src=vetmap&coordinate=gaode&callnative=1","route_id":"r1","route_name":"第1段","global_order":18},{"name":"中江县万福镇畜牧兽医站","address":"广郪路","phone":"","category":"医疗保健服务;动物医疗场所;兽医站","area":"","lng":105.087172,"lat":30.729804,"amap_id":"B0L2ZA3PRS","order":19,"prev_distance_km":14.793,"cumulative_distance_km":95.811,"amap_marker_url":"https://uri.amap.com/marker?position=105.087172,30.729804&name=%E4%B8%AD%E6%B1%9F%E5%8E%BF%E4%B8%87%E7%A6%8F%E9%95%87%E7%95%9C%E7%89%A7%E5%85%BD%E5%8C%BB%E7%AB%99&src=vetmap&coordinate=gaode&callnative=1","route_id":"r1","route_name":"第1段","global_order":19},{"name":"中江县会龙镇畜牧兽医站","address":"106省道附近","phone":"","category":"医疗保健服务;动物医疗场所;兽医站","area":"","lng":104.976889,"lat":30.690038,"amap_id":"B03460NH4G","order":20,"prev_distance_km":11.433,"cumulative_distance_km":107.244,"amap_marker_url":"https://uri.amap.com/marker?position=104.976889,30.690038&name=%E4%B8%AD%E6%B1%9F%E5%8E%BF%E4%BC%9A%E9%BE%99%E9%95%87%E7%95%9C%E7%89%A7%E5%85%BD%E5%8C%BB%E7%AB%99&src=vetmap&coordinate=gaode&callnative=1","route_id":"r1","route_name":"第1段","global_order":20},{"name":"动物防疫","address":"冯店派出所西南门旁","phone":"","category":"医疗保健服务;动物医疗场所;动物医疗场所","area":"","lng":104.879908,"lat":30.644907,"amap_id":"B0H3ARBXYN","order":21,"prev_distance_km":10.546,"cumulative_distance_km":117.79,"amap_marker_url":"https://uri.amap.com/marker?position=104.879908,30.644907&name=%E5%8A%A8%E7%89%A9%E9%98%B2%E7%96%AB&src=vetmap&coordinate=gaode&callnative=1","route_id":"r1","route_name":"第1段","global_order":21},{"name":"中江县冯店镇畜牧兽医站","address":"冯店派出所西南门旁","phone":"","category":"医疗保健服务;动物医疗场所;兽医站","area":"","lng":104.879824,"lat":30.644845,"amap_id":"B0FFGSPXCV","order":22,"prev_distance_km":0.011,"cumulative_distance_km":117.801,"amap_marker_url":"https://uri.amap.com/marker?position=104.879824,30.644845&name=%E4%B8%AD%E6%B1%9F%E5%8E%BF%E5%86%AF%E5%BA%97%E9%95%87%E7%95%9C%E7%89%A7%E5%85%BD%E5%8C%BB%E7%AB%99&src=vetmap&coordinate=gaode&callnative=1","route_id":"r1","route_name":"第1段","global_order":22},{"name":"中江县永兴镇畜牧兽医站","address":"积淮路与文明街交叉口西南60米","phone":"","category":"医疗保健服务;动物医疗场所;兽医站","area":"","lng":104.779692,"lat":30.75691,"amap_id":"B0FFI5KDBA","order":23,"prev_distance_km":15.714,"cumulative_distance_km":133.515,"amap_marker_url":"https://uri.amap.com/marker?position=104.779692,30.756910&name=%E4%B8%AD%E6%B1%9F%E5%8E%BF%E6%B0%B8%E5%85%B4%E9%95%87%E7%95%9C%E7%89%A7%E5%85%BD%E5%8C%BB%E7%AB%99&src=vetmap&coordinate=gaode&callnative=1","route_id":"r1","route_name":"第1段","global_order":23},{"name":"中江县石笋乡畜牧兽医站","address":"兴石路与056县道交叉口西360米","phone":"","category":"医疗保健服务;动物医疗场所;兽医站","area":"","lng":104.714895,"lat":30.782909,"amap_id":"B03460NK7R","order":24,"prev_distance_km":6.833,"cumulative_distance_km":140.347,"amap_marker_url":"https://uri.amap.com/marker?position=104.714895,30.782909&name=%E4%B8%AD%E6%B1%9F%E5%8E%BF%E7%9F%B3%E7%AC%8B%E4%B9%A1%E7%95%9C%E7%89%A7%E5%85%BD%E5%8C%BB%E7%AB%99&src=vetmap&coordinate=gaode&callnative=1","route_id":"r1","route_name":"第1段","global_order":24},{"name":"雷羽养鱼技术服务站","address":"龙台镇飞龙路12号","phone":"19381066668","category":"医疗保健服务;动物医疗场所;兽医站","area":"","lng":104.777643,"lat":30.883669,"amap_id":"B0JU6L0VM2","order":25,"prev_distance_km":12.705,"cumulative_distance_km":153.053,"amap_marker_url":"https://uri.amap.com/marker?position=104.777643,30.883669&name=%E9%9B%B7%E7%BE%BD%E5%85%BB%E9%B1%BC%E6%8A%80%E6%9C%AF%E6%9C%8D%E5%8A%A1%E7%AB%99&src=vetmap&coordinate=gaode&callnative=1","route_id":"r1","route_name":"第1段","global_order":25},{"name":"中江县动物防疫监督所龙台分所","address":"龙江路142号","phone":"","category":"医疗保健服务;动物医疗场所;兽医站","area":"","lng":104.778754,"lat":30.884231,"amap_id":"B034600JWB","order":26,"prev_distance_km":0.123,"cumulative_distance_km":153.176,"amap_marker_url":"https://uri.amap.com/marker?position=104.778754,30.884231&name=%E4%B8%AD%E6%B1%9F%E5%8E%BF%E5%8A%A8%E7%89%A9%E9%98%B2%E7%96%AB%E7%9B%91%E7%9D%A3%E6%89%80%E9%BE%99%E5%8F%B0%E5%88%86%E6%89%80&src=vetmap&coordinate=gaode&callnative=1","route_id":"r1","route_name":"第1段","global_order":26},{"name":"中江县玉兴镇畜牧兽医站","address":"350国道与玉兴新街交叉口东南120米","phone":"","category":"医疗保健服务;动物医疗场所;兽医站","area":"","lng":104.736595,"lat":30.929047,"amap_id":"B03460056D","order":27,"prev_distance_km":6.404,"cumulative_distance_km":159.58,"amap_marker_url":"https://uri.amap.com/marker?position=104.736595,30.929047&name=%E4%B8%AD%E6%B1%9F%E5%8E%BF%E7%8E%89%E5%85%B4%E9%95%87%E7%95%9C%E7%89%A7%E5%85%BD%E5%8C%BB%E7%AB%99&src=vetmap&coordinate=gaode&callnative=1","route_id":"r1","route_name":"第1段","global_order":27},{"name":"辑庆镇畜牧兽医站","address":"前进北街与胜利西街交叉口东北40米","phone":"","category":"医疗保健服务;动物医疗场所;兽医站","area":"","lng":104.627092,"lat":30.918859,"amap_id":"B0FFH9S8JB","order":28,"prev_distance_km":10.507,"cumulative_distance_km":170.086,"amap_marker_url":"https://uri.amap.com/marker?position=104.627092,30.918859&name=%E8%BE%91%E5%BA%86%E9%95%87%E7%95%9C%E7%89%A7%E5%85%BD%E5%8C%BB%E7%AB%99&src=vetmap&coordinate=gaode&callnative=1","route_id":"r1","route_name":"第1段","global_order":28},{"name":"中江县集凤镇畜牧兽医站","address":"九高路与走马铺街交叉口西340米","phone":"","category":"医疗保健服务;动物医疗场所;兽医站","area":"","lng":104.558812,"lat":31.014708,"amap_id":"B0FFL0WXUA","order":29,"prev_distance_km":12.489,"cumulative_distance_km":182.575,"amap_marker_url":"https://uri.amap.com/marker?position=104.558812,31.014708&name=%E4%B8%AD%E6%B1%9F%E5%8E%BF%E9%9B%86%E5%87%A4%E9%95%87%E7%95%9C%E7%89%A7%E5%85%BD%E5%8C%BB%E7%AB%99&src=vetmap&coordinate=gaode&callnative=1","route_id":"r1","route_name":"第1段","global_order":29}]}