{"summary":{"id":"d02001","province":"云南省","city":"红河哈尼族彝族自治州","district":"建水县","count":20,"total_distance_km":45.363,"coordinate_system":"GCJ-02 / Amap","generated_at":"2026-05-07 20:21:09"},"rows":[{"name":"建水县曲江镇动物检疫申报点","address":"曲江镇人民政府西北侧100米","phone":"","category":"医疗保健服务;动物医疗场所;动物医疗场所","area":"","lng":102.791725,"lat":23.947925,"amap_id":"B0M6N7F9BS","order":1,"prev_distance_km":0.0,"cumulative_distance_km":0.0,"amap_marker_url":"https://uri.amap.com/marker?position=102.791725,23.947925&name=%E5%BB%BA%E6%B0%B4%E5%8E%BF%E6%9B%B2%E6%B1%9F%E9%95%87%E5%8A%A8%E7%89%A9%E6%A3%80%E7%96%AB%E7%94%B3%E6%8A%A5%E7%82%B9&src=vetmap&coordinate=gaode&callnative=1"},{"name":"建水翔龙兽药有限公司","address":"临安镇大中所翔龙兽药有限公司","phone":"13887337329","category":"医疗保健服务;动物医疗场所;兽医站","area":"","lng":102.854577,"lat":23.640125,"amap_id":"B0IUGZQUJO","order":2,"prev_distance_km":34.818,"cumulative_distance_km":34.818,"amap_marker_url":"https://uri.amap.com/marker?position=102.854577,23.640125&name=%E5%BB%BA%E6%B0%B4%E7%BF%94%E9%BE%99%E5%85%BD%E8%8D%AF%E6%9C%89%E9%99%90%E5%85%AC%E5%8F%B8&src=vetmap&coordinate=gaode&callnative=1"},{"name":"建水县润明兽药店","address":"五龙路与青云路交叉口西北80米","phone":"","category":"医疗保健服务;动物医疗场所;动物医疗场所","area":"","lng":102.839375,"lat":23.633825,"amap_id":"B0L3ASTOPV","order":3,"prev_distance_km":1.7,"cumulative_distance_km":36.518,"amap_marker_url":"https://uri.amap.com/marker?position=102.839375,23.633825&name=%E5%BB%BA%E6%B0%B4%E5%8E%BF%E6%B6%A6%E6%98%8E%E5%85%BD%E8%8D%AF%E5%BA%97&src=vetmap&coordinate=gaode&callnative=1"},{"name":"星选建水宠宠欲动动物医院","address":"临安镇北山路朱德公园旁北山公厕一楼三楼铺面","phone":"","category":"医疗保健服务;动物医疗场所;宠物诊所","area":"","lng":102.827843,"lat":23.639153,"amap_id":"B0KU3UGCZ2","order":4,"prev_distance_km":1.316,"cumulative_distance_km":37.833,"amap_marker_url":"https://uri.amap.com/marker?position=102.827843,23.639153&name=%E6%98%9F%E9%80%89%E5%BB%BA%E6%B0%B4%E5%AE%A0%E5%AE%A0%E6%AC%B2%E5%8A%A8%E5%8A%A8%E7%89%A9%E5%8C%BB%E9%99%A2&src=vetmap&coordinate=gaode&callnative=1"},{"name":"建水宠宠欲动动物医院","address":"朱德公园东南门旁","phone":"13529102750","category":"医疗保健服务;动物医疗场所;宠物诊所","area":"","lng":102.826558,"lat":23.637537,"amap_id":"B0IG7UPW6B","order":5,"prev_distance_km":0.222,"cumulative_distance_km":38.056,"amap_marker_url":"https://uri.amap.com/marker?position=102.826558,23.637537&name=%E5%BB%BA%E6%B0%B4%E5%AE%A0%E5%AE%A0%E6%AC%B2%E5%8A%A8%E5%8A%A8%E7%89%A9%E5%8C%BB%E9%99%A2&src=vetmap&coordinate=gaode&callnative=1"},{"name":"建水县开心宠物医院","address":"建水县第六中学东南门南30米","phone":"15025217784","category":"医疗保健服务;动物医疗场所;宠物诊所","area":"建水大道","lng":102.821047,"lat":23.63339,"amap_id":"B0HGFH51Y1","order":6,"prev_distance_km":0.726,"cumulative_distance_km":38.782,"amap_marker_url":"https://uri.amap.com/marker?position=102.821047,23.633390&name=%E5%BB%BA%E6%B0%B4%E5%8E%BF%E5%BC%80%E5%BF%83%E5%AE%A0%E7%89%A9%E5%8C%BB%E9%99%A2&src=vetmap&coordinate=gaode&callnative=1"},{"name":"米奥宠物医院","address":"广慈湖畔广慈路小白牙旁","phone":"0873-3064380;17787105020","category":"医疗保健服务;动物医疗场所;宠物诊所","area":"","lng":102.814071,"lat":23.63291,"amap_id":"B0J6DRBS3H","order":7,"prev_distance_km":0.713,"cumulative_distance_km":39.495,"amap_marker_url":"https://uri.amap.com/marker?position=102.814071,23.632910&name=%E7%B1%B3%E5%A5%A5%E5%AE%A0%E7%89%A9%E5%8C%BB%E9%99%A2&src=vetmap&coordinate=gaode&callnative=1"},{"name":"洛可宠物诊所","address":"青山路泰和花园1-3号商铺","phone":"0873-7661248;17787748461","category":"医疗保健服务;动物医疗场所;宠物诊所","area":"","lng":102.809888,"lat":23.627184,"amap_id":"B0FFM0KUDS","order":8,"prev_distance_km":0.766,"cumulative_distance_km":40.261,"amap_marker_url":"https://uri.amap.com/marker?position=102.809888,23.627184&name=%E6%B4%9B%E5%8F%AF%E5%AE%A0%E7%89%A9%E8%AF%8A%E6%89%80&src=vetmap&coordinate=gaode&callnative=1"},{"name":"小咪喳宠物诊所","address":"青山路盛世临安1期15号","phone":"0873-7873335;15911741428;18787300816","category":"医疗保健服务;动物医疗场所;宠物诊所","area":"","lng":102.80805,"lat":23.625531,"amap_id":"B0FFG4URBW","order":9,"prev_distance_km":0.262,"cumulative_distance_km":40.523,"amap_marker_url":"https://uri.amap.com/marker?position=102.808050,23.625531&name=%E5%B0%8F%E5%92%AA%E5%96%B3%E5%AE%A0%E7%89%A9%E8%AF%8A%E6%89%80&src=vetmap&coordinate=gaode&callnative=1"},{"name":"锦成宠物医院","address":"泽园路佳辰华庭1幢13号商铺","phone":"","category":"医疗保健服务;动物医疗场所;宠物诊所","area":"","lng":102.811726,"lat":23.62459,"amap_id":"B0L30HKOID","order":10,"prev_distance_km":0.389,"cumulative_distance_km":40.912,"amap_marker_url":"https://uri.amap.com/marker?position=102.811726,23.624590&name=%E9%94%A6%E6%88%90%E5%AE%A0%E7%89%A9%E5%8C%BB%E9%99%A2&src=vetmap&coordinate=gaode&callnative=1"},{"name":"伴侣动物医院(博爱动物医院建水店)","address":"建水大道福润小区F栋5-6号铺面","phone":"","category":"医疗保健服务;动物医疗场所;宠物诊所","area":"福康路","lng":102.818578,"lat":23.62573,"amap_id":"B0G3F5J78U","order":11,"prev_distance_km":0.709,"cumulative_distance_km":41.622,"amap_marker_url":"https://uri.amap.com/marker?position=102.818578,23.625730&name=%E4%BC%B4%E4%BE%A3%E5%8A%A8%E7%89%A9%E5%8C%BB%E9%99%A2%28%E5%8D%9A%E7%88%B1%E5%8A%A8%E7%89%A9%E5%8C%BB%E9%99%A2%E5%BB%BA%E6%B0%B4%E5%BA%97%29&src=vetmap&coordinate=gaode&callnative=1"},{"name":"鹏爱宠物医院(建水广慈湖分院)","address":"建水大道福润街小区F幢5-6号铺面","phone":"13529836417","category":"医疗保健服务;动物医疗场所;宠物诊所","area":"福康路","lng":102.818601,"lat":23.625712,"amap_id":"B0H1NXEFFB","order":12,"prev_distance_km":0.003,"cumulative_distance_km":41.625,"amap_marker_url":"https://uri.amap.com/marker?position=102.818601,23.625712&name=%E9%B9%8F%E7%88%B1%E5%AE%A0%E7%89%A9%E5%8C%BB%E9%99%A2%28%E5%BB%BA%E6%B0%B4%E5%B9%BF%E6%85%88%E6%B9%96%E5%88%86%E9%99%A2%29&src=vetmap&coordinate=gaode&callnative=1"},{"name":"望康动物诊所(福润街店)","address":"福康路与金沙西路交叉口西南60米","phone":"15154989087","category":"医疗保健服务;动物医疗场所;宠物诊所","area":"福康路","lng":102.820803,"lat":23.623695,"amap_id":"B0FFFZ80PA","order":13,"prev_distance_km":0.317,"cumulative_distance_km":41.942,"amap_marker_url":"https://uri.amap.com/marker?position=102.820803,23.623695&name=%E6%9C%9B%E5%BA%B7%E5%8A%A8%E7%89%A9%E8%AF%8A%E6%89%80%28%E7%A6%8F%E6%B6%A6%E8%A1%97%E5%BA%97%29&src=vetmap&coordinate=gaode&callnative=1"},{"name":"建水县世纪家庭宠物诊所","address":"东林路17号","phone":"13769419211","category":"医疗保健服务;动物医疗场所;宠物诊所","area":"朝阳北路","lng":102.82683,"lat":23.618992,"amap_id":"B0FFHKJ93Y","order":14,"prev_distance_km":0.807,"cumulative_distance_km":42.749,"amap_marker_url":"https://uri.amap.com/marker?position=102.826830,23.618992&name=%E5%BB%BA%E6%B0%B4%E5%8E%BF%E4%B8%96%E7%BA%AA%E5%AE%B6%E5%BA%AD%E5%AE%A0%E7%89%A9%E8%AF%8A%E6%89%80&src=vetmap&coordinate=gaode&callnative=1"},{"name":"建水福临兽药店","address":"东林路与马市街交叉口北20米","phone":"15752509142","category":"医疗保健服务;动物医疗场所;宠物诊所","area":"朝阳北路","lng":102.826468,"lat":23.618557,"amap_id":"B0FFH48D18","order":15,"prev_distance_km":0.061,"cumulative_distance_km":42.809,"amap_marker_url":"https://uri.amap.com/marker?position=102.826468,23.618557&name=%E5%BB%BA%E6%B0%B4%E7%A6%8F%E4%B8%B4%E5%85%BD%E8%8D%AF%E5%BA%97&src=vetmap&coordinate=gaode&callnative=1"},{"name":"建水县互利兽药服务部","address":"临安镇酸角树公厕商铺","phone":"","category":"医疗保健服务;动物医疗场所;动物医疗场所","area":"朝阳北路","lng":102.826501,"lat":23.618189,"amap_id":"B0K30SV6VE","order":16,"prev_distance_km":0.041,"cumulative_distance_km":42.85,"amap_marker_url":"https://uri.amap.com/marker?position=102.826501,23.618189&name=%E5%BB%BA%E6%B0%B4%E5%8E%BF%E4%BA%92%E5%88%A9%E5%85%BD%E8%8D%AF%E6%9C%8D%E5%8A%A1%E9%83%A8&src=vetmap&coordinate=gaode&callnative=1"},{"name":"建水县动物疫病预防控制中心","address":"临安镇建水大道31号","phone":"","category":"医疗保健服务;动物医疗场所;动物医疗场所","area":"","lng":102.812556,"lat":23.618487,"amap_id":"B0FFFTUPXD","order":17,"prev_distance_km":1.421,"cumulative_distance_km":44.272,"amap_marker_url":"https://uri.amap.com/marker?position=102.812556,23.618487&name=%E5%BB%BA%E6%B0%B4%E5%8E%BF%E5%8A%A8%E7%89%A9%E7%96%AB%E7%97%85%E9%A2%84%E9%98%B2%E6%8E%A7%E5%88%B6%E4%B8%AD%E5%BF%83&src=vetmap&coordinate=gaode&callnative=1"},{"name":"建水县畜牧兽医工作站","address":"临安镇建水大道31号","phone":"0873-8877039","category":"医疗保健服务;动物医疗场所;兽医站","area":"","lng":102.812524,"lat":23.618398,"amap_id":"B036913WJD","order":18,"prev_distance_km":0.01,"cumulative_distance_km":44.282,"amap_marker_url":"https://uri.amap.com/marker?position=102.812524,23.618398&name=%E5%BB%BA%E6%B0%B4%E5%8E%BF%E7%95%9C%E7%89%A7%E5%85%BD%E5%8C%BB%E5%B7%A5%E4%BD%9C%E7%AB%99&src=vetmap&coordinate=gaode&callnative=1"},{"name":"欧文宠物诊所","address":"景欣佳园西南1门东南60米","phone":"","category":"医疗保健服务;动物医疗场所;宠物诊所","area":"","lng":102.805927,"lat":23.615245,"amap_id":"B0JBPL64N4","order":19,"prev_distance_km":0.758,"cumulative_distance_km":45.04,"amap_marker_url":"https://uri.amap.com/marker?position=102.805927,23.615245&name=%E6%AC%A7%E6%96%87%E5%AE%A0%E7%89%A9%E8%AF%8A%E6%89%80&src=vetmap&coordinate=gaode&callnative=1"},{"name":"瑞康贝贝宠物医院","address":"西林路景欣佳园小区2-13","phone":"15126252596","category":"医疗保健服务;动物医疗场所;宠物诊所","area":"","lng":102.803263,"lat":23.616812,"amap_id":"B0LKO5GQDR","order":20,"prev_distance_km":0.323,"cumulative_distance_km":45.363,"amap_marker_url":"https://uri.amap.com/marker?position=102.803263,23.616812&name=%E7%91%9E%E5%BA%B7%E8%B4%9D%E8%B4%9D%E5%AE%A0%E7%89%A9%E5%8C%BB%E9%99%A2&src=vetmap&coordinate=gaode&callnative=1"}]}