{"summary":{"id":"d02133","province":"四川省","city":"绵阳市","district":"平武县","count":7,"total_distance_km":83.328,"coordinate_system":"GCJ-02 / Amap","generated_at":"2026-05-07 20:21:27"},"rows":[{"name":"平武县水晶畜牧兽医站","address":"昌盛路与水黄路交叉口西北40米","phone":"","category":"医疗保健服务;动物医疗场所;兽医站","area":"","lng":104.23348,"lat":32.49359,"amap_id":"B0FFHXPX5E","order":1,"prev_distance_km":0.0,"cumulative_distance_km":0.0,"amap_marker_url":"https://uri.amap.com/marker?position=104.233480,32.493590&name=%E5%B9%B3%E6%AD%A6%E5%8E%BF%E6%B0%B4%E6%99%B6%E7%95%9C%E7%89%A7%E5%85%BD%E5%8C%BB%E7%AB%99&src=vetmap&coordinate=gaode&callnative=1"},{"name":"平武县龙安畜牧兽医站","address":"飞龙路中段200号","phone":"","category":"医疗保健服务;动物医疗场所;兽医站","area":"","lng":104.537114,"lat":32.408363,"amap_id":"B0FFGY980B","order":2,"prev_distance_km":30.025,"cumulative_distance_km":30.025,"amap_marker_url":"https://uri.amap.com/marker?position=104.537114,32.408363&name=%E5%B9%B3%E6%AD%A6%E5%8E%BF%E9%BE%99%E5%AE%89%E7%95%9C%E7%89%A7%E5%85%BD%E5%8C%BB%E7%AB%99&src=vetmap&coordinate=gaode&callnative=1"},{"name":"蒋氏兽药门诊","address":"飞龙东路321号","phone":"18781681058","category":"医疗保健服务;动物医疗场所;兽医站","area":"","lng":104.537297,"lat":32.408487,"amap_id":"B0LRA11CIN","order":3,"prev_distance_km":0.022,"cumulative_distance_km":30.047,"amap_marker_url":"https://uri.amap.com/marker?position=104.537297,32.408487&name=%E8%92%8B%E6%B0%8F%E5%85%BD%E8%8D%AF%E9%97%A8%E8%AF%8A&src=vetmap&coordinate=gaode&callnative=1"},{"name":"怀德动物诊疗中心","address":"龙州府5栋6号","phone":"19038102278","category":"医疗保健服务;动物医疗场所;宠物诊所","area":"","lng":104.550287,"lat":32.406938,"amap_id":"B0KU9YHDJT","order":4,"prev_distance_km":1.232,"cumulative_distance_km":31.279,"amap_marker_url":"https://uri.amap.com/marker?position=104.550287,32.406938&name=%E6%80%80%E5%BE%B7%E5%8A%A8%E7%89%A9%E8%AF%8A%E7%96%97%E4%B8%AD%E5%BF%83&src=vetmap&coordinate=gaode&callnative=1"},{"name":"平武县古城镇乡村兽医诊疗点","address":"双凤路与邯郸路交叉口西北60米","phone":"","category":"医疗保健服务;动物医疗场所;兽医站","area":"","lng":104.633656,"lat":32.376225,"amap_id":"B0KD5R080F","order":5,"prev_distance_km":8.54,"cumulative_distance_km":39.819,"amap_marker_url":"https://uri.amap.com/marker?position=104.633656,32.376225&name=%E5%B9%B3%E6%AD%A6%E5%8E%BF%E5%8F%A4%E5%9F%8E%E9%95%87%E4%B9%A1%E6%9D%91%E5%85%BD%E5%8C%BB%E8%AF%8A%E7%96%97%E7%82%B9&src=vetmap&coordinate=gaode&callnative=1"},{"name":"平武县高村畜牧兽医站","address":"代高路东北侧","phone":"","category":"医疗保健服务;动物医疗场所;兽医站","area":"","lng":104.711748,"lat":32.40711,"amap_id":"B0FFL7374T","order":6,"prev_distance_km":8.097,"cumulative_distance_km":47.916,"amap_marker_url":"https://uri.amap.com/marker?position=104.711748,32.407110&name=%E5%B9%B3%E6%AD%A6%E5%8E%BF%E9%AB%98%E6%9D%91%E7%95%9C%E7%89%A7%E5%85%BD%E5%8C%BB%E7%AB%99&src=vetmap&coordinate=gaode&callnative=1"},{"name":"豆叩畜牧兽医站","address":"文化路与建设路交叉口西北约200米","phone":"","category":"医疗保健服务;动物医疗场所;兽医站","area":"","lng":104.593186,"lat":32.104838,"amap_id":"B03300P9QN","order":7,"prev_distance_km":35.412,"cumulative_distance_km":83.328,"amap_marker_url":"https://uri.amap.com/marker?position=104.593186,32.104838&name=%E8%B1%86%E5%8F%A9%E7%95%9C%E7%89%A7%E5%85%BD%E5%8C%BB%E7%AB%99&src=vetmap&coordinate=gaode&callnative=1"}]}