{"summary":{"id":"d02118","province":"四川省","city":"泸州市","district":"龙马潭区","count":15,"total_distance_km":10.828,"coordinate_system":"GCJ-02 / Amap","generated_at":"2026-05-07 20:21:27"},"rows":[{"name":"泸州市龙马潭区鱼塘畜牧兽医站(民兴路店)","address":"龙潭路5号楼","phone":"18384338841","category":"医疗保健服务;动物医疗场所;兽医站","area":"鱼塘","lng":105.475355,"lat":28.923848,"amap_id":"B033E0N7LZ","order":1,"prev_distance_km":0.0,"cumulative_distance_km":0.0,"amap_marker_url":"https://uri.amap.com/marker?position=105.475355,28.923848&name=%E6%B3%B8%E5%B7%9E%E5%B8%82%E9%BE%99%E9%A9%AC%E6%BD%AD%E5%8C%BA%E9%B1%BC%E5%A1%98%E7%95%9C%E7%89%A7%E5%85%BD%E5%8C%BB%E7%AB%99%28%E6%B0%91%E5%85%B4%E8%B7%AF%E5%BA%97%29&src=vetmap&coordinate=gaode&callnative=1"},{"name":"东利动物医院","address":"希望大道697号","phone":"0830-2291553;18117954922","category":"医疗保健服务;动物医疗场所;宠物诊所","area":"","lng":105.450164,"lat":28.92546,"amap_id":"B0JB3CGRR3","order":2,"prev_distance_km":2.458,"cumulative_distance_km":2.458,"amap_marker_url":"https://uri.amap.com/marker?position=105.450164,28.925460&name=%E4%B8%9C%E5%88%A9%E5%8A%A8%E7%89%A9%E5%8C%BB%E9%99%A2&src=vetmap&coordinate=gaode&callnative=1"},{"name":"爱乐宠宠物诊所","address":"春雨路12号附204号","phone":"0830-2395120;17361105120","category":"医疗保健服务;动物医疗场所;宠物诊所","area":"","lng":105.429543,"lat":28.92277,"amap_id":"B0I31Z1TN4","order":3,"prev_distance_km":2.029,"cumulative_distance_km":4.487,"amap_marker_url":"https://uri.amap.com/marker?position=105.429543,28.922770&name=%E7%88%B1%E4%B9%90%E5%AE%A0%E5%AE%A0%E7%89%A9%E8%AF%8A%E6%89%80&src=vetmap&coordinate=gaode&callnative=1"},{"name":"爱它宠物诊所(春雨路一段店)","address":"春雨路一段218号","phone":"19950889120","category":"医疗保健服务;动物医疗场所;宠物诊所","area":"龙马大道","lng":105.434382,"lat":28.912426,"amap_id":"B0IDVD43P6","order":4,"prev_distance_km":1.243,"cumulative_distance_km":5.73,"amap_marker_url":"https://uri.amap.com/marker?position=105.434382,28.912426&name=%E7%88%B1%E5%AE%83%E5%AE%A0%E7%89%A9%E8%AF%8A%E6%89%80%28%E6%98%A5%E9%9B%A8%E8%B7%AF%E4%B8%80%E6%AE%B5%E5%BA%97%29&src=vetmap&coordinate=gaode&callnative=1"},{"name":"欣宠动物医院(龙马分院)","address":"龙马大道二段246号","phone":"18909082252","category":"医疗保健服务;动物医疗场所;宠物诊所","area":"莲花池","lng":105.434482,"lat":28.907427,"amap_id":"B0ID1A7JC8","order":5,"prev_distance_km":0.556,"cumulative_distance_km":6.286,"amap_marker_url":"https://uri.amap.com/marker?position=105.434482,28.907427&name=%E6%AC%A3%E5%AE%A0%E5%8A%A8%E7%89%A9%E5%8C%BB%E9%99%A2%28%E9%BE%99%E9%A9%AC%E5%88%86%E9%99%A2%29&src=vetmap&coordinate=gaode&callnative=1"},{"name":"琪琪宠物医疗","address":"龙马大道二段22-24号","phone":"18383008245;18715863066","category":"医疗保健服务;动物医疗场所;宠物诊所","area":"龙马大道","lng":105.434667,"lat":28.907609,"amap_id":"B0FFH8N80O","order":6,"prev_distance_km":0.027,"cumulative_distance_km":6.313,"amap_marker_url":"https://uri.amap.com/marker?position=105.434667,28.907609&name=%E7%90%AA%E7%90%AA%E5%AE%A0%E7%89%A9%E5%8C%BB%E7%96%97&src=vetmap&coordinate=gaode&callnative=1"},{"name":"壹家宠物诊所","address":"长乐街二段156号丹桂苑小区对面","phone":"13458729539","category":"医疗保健服务;动物医疗场所;宠物诊所","area":"莲花池","lng":105.437881,"lat":28.908139,"amap_id":"B0FFI3208U","order":7,"prev_distance_km":0.318,"cumulative_distance_km":6.632,"amap_marker_url":"https://uri.amap.com/marker?position=105.437881,28.908139&name=%E5%A3%B9%E5%AE%B6%E5%AE%A0%E7%89%A9%E8%AF%8A%E6%89%80&src=vetmap&coordinate=gaode&callnative=1"},{"name":"吉宠家动物医院·重急症·全科医院","address":"迎宾大道一段49号2层201号","phone":"0830-3121645;19161574441","category":"医疗保健服务;动物医疗场所;宠物诊所","area":"莲花池","lng":105.439869,"lat":28.90662,"amap_id":"B0FFLK4LXU","order":8,"prev_distance_km":0.257,"cumulative_distance_km":6.888,"amap_marker_url":"https://uri.amap.com/marker?position=105.439869,28.906620&name=%E5%90%89%E5%AE%A0%E5%AE%B6%E5%8A%A8%E7%89%A9%E5%8C%BB%E9%99%A2%C2%B7%E9%87%8D%E6%80%A5%E7%97%87%C2%B7%E5%85%A8%E7%A7%91%E5%8C%BB%E9%99%A2&src=vetmap&coordinate=gaode&callnative=1"},{"name":"泸州市生机兽药有限公司","address":"金源路95号","phone":"0830-3178706","category":"医疗保健服务;动物医疗场所;动物医疗场所","area":"龙南路","lng":105.436944,"lat":28.903106,"amap_id":"B0FFH5938Z","order":9,"prev_distance_km":0.483,"cumulative_distance_km":7.372,"amap_marker_url":"https://uri.amap.com/marker?position=105.436944,28.903106&name=%E6%B3%B8%E5%B7%9E%E5%B8%82%E7%94%9F%E6%9C%BA%E5%85%BD%E8%8D%AF%E6%9C%89%E9%99%90%E5%85%AC%E5%8F%B8&src=vetmap&coordinate=gaode&callnative=1"},{"name":"泸州兴旺动物疫苗","address":"金源路与胜利街交叉口西南80米","phone":"","category":"医疗保健服务;动物医疗场所;兽医站","area":"龙南路","lng":105.43676,"lat":28.903221,"amap_id":"B0H63ZAAS5","order":10,"prev_distance_km":0.022,"cumulative_distance_km":7.394,"amap_marker_url":"https://uri.amap.com/marker?position=105.436760,28.903221&name=%E6%B3%B8%E5%B7%9E%E5%85%B4%E6%97%BA%E5%8A%A8%E7%89%A9%E7%96%AB%E8%8B%97&src=vetmap&coordinate=gaode&callnative=1"},{"name":"旺康宠物诊所","address":"龙南路253号","phone":"18145080781","category":"医疗保健服务;动物医疗场所;宠物诊所","area":"龙南路","lng":105.435772,"lat":28.903052,"amap_id":"B0IU2ZLM1N","order":11,"prev_distance_km":0.098,"cumulative_distance_km":7.492,"amap_marker_url":"https://uri.amap.com/marker?position=105.435772,28.903052&name=%E6%97%BA%E5%BA%B7%E5%AE%A0%E7%89%A9%E8%AF%8A%E6%89%80&src=vetmap&coordinate=gaode&callnative=1"},{"name":"大伟宠物诊所","address":"红星街道向阳路1号1幢楼附8号门市(39号)","phone":"19915735110","category":"医疗保健服务;动物医疗场所;宠物诊所","area":"龙南路","lng":105.43577,"lat":28.896346,"amap_id":"B0LDC5TUQW","order":12,"prev_distance_km":0.746,"cumulative_distance_km":8.238,"amap_marker_url":"https://uri.amap.com/marker?position=105.435770,28.896346&name=%E5%A4%A7%E4%BC%9F%E5%AE%A0%E7%89%A9%E8%AF%8A%E6%89%80&src=vetmap&coordinate=gaode&callnative=1"},{"name":"优尼克宠物医院","address":"龙马大道一段7号2幢1层1001","phone":"18228020576;18281178546","category":"医疗保健服务;动物医疗场所;宠物诊所","area":"泸州万达片区","lng":105.4267,"lat":28.902108,"amap_id":"B0IKTRNHLU","order":13,"prev_distance_km":1.091,"cumulative_distance_km":9.329,"amap_marker_url":"https://uri.amap.com/marker?position=105.426700,28.902108&name=%E4%BC%98%E5%B0%BC%E5%85%8B%E5%AE%A0%E7%89%A9%E5%8C%BB%E9%99%A2&src=vetmap&coordinate=gaode&callnative=1"},{"name":"泸州宠诺动物医院","address":"红星街道香林路一段67号","phone":"13908041898","category":"医疗保健服务;动物医疗场所;宠物诊所","area":"","lng":105.421679,"lat":28.897792,"amap_id":"B0FFIPWLDC","order":14,"prev_distance_km":0.685,"cumulative_distance_km":10.014,"amap_marker_url":"https://uri.amap.com/marker?position=105.421679,28.897792&name=%E6%B3%B8%E5%B7%9E%E5%AE%A0%E8%AF%BA%E5%8A%A8%E7%89%A9%E5%8C%BB%E9%99%A2&src=vetmap&coordinate=gaode&callnative=1"},{"name":"乐宠宠物医院(香林路店)","address":"香林路二段169号","phone":"18181175120","category":"医疗保健服务;动物医疗场所;宠物诊所","area":"大通路","lng":105.424803,"lat":28.890994,"amap_id":"B0FFFA2FU9","order":15,"prev_distance_km":0.815,"cumulative_distance_km":10.828,"amap_marker_url":"https://uri.amap.com/marker?position=105.424803,28.890994&name=%E4%B9%90%E5%AE%A0%E5%AE%A0%E7%89%A9%E5%8C%BB%E9%99%A2%28%E9%A6%99%E6%9E%97%E8%B7%AF%E5%BA%97%29&src=vetmap&coordinate=gaode&callnative=1"}]}