{"summary":{"id":"d02176","province":"宁夏回族自治区","city":"中卫市","district":"海原县","count":7,"total_distance_km":84.676,"coordinate_system":"GCJ-02 / Amap","generated_at":"2026-05-07 20:21:35"},"rows":[{"name":"伊洛动物诊所","address":"县政府西路西湖小区伊洛动物诊所50-1-08","phone":"18295552456","category":"医疗保健服务;动物医疗场所;宠物诊所","area":"","lng":105.636676,"lat":36.563336,"amap_id":"B0JAKAIK96","order":1,"prev_distance_km":0.0,"cumulative_distance_km":0.0,"amap_marker_url":"https://uri.amap.com/marker?position=105.636676,36.563336&name=%E4%BC%8A%E6%B4%9B%E5%8A%A8%E7%89%A9%E8%AF%8A%E6%89%80&src=vetmap&coordinate=gaode&callnative=1"},{"name":"海原县动物疾病预防控制中心(动物卫生监督所)","address":"北海北路17号","phone":"","category":"医疗保健服务;动物医疗场所;动物医疗场所","area":"","lng":105.637364,"lat":36.560543,"amap_id":"B0LKZDEBP0","order":2,"prev_distance_km":0.317,"cumulative_distance_km":0.317,"amap_marker_url":"https://uri.amap.com/marker?position=105.637364,36.560543&name=%E6%B5%B7%E5%8E%9F%E5%8E%BF%E5%8A%A8%E7%89%A9%E7%96%BE%E7%97%85%E9%A2%84%E9%98%B2%E6%8E%A7%E5%88%B6%E4%B8%AD%E5%BF%83%28%E5%8A%A8%E7%89%A9%E5%8D%AB%E7%94%9F%E7%9B%91%E7%9D%A3%E6%89%80%29&src=vetmap&coordinate=gaode&callnative=1"},{"name":"海原县史店畜牧兽医站","address":"史店乡邮政代办所东侧200米","phone":"","category":"医疗保健服务;动物医疗场所;兽医站","area":"","lng":105.695525,"lat":36.525875,"amap_id":"B0L29NQRBP","order":3,"prev_distance_km":6.47,"cumulative_distance_km":6.786,"amap_marker_url":"https://uri.amap.com/marker?position=105.695525,36.525875&name=%E6%B5%B7%E5%8E%9F%E5%8E%BF%E5%8F%B2%E5%BA%97%E7%95%9C%E7%89%A7%E5%85%BD%E5%8C%BB%E7%AB%99&src=vetmap&coordinate=gaode&callnative=1"},{"name":"为民兽药店","address":"曹洼乡政府南侧250米","phone":"","category":"医疗保健服务;动物医疗场所;动物医疗场所","area":"","lng":105.751375,"lat":36.429875,"amap_id":"B0M62DUJVS","order":4,"prev_distance_km":11.785,"cumulative_distance_km":18.571,"amap_marker_url":"https://uri.amap.com/marker?position=105.751375,36.429875&name=%E4%B8%BA%E6%B0%91%E5%85%BD%E8%8D%AF%E5%BA%97&src=vetmap&coordinate=gaode&callnative=1"},{"name":"小褚兽医服务点","address":"三河镇农贸市场5B12","phone":"13739588402","category":"医疗保健服务;动物医疗场所;兽医站","area":"","lng":106.096843,"lat":36.375075,"amap_id":"B0GUMY4O5M","order":5,"prev_distance_km":31.513,"cumulative_distance_km":50.084,"amap_marker_url":"https://uri.amap.com/marker?position=106.096843,36.375075&name=%E5%B0%8F%E8%A4%9A%E5%85%BD%E5%8C%BB%E6%9C%8D%E5%8A%A1%E7%82%B9&src=vetmap&coordinate=gaode&callnative=1"},{"name":"马学成兽药店","address":"振兴路与政府街交叉口西100米","phone":"","category":"医疗保健服务;动物医疗场所;动物医疗场所","area":"","lng":106.097525,"lat":36.685675,"amap_id":"B0L0GL4L1L","order":6,"prev_distance_km":34.537,"cumulative_distance_km":84.622,"amap_marker_url":"https://uri.amap.com/marker?position=106.097525,36.685675&name=%E9%A9%AC%E5%AD%A6%E6%88%90%E5%85%BD%E8%8D%AF%E5%BA%97&src=vetmap&coordinate=gaode&callnative=1"},{"name":"福祉兽药店","address":"344国道","phone":"13389565440","category":"医疗保健服务;动物医疗场所;动物医疗场所","area":"","lng":106.098104,"lat":36.68583,"amap_id":"B0L17S8DXY","order":7,"prev_distance_km":0.054,"cumulative_distance_km":84.676,"amap_marker_url":"https://uri.amap.com/marker?position=106.098104,36.685830&name=%E7%A6%8F%E7%A5%89%E5%85%BD%E8%8D%AF%E5%BA%97&src=vetmap&coordinate=gaode&callnative=1"}]}