{"summary":{"id":"d02155","province":"四川省","city":"遂宁市","district":"大英县","count":8,"route_count":1,"max_route_clinics":8,"total_distance_km":24.286,"coordinate_system":"GCJ-02 / Amap","generated_at":"2026-05-07 21:26:54"},"routes":[{"id":"r1","name":"第1段","count":8,"total_distance_km":24.286,"rows":[{"name":"大英县隆盛镇畜牧兽医站","address":"永隆街与350国道交叉口东南460米","phone":"","category":"医疗保健服务;动物医疗场所;兽医站","area":"","lng":105.365957,"lat":30.602979,"amap_id":"B0H2XMES51","order":1,"prev_distance_km":0.0,"cumulative_distance_km":0.0,"amap_marker_url":"https://uri.amap.com/marker?position=105.365957,30.602979&name=%E5%A4%A7%E8%8B%B1%E5%8E%BF%E9%9A%86%E7%9B%9B%E9%95%87%E7%95%9C%E7%89%A7%E5%85%BD%E5%8C%BB%E7%AB%99&src=vetmap&coordinate=gaode&callnative=1","route_id":"r1","route_name":"第1段"},{"name":"佳贝动物医院","address":"蓬莱镇采和大道龙腾帝景a区3幢1层63号65号","phone":"18081297849","category":"医疗保健服务;动物医疗场所;宠物诊所","area":"","lng":105.252302,"lat":30.591372,"amap_id":"B0LR5SAYQA","order":2,"prev_distance_km":10.955,"cumulative_distance_km":10.955,"amap_marker_url":"https://uri.amap.com/marker?position=105.252302,30.591372&name=%E4%BD%B3%E8%B4%9D%E5%8A%A8%E7%89%A9%E5%8C%BB%E9%99%A2&src=vetmap&coordinate=gaode&callnative=1","route_id":"r1","route_name":"第1段"},{"name":"大英县伴侣动物医院","address":"新城区花园大道89-91号","phone":"15982555999","category":"医疗保健服务;动物医疗场所;宠物诊所","area":"","lng":105.242274,"lat":30.594679,"amap_id":"B0IKYABMNP","order":3,"prev_distance_km":1.028,"cumulative_distance_km":11.982,"amap_marker_url":"https://uri.amap.com/marker?position=105.242274,30.594679&name=%E5%A4%A7%E8%8B%B1%E5%8E%BF%E4%BC%B4%E4%BE%A3%E5%8A%A8%E7%89%A9%E5%8C%BB%E9%99%A2&src=vetmap&coordinate=gaode&callnative=1","route_id":"r1","route_name":"第1段"},{"name":"大英县谐和宠物医院","address":"郪江中路235-237号靠近大英中学宠物绝育宠物医院宠物美容宠物疫苗宠物洁牙宠物医疗宠物手术宠物生病宠物治疗","phone":"15881910011","category":"医疗保健服务;动物医疗场所;宠物诊所","area":"","lng":105.249471,"lat":30.587639,"amap_id":"B0FFIBHEPF","order":4,"prev_distance_km":1.043,"cumulative_distance_km":13.025,"amap_marker_url":"https://uri.amap.com/marker?position=105.249471,30.587639&name=%E5%A4%A7%E8%8B%B1%E5%8E%BF%E8%B0%90%E5%92%8C%E5%AE%A0%E7%89%A9%E5%8C%BB%E9%99%A2&src=vetmap&coordinate=gaode&callnative=1","route_id":"r1","route_name":"第1段"},{"name":"我爱我宠宠物门诊","address":"郪江中路357-359号","phone":"13882527688","category":"医疗保健服务;动物医疗场所;宠物诊所","area":"","lng":105.251035,"lat":30.58581,"amap_id":"B0FFGRHWFB","order":5,"prev_distance_km":0.253,"cumulative_distance_km":13.278,"amap_marker_url":"https://uri.amap.com/marker?position=105.251035,30.585810&name=%E6%88%91%E7%88%B1%E6%88%91%E5%AE%A0%E5%AE%A0%E7%89%A9%E9%97%A8%E8%AF%8A&src=vetmap&coordinate=gaode&callnative=1","route_id":"r1","route_name":"第1段"},{"name":"多格爱宠物诊所","address":"郪江中路与盐桥街交叉口东南20米","phone":"","category":"医疗保健服务;动物医疗场所;宠物诊所","area":"","lng":105.25111,"lat":30.585793,"amap_id":"B0ID77J5T8","order":6,"prev_distance_km":0.007,"cumulative_distance_km":13.285,"amap_marker_url":"https://uri.amap.com/marker?position=105.251110,30.585793&name=%E5%A4%9A%E6%A0%BC%E7%88%B1%E5%AE%A0%E7%89%A9%E8%AF%8A%E6%89%80&src=vetmap&coordinate=gaode&callnative=1","route_id":"r1","route_name":"第1段"},{"name":"大英益虎动物诊所","address":"百花街122号","phone":"","category":"医疗保健服务;动物医疗场所;宠物诊所","area":"交通上街","lng":105.247191,"lat":30.583247,"amap_id":"B0IRKPNBUG","order":7,"prev_distance_km":0.47,"cumulative_distance_km":13.755,"amap_marker_url":"https://uri.amap.com/marker?position=105.247191,30.583247&name=%E5%A4%A7%E8%8B%B1%E7%9B%8A%E8%99%8E%E5%8A%A8%E7%89%A9%E8%AF%8A%E6%89%80&src=vetmap&coordinate=gaode&callnative=1","route_id":"r1","route_name":"第1段"},{"name":"天保镇畜牧兽医站","address":"蓬云路东50米","phone":"","category":"医疗保健服务;动物医疗场所;兽医站","area":"","lng":105.293345,"lat":30.497288,"amap_id":"B0339009QA","order":8,"prev_distance_km":10.531,"cumulative_distance_km":24.286,"amap_marker_url":"https://uri.amap.com/marker?position=105.293345,30.497288&name=%E5%A4%A9%E4%BF%9D%E9%95%87%E7%95%9C%E7%89%A7%E5%85%BD%E5%8C%BB%E7%AB%99&src=vetmap&coordinate=gaode&callnative=1","route_id":"r1","route_name":"第1段"}]}],"rows":[{"name":"大英县隆盛镇畜牧兽医站","address":"永隆街与350国道交叉口东南460米","phone":"","category":"医疗保健服务;动物医疗场所;兽医站","area":"","lng":105.365957,"lat":30.602979,"amap_id":"B0H2XMES51","order":1,"prev_distance_km":0.0,"cumulative_distance_km":0.0,"amap_marker_url":"https://uri.amap.com/marker?position=105.365957,30.602979&name=%E5%A4%A7%E8%8B%B1%E5%8E%BF%E9%9A%86%E7%9B%9B%E9%95%87%E7%95%9C%E7%89%A7%E5%85%BD%E5%8C%BB%E7%AB%99&src=vetmap&coordinate=gaode&callnative=1","route_id":"r1","route_name":"第1段","global_order":1},{"name":"佳贝动物医院","address":"蓬莱镇采和大道龙腾帝景a区3幢1层63号65号","phone":"18081297849","category":"医疗保健服务;动物医疗场所;宠物诊所","area":"","lng":105.252302,"lat":30.591372,"amap_id":"B0LR5SAYQA","order":2,"prev_distance_km":10.955,"cumulative_distance_km":10.955,"amap_marker_url":"https://uri.amap.com/marker?position=105.252302,30.591372&name=%E4%BD%B3%E8%B4%9D%E5%8A%A8%E7%89%A9%E5%8C%BB%E9%99%A2&src=vetmap&coordinate=gaode&callnative=1","route_id":"r1","route_name":"第1段","global_order":2},{"name":"大英县伴侣动物医院","address":"新城区花园大道89-91号","phone":"15982555999","category":"医疗保健服务;动物医疗场所;宠物诊所","area":"","lng":105.242274,"lat":30.594679,"amap_id":"B0IKYABMNP","order":3,"prev_distance_km":1.028,"cumulative_distance_km":11.982,"amap_marker_url":"https://uri.amap.com/marker?position=105.242274,30.594679&name=%E5%A4%A7%E8%8B%B1%E5%8E%BF%E4%BC%B4%E4%BE%A3%E5%8A%A8%E7%89%A9%E5%8C%BB%E9%99%A2&src=vetmap&coordinate=gaode&callnative=1","route_id":"r1","route_name":"第1段","global_order":3},{"name":"大英县谐和宠物医院","address":"郪江中路235-237号靠近大英中学宠物绝育宠物医院宠物美容宠物疫苗宠物洁牙宠物医疗宠物手术宠物生病宠物治疗","phone":"15881910011","category":"医疗保健服务;动物医疗场所;宠物诊所","area":"","lng":105.249471,"lat":30.587639,"amap_id":"B0FFIBHEPF","order":4,"prev_distance_km":1.043,"cumulative_distance_km":13.025,"amap_marker_url":"https://uri.amap.com/marker?position=105.249471,30.587639&name=%E5%A4%A7%E8%8B%B1%E5%8E%BF%E8%B0%90%E5%92%8C%E5%AE%A0%E7%89%A9%E5%8C%BB%E9%99%A2&src=vetmap&coordinate=gaode&callnative=1","route_id":"r1","route_name":"第1段","global_order":4},{"name":"我爱我宠宠物门诊","address":"郪江中路357-359号","phone":"13882527688","category":"医疗保健服务;动物医疗场所;宠物诊所","area":"","lng":105.251035,"lat":30.58581,"amap_id":"B0FFGRHWFB","order":5,"prev_distance_km":0.253,"cumulative_distance_km":13.278,"amap_marker_url":"https://uri.amap.com/marker?position=105.251035,30.585810&name=%E6%88%91%E7%88%B1%E6%88%91%E5%AE%A0%E5%AE%A0%E7%89%A9%E9%97%A8%E8%AF%8A&src=vetmap&coordinate=gaode&callnative=1","route_id":"r1","route_name":"第1段","global_order":5},{"name":"多格爱宠物诊所","address":"郪江中路与盐桥街交叉口东南20米","phone":"","category":"医疗保健服务;动物医疗场所;宠物诊所","area":"","lng":105.25111,"lat":30.585793,"amap_id":"B0ID77J5T8","order":6,"prev_distance_km":0.007,"cumulative_distance_km":13.285,"amap_marker_url":"https://uri.amap.com/marker?position=105.251110,30.585793&name=%E5%A4%9A%E6%A0%BC%E7%88%B1%E5%AE%A0%E7%89%A9%E8%AF%8A%E6%89%80&src=vetmap&coordinate=gaode&callnative=1","route_id":"r1","route_name":"第1段","global_order":6},{"name":"大英益虎动物诊所","address":"百花街122号","phone":"","category":"医疗保健服务;动物医疗场所;宠物诊所","area":"交通上街","lng":105.247191,"lat":30.583247,"amap_id":"B0IRKPNBUG","order":7,"prev_distance_km":0.47,"cumulative_distance_km":13.755,"amap_marker_url":"https://uri.amap.com/marker?position=105.247191,30.583247&name=%E5%A4%A7%E8%8B%B1%E7%9B%8A%E8%99%8E%E5%8A%A8%E7%89%A9%E8%AF%8A%E6%89%80&src=vetmap&coordinate=gaode&callnative=1","route_id":"r1","route_name":"第1段","global_order":7},{"name":"天保镇畜牧兽医站","address":"蓬云路东50米","phone":"","category":"医疗保健服务;动物医疗场所;兽医站","area":"","lng":105.293345,"lat":30.497288,"amap_id":"B0339009QA","order":8,"prev_distance_km":10.531,"cumulative_distance_km":24.286,"amap_marker_url":"https://uri.amap.com/marker?position=105.293345,30.497288&name=%E5%A4%A9%E4%BF%9D%E9%95%87%E7%95%9C%E7%89%A7%E5%85%BD%E5%8C%BB%E7%AB%99&src=vetmap&coordinate=gaode&callnative=1","route_id":"r1","route_name":"第1段","global_order":8}]}