{"summary":{"id":"d02181","province":"宁夏回族自治区","city":"吴忠市","district":"青铜峡市","count":5,"total_distance_km":12.897,"coordinate_system":"GCJ-02 / Amap","generated_at":"2026-05-07 20:21:35"},"rows":[{"name":"宠爱有家动物医院","address":"汉坝东街125号","phone":"13995437498","category":"医疗保健服务;动物医疗场所;宠物诊所","area":"古峡东街","lng":106.0816,"lat":38.022796,"amap_id":"B03B90M4EQ","order":1,"prev_distance_km":0.0,"cumulative_distance_km":0.0,"amap_marker_url":"https://uri.amap.com/marker?position=106.081600,38.022796&name=%E5%AE%A0%E7%88%B1%E6%9C%89%E5%AE%B6%E5%8A%A8%E7%89%A9%E5%8C%BB%E9%99%A2&src=vetmap&coordinate=gaode&callnative=1"},{"name":"兽药疫苗","address":"汉坝西街与永庆路交叉口西60米","phone":"","category":"医疗保健服务;动物医疗场所;动物医疗场所","area":"","lng":106.069336,"lat":38.024516,"amap_id":"B0L0HPQ0BM","order":2,"prev_distance_km":1.091,"cumulative_distance_km":1.091,"amap_marker_url":"https://uri.amap.com/marker?position=106.069336,38.024516&name=%E5%85%BD%E8%8D%AF%E7%96%AB%E8%8B%97&src=vetmap&coordinate=gaode&callnative=1"},{"name":"光忠动物康复诊所","address":"汉坝西街171号","phone":"13195050626","category":"医疗保健服务;动物医疗场所;宠物诊所","area":"","lng":106.068775,"lat":38.024647,"amap_id":"B0FFFL1LBV","order":3,"prev_distance_km":0.051,"cumulative_distance_km":1.142,"amap_marker_url":"https://uri.amap.com/marker?position=106.068775,38.024647&name=%E5%85%89%E5%BF%A0%E5%8A%A8%E7%89%A9%E5%BA%B7%E5%A4%8D%E8%AF%8A%E6%89%80&src=vetmap&coordinate=gaode&callnative=1"},{"name":"国牧兽药","address":"跨越街与建民南路交叉口西140米","phone":"","category":"购物服务;购物相关场所;购物相关场所|医疗保健服务;动物医疗场所;动物医疗场所","area":"","lng":106.067375,"lat":38.010875,"amap_id":"B0LKNLRAIY","order":4,"prev_distance_km":1.536,"cumulative_distance_km":2.679,"amap_marker_url":"https://uri.amap.com/marker?position=106.067375,38.010875&name=%E5%9B%BD%E7%89%A7%E5%85%BD%E8%8D%AF&src=vetmap&coordinate=gaode&callnative=1"},{"name":"青铜峡市峡口畜牧兽医工作站","address":"303省道与吴秦路交叉口西340米","phone":"","category":"医疗保健服务;动物医疗场所;兽医站","area":"","lng":106.087721,"lat":37.920387,"amap_id":"B03B90M4T7","order":5,"prev_distance_km":10.219,"cumulative_distance_km":12.897,"amap_marker_url":"https://uri.amap.com/marker?position=106.087721,37.920387&name=%E9%9D%92%E9%93%9C%E5%B3%A1%E5%B8%82%E5%B3%A1%E5%8F%A3%E7%95%9C%E7%89%A7%E5%85%BD%E5%8C%BB%E5%B7%A5%E4%BD%9C%E7%AB%99&src=vetmap&coordinate=gaode&callnative=1"}]}