{"summary":{"id":"d02154","province":"四川省","city":"达州市","district":"通川区","count":16,"total_distance_km":12.959,"coordinate_system":"GCJ-02 / Amap","generated_at":"2026-05-07 20:21:28"},"rows":[{"name":"友友宠物生活馆","address":"江湾城一期西2门旁","phone":"","category":"医疗保健服务;动物医疗场所;动物医疗场所","area":"","lng":107.52214,"lat":31.244326,"amap_id":"B0JBOZI2CU","order":1,"prev_distance_km":0.0,"cumulative_distance_km":0.0,"amap_marker_url":"https://uri.amap.com/marker?position=107.522140,31.244326&name=%E5%8F%8B%E5%8F%8B%E5%AE%A0%E7%89%A9%E7%94%9F%E6%B4%BB%E9%A6%86&src=vetmap&coordinate=gaode&callnative=1"},{"name":"安柠动物医院24小时急诊(江湾城店)","address":"江湾城二期左岸16-1-1","phone":"18180199385","category":"医疗保健服务;动物医疗场所;宠物诊所","area":"","lng":107.523206,"lat":31.238835,"amap_id":"B0L2CDHQS6","order":2,"prev_distance_km":0.619,"cumulative_distance_km":0.619,"amap_marker_url":"https://uri.amap.com/marker?position=107.523206,31.238835&name=%E5%AE%89%E6%9F%A0%E5%8A%A8%E7%89%A9%E5%8C%BB%E9%99%A224%E5%B0%8F%E6%97%B6%E6%80%A5%E8%AF%8A%28%E6%B1%9F%E6%B9%BE%E5%9F%8E%E5%BA%97%29&src=vetmap&coordinate=gaode&callnative=1"},{"name":"极地动物诊所","address":"板桥街37-39号","phone":"0818-2188066;18381888942","category":"医疗保健服务;动物医疗场所;宠物诊所","area":"","lng":107.520522,"lat":31.223005,"amap_id":"B0HARU11ON","order":3,"prev_distance_km":1.779,"cumulative_distance_km":2.398,"amap_marker_url":"https://uri.amap.com/marker?position=107.520522,31.223005&name=%E6%9E%81%E5%9C%B0%E5%8A%A8%E7%89%A9%E8%AF%8A%E6%89%80&src=vetmap&coordinate=gaode&callnative=1"},{"name":"晶源动物医院·川东北重症转诊中心(北外店)","address":"滨河东路330号","phone":"0818-2289989;18989175552","category":"医疗保健服务;动物医疗场所;宠物诊所","area":"","lng":107.514637,"lat":31.215078,"amap_id":"B0IU4LEB0E","order":4,"prev_distance_km":1.044,"cumulative_distance_km":3.442,"amap_marker_url":"https://uri.amap.com/marker?position=107.514637,31.215078&name=%E6%99%B6%E6%BA%90%E5%8A%A8%E7%89%A9%E5%8C%BB%E9%99%A2%C2%B7%E5%B7%9D%E4%B8%9C%E5%8C%97%E9%87%8D%E7%97%87%E8%BD%AC%E8%AF%8A%E4%B8%AD%E5%BF%83%28%E5%8C%97%E5%A4%96%E5%BA%97%29&src=vetmap&coordinate=gaode&callnative=1"},{"name":"心愿动物医院","address":"滨河东路330号","phone":"18989175552","category":"医疗保健服务;动物医疗场所;宠物诊所","area":"","lng":107.514644,"lat":31.215066,"amap_id":"B0FFHIBOV0","order":5,"prev_distance_km":0.001,"cumulative_distance_km":3.443,"amap_marker_url":"https://uri.amap.com/marker?position=107.514644,31.215066&name=%E5%BF%83%E6%84%BF%E5%8A%A8%E7%89%A9%E5%8C%BB%E9%99%A2&src=vetmap&coordinate=gaode&callnative=1"},{"name":"欣欣动物医院","address":"滨河东路453号","phone":"15808190589","category":"医疗保健服务;动物医疗场所;宠物诊所","area":"","lng":107.510075,"lat":31.211277,"amap_id":"B0KAOSV3GN","order":6,"prev_distance_km":0.605,"cumulative_distance_km":4.048,"amap_marker_url":"https://uri.amap.com/marker?position=107.510075,31.211277&name=%E6%AC%A3%E6%AC%A3%E5%8A%A8%E7%89%A9%E5%8C%BB%E9%99%A2&src=vetmap&coordinate=gaode&callnative=1"},{"name":"阳光金沙动物医院","address":"南门口翠屏路23号","phone":"15882925982;18982870023","category":"医疗保健服务;动物医疗场所;宠物诊所","area":"","lng":107.498543,"lat":31.208696,"amap_id":"B0IG1HFGPB","order":7,"prev_distance_km":1.134,"cumulative_distance_km":5.182,"amap_marker_url":"https://uri.amap.com/marker?position=107.498543,31.208696&name=%E9%98%B3%E5%85%89%E9%87%91%E6%B2%99%E5%8A%A8%E7%89%A9%E5%8C%BB%E9%99%A2&src=vetmap&coordinate=gaode&callnative=1"},{"name":"安贝儿动物医院","address":"布市街邮电综合楼B幢第1层17号","phone":"17311503789","category":"医疗保健服务;动物医疗场所;宠物诊所","area":"","lng":107.498097,"lat":31.208628,"amap_id":"B0GUY73A6Q","order":8,"prev_distance_km":0.043,"cumulative_distance_km":5.225,"amap_marker_url":"https://uri.amap.com/marker?position=107.498097,31.208628&name=%E5%AE%89%E8%B4%9D%E5%84%BF%E5%8A%A8%E7%89%A9%E5%8C%BB%E9%99%A2&src=vetmap&coordinate=gaode&callnative=1"},{"name":"仁芝和动物中心医院","address":"金龙大道138号","phone":"17313236638","category":"医疗保健服务;动物医疗场所;宠物诊所","area":"金龙大道","lng":107.465446,"lat":31.202079,"amap_id":"B0KU7S152I","order":9,"prev_distance_km":3.19,"cumulative_distance_km":8.415,"amap_marker_url":"https://uri.amap.com/marker?position=107.465446,31.202079&name=%E4%BB%81%E8%8A%9D%E5%92%8C%E5%8A%A8%E7%89%A9%E4%B8%AD%E5%BF%83%E5%8C%BB%E9%99%A2&src=vetmap&coordinate=gaode&callnative=1"},{"name":"艾迪动物医院","address":"金龙大道棕榈岛4栋1层15号","phone":"18215594560","category":"医疗保健服务;动物医疗场所;宠物诊所","area":"金龙大道","lng":107.46343,"lat":31.210074,"amap_id":"B0FFGXHB69","order":10,"prev_distance_km":0.909,"cumulative_distance_km":9.324,"amap_marker_url":"https://uri.amap.com/marker?position=107.463430,31.210074&name=%E8%89%BE%E8%BF%AA%E5%8A%A8%E7%89%A9%E5%8C%BB%E9%99%A2&src=vetmap&coordinate=gaode&callnative=1"},{"name":"萌之语动物诊所","address":"通锦国际新城一期B区15号楼负2层13号","phone":"0818-2518235;17378407516","category":"医疗保健服务;动物医疗场所;宠物诊所","area":"金龙大道","lng":107.464601,"lat":31.215889,"amap_id":"B0FFK0MLR4","order":11,"prev_distance_km":0.656,"cumulative_distance_km":9.98,"amap_marker_url":"https://uri.amap.com/marker?position=107.464601,31.215889&name=%E8%90%8C%E4%B9%8B%E8%AF%AD%E5%8A%A8%E7%89%A9%E8%AF%8A%E6%89%80&src=vetmap&coordinate=gaode&callnative=1"},{"name":"达瑞动物医院","address":"西外南北干道北侧海星园2号楼2层","phone":"19028973272","category":"医疗保健服务;动物医疗场所;宠物诊所","area":"","lng":107.464412,"lat":31.22203,"amap_id":"B0M6Y5RVHJ","order":12,"prev_distance_km":0.683,"cumulative_distance_km":10.663,"amap_marker_url":"https://uri.amap.com/marker?position=107.464412,31.222030&name=%E8%BE%BE%E7%91%9E%E5%8A%A8%E7%89%A9%E5%8C%BB%E9%99%A2&src=vetmap&coordinate=gaode&callnative=1"},{"name":"安柠动物医院仁和店","address":"州一豪庭东1门旁","phone":"","category":"医疗保健服务;动物医疗场所;宠物诊所","area":"","lng":107.464658,"lat":31.223889,"amap_id":"B0LRKMGFHS","order":13,"prev_distance_km":0.208,"cumulative_distance_km":10.871,"amap_marker_url":"https://uri.amap.com/marker?position=107.464658,31.223889&name=%E5%AE%89%E6%9F%A0%E5%8A%A8%E7%89%A9%E5%8C%BB%E9%99%A2%E4%BB%81%E5%92%8C%E5%BA%97&src=vetmap&coordinate=gaode&callnative=1"},{"name":"安柠动物医院24小时急诊(仁和店)","address":"巴渠东路107号","phone":"17780980822","category":"医疗保健服务;动物医疗场所;宠物诊所","area":"","lng":107.46468,"lat":31.223929,"amap_id":"B0LR4UPYXD","order":14,"prev_distance_km":0.005,"cumulative_distance_km":10.876,"amap_marker_url":"https://uri.amap.com/marker?position=107.464680,31.223929&name=%E5%AE%89%E6%9F%A0%E5%8A%A8%E7%89%A9%E5%8C%BB%E9%99%A224%E5%B0%8F%E6%97%B6%E6%80%A5%E8%AF%8A%28%E4%BB%81%E5%92%8C%E5%BA%97%29&src=vetmap&coordinate=gaode&callnative=1"},{"name":"心愿动物医院(西外誉府分店)","address":"天誉誉府东门1栋1楼4号","phone":"","category":"医疗保健服务;动物医疗场所;宠物诊所","area":"","lng":107.46151,"lat":31.228703,"amap_id":"B0MBKCQPSH","order":15,"prev_distance_km":0.61,"cumulative_distance_km":11.487,"amap_marker_url":"https://uri.amap.com/marker?position=107.461510,31.228703&name=%E5%BF%83%E6%84%BF%E5%8A%A8%E7%89%A9%E5%8C%BB%E9%99%A2%28%E8%A5%BF%E5%A4%96%E8%AA%89%E5%BA%9C%E5%88%86%E5%BA%97%29&src=vetmap&coordinate=gaode&callnative=1"},{"name":"安柠动物医院24小时转诊中心(莲湖院区)","address":"元九大道与彩亭路交叉口西南200米","phone":"","category":"医疗保健服务;动物医疗场所;宠物诊所","area":"","lng":107.466175,"lat":31.241325,"amap_id":"B0LG358L4R","order":16,"prev_distance_km":1.472,"cumulative_distance_km":12.959,"amap_marker_url":"https://uri.amap.com/marker?position=107.466175,31.241325&name=%E5%AE%89%E6%9F%A0%E5%8A%A8%E7%89%A9%E5%8C%BB%E9%99%A224%E5%B0%8F%E6%97%B6%E8%BD%AC%E8%AF%8A%E4%B8%AD%E5%BF%83%28%E8%8E%B2%E6%B9%96%E9%99%A2%E5%8C%BA%29&src=vetmap&coordinate=gaode&callnative=1"}]}