{"summary":{"id":"d02132","province":"四川省","city":"绵阳市","district":"安州区","count":11,"route_count":1,"max_route_clinics":11,"total_distance_km":54.256,"coordinate_system":"GCJ-02 / Amap","generated_at":"2026-05-07 21:26:52"},"routes":[{"id":"r1","name":"第1段","count":11,"total_distance_km":54.256,"rows":[{"name":"塔水镇畜牧兽医站","address":"德富街附近","phone":"","category":"医疗保健服务;动物医疗场所;兽医站","area":"","lng":104.425755,"lat":31.463211,"amap_id":"B0FFHBVQPN","order":1,"prev_distance_km":0.0,"cumulative_distance_km":0.0,"amap_marker_url":"https://uri.amap.com/marker?position=104.425755,31.463211&name=%E5%A1%94%E6%B0%B4%E9%95%87%E7%95%9C%E7%89%A7%E5%85%BD%E5%8C%BB%E7%AB%99&src=vetmap&coordinate=gaode&callnative=1","route_id":"r1","route_name":"第1段"},{"name":"动物检疫申报点","address":"河清镇人民政府东南侧180米","phone":"","category":"医疗保健服务;动物医疗场所;动物医疗场所","area":"","lng":104.328987,"lat":31.419544,"amap_id":"B0KAXCE617","order":2,"prev_distance_km":10.385,"cumulative_distance_km":10.385,"amap_marker_url":"https://uri.amap.com/marker?position=104.328987,31.419544&name=%E5%8A%A8%E7%89%A9%E6%A3%80%E7%96%AB%E7%94%B3%E6%8A%A5%E7%82%B9&src=vetmap&coordinate=gaode&callnative=1","route_id":"r1","route_name":"第1段"},{"name":"绵阳市安州区秀水镇畜牧兽医站","address":"南苑北街与西园大道南段交叉口东60米","phone":"","category":"医疗保健服务;动物医疗场所;兽医站","area":"","lng":104.337486,"lat":31.500574,"amap_id":"B0ID7CGK0S","order":3,"prev_distance_km":9.046,"cumulative_distance_km":19.431,"amap_marker_url":"https://uri.amap.com/marker?position=104.337486,31.500574&name=%E7%BB%B5%E9%98%B3%E5%B8%82%E5%AE%89%E5%B7%9E%E5%8C%BA%E7%A7%80%E6%B0%B4%E9%95%87%E7%95%9C%E7%89%A7%E5%85%BD%E5%8C%BB%E7%AB%99&src=vetmap&coordinate=gaode&callnative=1","route_id":"r1","route_name":"第1段"},{"name":"桑枣志琼兽药连锁店","address":"温泉路中段与107省道交叉口西北160米","phone":"13330908750","category":"医疗保健服务;动物医疗场所;动物医疗场所","area":"","lng":104.362636,"lat":31.597966,"amap_id":"B0FFI5NN7L","order":4,"prev_distance_km":11.089,"cumulative_distance_km":30.52,"amap_marker_url":"https://uri.amap.com/marker?position=104.362636,31.597966&name=%E6%A1%91%E6%9E%A3%E5%BF%97%E7%90%BC%E5%85%BD%E8%8D%AF%E8%BF%9E%E9%94%81%E5%BA%97&src=vetmap&coordinate=gaode&callnative=1","route_id":"r1","route_name":"第1段"},{"name":"黄土镇畜牧兽医站","address":"辽宁大道与大西街交叉口东160米","phone":"","category":"医疗保健服务;动物医疗场所;兽医站","area":"","lng":104.478511,"lat":31.585949,"amap_id":"B0J1CREVWC","order":5,"prev_distance_km":11.056,"cumulative_distance_km":41.576,"amap_marker_url":"https://uri.amap.com/marker?position=104.478511,31.585949&name=%E9%BB%84%E5%9C%9F%E9%95%87%E7%95%9C%E7%89%A7%E5%85%BD%E5%8C%BB%E7%AB%99&src=vetmap&coordinate=gaode&callnative=1","route_id":"r1","route_name":"第1段"},{"name":"胖墩宠物服务部","address":"塔九路215号","phone":"","category":"医疗保健服务;动物医疗场所;宠物诊所","area":"","lng":104.542855,"lat":31.536779,"amap_id":"B0L0NSRELP","order":6,"prev_distance_km":8.189,"cumulative_distance_km":49.765,"amap_marker_url":"https://uri.amap.com/marker?position=104.542855,31.536779&name=%E8%83%96%E5%A2%A9%E5%AE%A0%E7%89%A9%E6%9C%8D%E5%8A%A1%E9%83%A8&src=vetmap&coordinate=gaode&callnative=1","route_id":"r1","route_name":"第1段"},{"name":"安州区动物疫病预防控制中心","address":"民安小区西门西120米","phone":"","category":"医疗保健服务;动物医疗场所;动物医疗场所","area":"","lng":104.557709,"lat":31.548901,"amap_id":"B0FFIL424P","order":7,"prev_distance_km":1.949,"cumulative_distance_km":51.714,"amap_marker_url":"https://uri.amap.com/marker?position=104.557709,31.548901&name=%E5%AE%89%E5%B7%9E%E5%8C%BA%E5%8A%A8%E7%89%A9%E7%96%AB%E7%97%85%E9%A2%84%E9%98%B2%E6%8E%A7%E5%88%B6%E4%B8%AD%E5%BF%83&src=vetmap&coordinate=gaode&callnative=1","route_id":"r1","route_name":"第1段"},{"name":"艾瑞动物诊疗服务中心(安州区店)","address":"花荄镇启明星大道北段78号","phone":"13981102400","category":"医疗保健服务;动物医疗场所;宠物诊所","area":"","lng":104.563992,"lat":31.541686,"amap_id":"B0HB1UFYVG","order":8,"prev_distance_km":0.999,"cumulative_distance_km":52.713,"amap_marker_url":"https://uri.amap.com/marker?position=104.563992,31.541686&name=%E8%89%BE%E7%91%9E%E5%8A%A8%E7%89%A9%E8%AF%8A%E7%96%97%E6%9C%8D%E5%8A%A1%E4%B8%AD%E5%BF%83%28%E5%AE%89%E5%B7%9E%E5%8C%BA%E5%BA%97%29&src=vetmap&coordinate=gaode&callnative=1","route_id":"r1","route_name":"第1段"},{"name":"飞哥宠物美容","address":"文胜路东段191号","phone":"15280931818","category":"医疗保健服务;动物医疗场所;宠物诊所","area":"","lng":104.56414,"lat":31.535901,"amap_id":"B0G2XHJHH3","order":9,"prev_distance_km":0.643,"cumulative_distance_km":53.357,"amap_marker_url":"https://uri.amap.com/marker?position=104.564140,31.535901&name=%E9%A3%9E%E5%93%A5%E5%AE%A0%E7%89%A9%E7%BE%8E%E5%AE%B9&src=vetmap&coordinate=gaode&callnative=1","route_id":"r1","route_name":"第1段"},{"name":"鑫盾动物医院","address":"花荄镇文胜路东段231号","phone":"18281528086","category":"医疗保健服务;动物医疗场所;宠物诊所","area":"","lng":104.563581,"lat":31.535531,"amap_id":"B0KDCSO2YU","order":10,"prev_distance_km":0.067,"cumulative_distance_km":53.424,"amap_marker_url":"https://uri.amap.com/marker?position=104.563581,31.535531&name=%E9%91%AB%E7%9B%BE%E5%8A%A8%E7%89%A9%E5%8C%BB%E9%99%A2&src=vetmap&coordinate=gaode&callnative=1","route_id":"r1","route_name":"第1段"},{"name":"慈舟动物医院","address":"欧洲花园14幢101铺","phone":"15700219008","category":"医疗保健服务;动物医疗场所;宠物诊所","area":"","lng":104.567965,"lat":31.52905,"amap_id":"B0LKAA8GFH","order":11,"prev_distance_km":0.832,"cumulative_distance_km":54.256,"amap_marker_url":"https://uri.amap.com/marker?position=104.567965,31.529050&name=%E6%85%88%E8%88%9F%E5%8A%A8%E7%89%A9%E5%8C%BB%E9%99%A2&src=vetmap&coordinate=gaode&callnative=1","route_id":"r1","route_name":"第1段"}]}],"rows":[{"name":"塔水镇畜牧兽医站","address":"德富街附近","phone":"","category":"医疗保健服务;动物医疗场所;兽医站","area":"","lng":104.425755,"lat":31.463211,"amap_id":"B0FFHBVQPN","order":1,"prev_distance_km":0.0,"cumulative_distance_km":0.0,"amap_marker_url":"https://uri.amap.com/marker?position=104.425755,31.463211&name=%E5%A1%94%E6%B0%B4%E9%95%87%E7%95%9C%E7%89%A7%E5%85%BD%E5%8C%BB%E7%AB%99&src=vetmap&coordinate=gaode&callnative=1","route_id":"r1","route_name":"第1段","global_order":1},{"name":"动物检疫申报点","address":"河清镇人民政府东南侧180米","phone":"","category":"医疗保健服务;动物医疗场所;动物医疗场所","area":"","lng":104.328987,"lat":31.419544,"amap_id":"B0KAXCE617","order":2,"prev_distance_km":10.385,"cumulative_distance_km":10.385,"amap_marker_url":"https://uri.amap.com/marker?position=104.328987,31.419544&name=%E5%8A%A8%E7%89%A9%E6%A3%80%E7%96%AB%E7%94%B3%E6%8A%A5%E7%82%B9&src=vetmap&coordinate=gaode&callnative=1","route_id":"r1","route_name":"第1段","global_order":2},{"name":"绵阳市安州区秀水镇畜牧兽医站","address":"南苑北街与西园大道南段交叉口东60米","phone":"","category":"医疗保健服务;动物医疗场所;兽医站","area":"","lng":104.337486,"lat":31.500574,"amap_id":"B0ID7CGK0S","order":3,"prev_distance_km":9.046,"cumulative_distance_km":19.431,"amap_marker_url":"https://uri.amap.com/marker?position=104.337486,31.500574&name=%E7%BB%B5%E9%98%B3%E5%B8%82%E5%AE%89%E5%B7%9E%E5%8C%BA%E7%A7%80%E6%B0%B4%E9%95%87%E7%95%9C%E7%89%A7%E5%85%BD%E5%8C%BB%E7%AB%99&src=vetmap&coordinate=gaode&callnative=1","route_id":"r1","route_name":"第1段","global_order":3},{"name":"桑枣志琼兽药连锁店","address":"温泉路中段与107省道交叉口西北160米","phone":"13330908750","category":"医疗保健服务;动物医疗场所;动物医疗场所","area":"","lng":104.362636,"lat":31.597966,"amap_id":"B0FFI5NN7L","order":4,"prev_distance_km":11.089,"cumulative_distance_km":30.52,"amap_marker_url":"https://uri.amap.com/marker?position=104.362636,31.597966&name=%E6%A1%91%E6%9E%A3%E5%BF%97%E7%90%BC%E5%85%BD%E8%8D%AF%E8%BF%9E%E9%94%81%E5%BA%97&src=vetmap&coordinate=gaode&callnative=1","route_id":"r1","route_name":"第1段","global_order":4},{"name":"黄土镇畜牧兽医站","address":"辽宁大道与大西街交叉口东160米","phone":"","category":"医疗保健服务;动物医疗场所;兽医站","area":"","lng":104.478511,"lat":31.585949,"amap_id":"B0J1CREVWC","order":5,"prev_distance_km":11.056,"cumulative_distance_km":41.576,"amap_marker_url":"https://uri.amap.com/marker?position=104.478511,31.585949&name=%E9%BB%84%E5%9C%9F%E9%95%87%E7%95%9C%E7%89%A7%E5%85%BD%E5%8C%BB%E7%AB%99&src=vetmap&coordinate=gaode&callnative=1","route_id":"r1","route_name":"第1段","global_order":5},{"name":"胖墩宠物服务部","address":"塔九路215号","phone":"","category":"医疗保健服务;动物医疗场所;宠物诊所","area":"","lng":104.542855,"lat":31.536779,"amap_id":"B0L0NSRELP","order":6,"prev_distance_km":8.189,"cumulative_distance_km":49.765,"amap_marker_url":"https://uri.amap.com/marker?position=104.542855,31.536779&name=%E8%83%96%E5%A2%A9%E5%AE%A0%E7%89%A9%E6%9C%8D%E5%8A%A1%E9%83%A8&src=vetmap&coordinate=gaode&callnative=1","route_id":"r1","route_name":"第1段","global_order":6},{"name":"安州区动物疫病预防控制中心","address":"民安小区西门西120米","phone":"","category":"医疗保健服务;动物医疗场所;动物医疗场所","area":"","lng":104.557709,"lat":31.548901,"amap_id":"B0FFIL424P","order":7,"prev_distance_km":1.949,"cumulative_distance_km":51.714,"amap_marker_url":"https://uri.amap.com/marker?position=104.557709,31.548901&name=%E5%AE%89%E5%B7%9E%E5%8C%BA%E5%8A%A8%E7%89%A9%E7%96%AB%E7%97%85%E9%A2%84%E9%98%B2%E6%8E%A7%E5%88%B6%E4%B8%AD%E5%BF%83&src=vetmap&coordinate=gaode&callnative=1","route_id":"r1","route_name":"第1段","global_order":7},{"name":"艾瑞动物诊疗服务中心(安州区店)","address":"花荄镇启明星大道北段78号","phone":"13981102400","category":"医疗保健服务;动物医疗场所;宠物诊所","area":"","lng":104.563992,"lat":31.541686,"amap_id":"B0HB1UFYVG","order":8,"prev_distance_km":0.999,"cumulative_distance_km":52.713,"amap_marker_url":"https://uri.amap.com/marker?position=104.563992,31.541686&name=%E8%89%BE%E7%91%9E%E5%8A%A8%E7%89%A9%E8%AF%8A%E7%96%97%E6%9C%8D%E5%8A%A1%E4%B8%AD%E5%BF%83%28%E5%AE%89%E5%B7%9E%E5%8C%BA%E5%BA%97%29&src=vetmap&coordinate=gaode&callnative=1","route_id":"r1","route_name":"第1段","global_order":8},{"name":"飞哥宠物美容","address":"文胜路东段191号","phone":"15280931818","category":"医疗保健服务;动物医疗场所;宠物诊所","area":"","lng":104.56414,"lat":31.535901,"amap_id":"B0G2XHJHH3","order":9,"prev_distance_km":0.643,"cumulative_distance_km":53.357,"amap_marker_url":"https://uri.amap.com/marker?position=104.564140,31.535901&name=%E9%A3%9E%E5%93%A5%E5%AE%A0%E7%89%A9%E7%BE%8E%E5%AE%B9&src=vetmap&coordinate=gaode&callnative=1","route_id":"r1","route_name":"第1段","global_order":9},{"name":"鑫盾动物医院","address":"花荄镇文胜路东段231号","phone":"18281528086","category":"医疗保健服务;动物医疗场所;宠物诊所","area":"","lng":104.563581,"lat":31.535531,"amap_id":"B0KDCSO2YU","order":10,"prev_distance_km":0.067,"cumulative_distance_km":53.424,"amap_marker_url":"https://uri.amap.com/marker?position=104.563581,31.535531&name=%E9%91%AB%E7%9B%BE%E5%8A%A8%E7%89%A9%E5%8C%BB%E9%99%A2&src=vetmap&coordinate=gaode&callnative=1","route_id":"r1","route_name":"第1段","global_order":10},{"name":"慈舟动物医院","address":"欧洲花园14幢101铺","phone":"15700219008","category":"医疗保健服务;动物医疗场所;宠物诊所","area":"","lng":104.567965,"lat":31.52905,"amap_id":"B0LKAA8GFH","order":11,"prev_distance_km":0.832,"cumulative_distance_km":54.256,"amap_marker_url":"https://uri.amap.com/marker?position=104.567965,31.529050&name=%E6%85%88%E8%88%9F%E5%8A%A8%E7%89%A9%E5%8C%BB%E9%99%A2&src=vetmap&coordinate=gaode&callnative=1","route_id":"r1","route_name":"第1段","global_order":11}]}