{"summary":{"id":"d02191","province":"宁夏回族自治区","city":"银川市","district":"永宁县","count":6,"route_count":1,"max_route_clinics":6,"total_distance_km":28.919,"coordinate_system":"GCJ-02 / Amap","generated_at":"2026-05-07 21:27:04"},"routes":[{"id":"r1","name":"第1段","count":6,"total_distance_km":28.919,"rows":[{"name":"宠康动物诊所(永宁店)","address":"团结路与宁丰南街交叉口西60米","phone":"19995364592","category":"医疗保健服务;动物医疗场所;宠物诊所","area":"","lng":106.267161,"lat":38.273726,"amap_id":"B0FFK9JQUJ","order":1,"prev_distance_km":0.0,"cumulative_distance_km":0.0,"amap_marker_url":"https://uri.amap.com/marker?position=106.267161,38.273726&name=%E5%AE%A0%E5%BA%B7%E5%8A%A8%E7%89%A9%E8%AF%8A%E6%89%80%28%E6%B0%B8%E5%AE%81%E5%BA%97%29&src=vetmap&coordinate=gaode&callnative=1","route_id":"r1","route_name":"第1段"},{"name":"宠物医院","address":"宁和南街泔泗路5号","phone":"","category":"医疗保健服务;动物医疗场所;宠物诊所","area":"杨和","lng":106.255736,"lat":38.276019,"amap_id":"B0LR1HSUPW","order":2,"prev_distance_km":1.029,"cumulative_distance_km":1.029,"amap_marker_url":"https://uri.amap.com/marker?position=106.255736,38.276019&name=%E5%AE%A0%E7%89%A9%E5%8C%BB%E9%99%A2&src=vetmap&coordinate=gaode&callnative=1","route_id":"r1","route_name":"第1段"},{"name":"宏祥牛羊屠宰场动物检疫申报点","address":"宏祥清真牛羊肉加工有限公司北侧","phone":"","category":"医疗保健服务;动物医疗场所;动物医疗场所","area":"","lng":106.240867,"lat":38.258062,"amap_id":"B0G2YKQ1GN","order":3,"prev_distance_km":2.382,"cumulative_distance_km":3.411,"amap_marker_url":"https://uri.amap.com/marker?position=106.240867,38.258062&name=%E5%AE%8F%E7%A5%A5%E7%89%9B%E7%BE%8A%E5%B1%A0%E5%AE%B0%E5%9C%BA%E5%8A%A8%E7%89%A9%E6%A3%80%E7%96%AB%E7%94%B3%E6%8A%A5%E7%82%B9&src=vetmap&coordinate=gaode&callnative=1","route_id":"r1","route_name":"第1段"},{"name":"动物营养中心闽宁镇服务处","address":"福宁路与闽甘路交叉口西160米","phone":"","category":"医疗保健服务;动物医疗场所;动物医疗场所","area":"","lng":105.981625,"lat":38.244375,"amap_id":"B0L0X9M9L6","order":4,"prev_distance_km":22.689,"cumulative_distance_km":26.1,"amap_marker_url":"https://uri.amap.com/marker?position=105.981625,38.244375&name=%E5%8A%A8%E7%89%A9%E8%90%A5%E5%85%BB%E4%B8%AD%E5%BF%83%E9%97%BD%E5%AE%81%E9%95%87%E6%9C%8D%E5%8A%A1%E5%A4%84&src=vetmap&coordinate=gaode&callnative=1","route_id":"r1","route_name":"第1段"},{"name":"三宝兽药店","address":"山海南街与同安路交叉口北300米","phone":"","category":"医疗保健服务;动物医疗场所;动物医疗场所","area":"","lng":105.967521,"lat":38.23898,"amap_id":"B0LAJOUY9R","order":5,"prev_distance_km":1.37,"cumulative_distance_km":27.47,"amap_marker_url":"https://uri.amap.com/marker?position=105.967521,38.238980&name=%E4%B8%89%E5%AE%9D%E5%85%BD%E8%8D%AF%E5%BA%97&src=vetmap&coordinate=gaode&callnative=1","route_id":"r1","route_name":"第1段"},{"name":"牛羊兽药店","address":"闽甘路与绿洲路交叉口西南440米","phone":"","category":"医疗保健服务;动物医疗场所;动物医疗场所","area":"","lng":105.979664,"lat":38.230102,"amap_id":"B0L0Z6EE6H","order":6,"prev_distance_km":1.449,"cumulative_distance_km":28.919,"amap_marker_url":"https://uri.amap.com/marker?position=105.979664,38.230102&name=%E7%89%9B%E7%BE%8A%E5%85%BD%E8%8D%AF%E5%BA%97&src=vetmap&coordinate=gaode&callnative=1","route_id":"r1","route_name":"第1段"}]}],"rows":[{"name":"宠康动物诊所(永宁店)","address":"团结路与宁丰南街交叉口西60米","phone":"19995364592","category":"医疗保健服务;动物医疗场所;宠物诊所","area":"","lng":106.267161,"lat":38.273726,"amap_id":"B0FFK9JQUJ","order":1,"prev_distance_km":0.0,"cumulative_distance_km":0.0,"amap_marker_url":"https://uri.amap.com/marker?position=106.267161,38.273726&name=%E5%AE%A0%E5%BA%B7%E5%8A%A8%E7%89%A9%E8%AF%8A%E6%89%80%28%E6%B0%B8%E5%AE%81%E5%BA%97%29&src=vetmap&coordinate=gaode&callnative=1","route_id":"r1","route_name":"第1段","global_order":1},{"name":"宠物医院","address":"宁和南街泔泗路5号","phone":"","category":"医疗保健服务;动物医疗场所;宠物诊所","area":"杨和","lng":106.255736,"lat":38.276019,"amap_id":"B0LR1HSUPW","order":2,"prev_distance_km":1.029,"cumulative_distance_km":1.029,"amap_marker_url":"https://uri.amap.com/marker?position=106.255736,38.276019&name=%E5%AE%A0%E7%89%A9%E5%8C%BB%E9%99%A2&src=vetmap&coordinate=gaode&callnative=1","route_id":"r1","route_name":"第1段","global_order":2},{"name":"宏祥牛羊屠宰场动物检疫申报点","address":"宏祥清真牛羊肉加工有限公司北侧","phone":"","category":"医疗保健服务;动物医疗场所;动物医疗场所","area":"","lng":106.240867,"lat":38.258062,"amap_id":"B0G2YKQ1GN","order":3,"prev_distance_km":2.382,"cumulative_distance_km":3.411,"amap_marker_url":"https://uri.amap.com/marker?position=106.240867,38.258062&name=%E5%AE%8F%E7%A5%A5%E7%89%9B%E7%BE%8A%E5%B1%A0%E5%AE%B0%E5%9C%BA%E5%8A%A8%E7%89%A9%E6%A3%80%E7%96%AB%E7%94%B3%E6%8A%A5%E7%82%B9&src=vetmap&coordinate=gaode&callnative=1","route_id":"r1","route_name":"第1段","global_order":3},{"name":"动物营养中心闽宁镇服务处","address":"福宁路与闽甘路交叉口西160米","phone":"","category":"医疗保健服务;动物医疗场所;动物医疗场所","area":"","lng":105.981625,"lat":38.244375,"amap_id":"B0L0X9M9L6","order":4,"prev_distance_km":22.689,"cumulative_distance_km":26.1,"amap_marker_url":"https://uri.amap.com/marker?position=105.981625,38.244375&name=%E5%8A%A8%E7%89%A9%E8%90%A5%E5%85%BB%E4%B8%AD%E5%BF%83%E9%97%BD%E5%AE%81%E9%95%87%E6%9C%8D%E5%8A%A1%E5%A4%84&src=vetmap&coordinate=gaode&callnative=1","route_id":"r1","route_name":"第1段","global_order":4},{"name":"三宝兽药店","address":"山海南街与同安路交叉口北300米","phone":"","category":"医疗保健服务;动物医疗场所;动物医疗场所","area":"","lng":105.967521,"lat":38.23898,"amap_id":"B0LAJOUY9R","order":5,"prev_distance_km":1.37,"cumulative_distance_km":27.47,"amap_marker_url":"https://uri.amap.com/marker?position=105.967521,38.238980&name=%E4%B8%89%E5%AE%9D%E5%85%BD%E8%8D%AF%E5%BA%97&src=vetmap&coordinate=gaode&callnative=1","route_id":"r1","route_name":"第1段","global_order":5},{"name":"牛羊兽药店","address":"闽甘路与绿洲路交叉口西南440米","phone":"","category":"医疗保健服务;动物医疗场所;动物医疗场所","area":"","lng":105.979664,"lat":38.230102,"amap_id":"B0L0Z6EE6H","order":6,"prev_distance_km":1.449,"cumulative_distance_km":28.919,"amap_marker_url":"https://uri.amap.com/marker?position=105.979664,38.230102&name=%E7%89%9B%E7%BE%8A%E5%85%BD%E8%8D%AF%E5%BA%97&src=vetmap&coordinate=gaode&callnative=1","route_id":"r1","route_name":"第1段","global_order":6}]}