{"summary":{"id":"d02175","province":"宁夏回族自治区","city":"中卫市","district":"沙坡头区","count":9,"total_distance_km":31.146,"coordinate_system":"GCJ-02 / Amap","generated_at":"2026-05-07 20:21:35"},"rows":[{"name":"超牧兽药店","address":"迎水桥卫生院西侧","phone":"15809554726","category":"医疗保健服务;动物医疗场所;动物医疗场所","area":"","lng":105.13304,"lat":37.5066,"amap_id":"B0LRDH6YXI","order":1,"prev_distance_km":0.0,"cumulative_distance_km":0.0,"amap_marker_url":"https://uri.amap.com/marker?position=105.133040,37.506600&name=%E8%B6%85%E7%89%A7%E5%85%BD%E8%8D%AF%E5%BA%97&src=vetmap&coordinate=gaode&callnative=1"},{"name":"滨河畜牧兽医站","address":"香山西街077号","phone":"","category":"医疗保健服务;动物医疗场所;兽医站","area":"","lng":105.185818,"lat":37.512658,"amap_id":"B07A10M6AJ","order":2,"prev_distance_km":4.704,"cumulative_distance_km":4.704,"amap_marker_url":"https://uri.amap.com/marker?position=105.185818,37.512658&name=%E6%BB%A8%E6%B2%B3%E7%95%9C%E7%89%A7%E5%85%BD%E5%8C%BB%E7%AB%99&src=vetmap&coordinate=gaode&callnative=1"},{"name":"海峻动物诊所","address":"南苑北区东门旁","phone":"17711811267","category":"医疗保健服务;动物医疗场所;宠物诊所","area":"","lng":105.189893,"lat":37.510158,"amap_id":"B0FFH1HBK9","order":3,"prev_distance_km":0.454,"cumulative_distance_km":5.158,"amap_marker_url":"https://uri.amap.com/marker?position=105.189893,37.510158&name=%E6%B5%B7%E5%B3%BB%E5%8A%A8%E7%89%A9%E8%AF%8A%E6%89%80&src=vetmap&coordinate=gaode&callnative=1"},{"name":"新希望兽药店","address":"文昌镇东大街蔡桥路","phone":"0955-7010516;13239575282","category":"医疗保健服务;动物医疗场所;兽医站","area":"","lng":105.198782,"lat":37.513153,"amap_id":"B0FFGDRJGB","order":4,"prev_distance_km":0.852,"cumulative_distance_km":6.01,"amap_marker_url":"https://uri.amap.com/marker?position=105.198782,37.513153&name=%E6%96%B0%E5%B8%8C%E6%9C%9B%E5%85%BD%E8%8D%AF%E5%BA%97&src=vetmap&coordinate=gaode&callnative=1"},{"name":"金鼎兽药饲料店","address":"紫云新都时尚商业广场西门旁","phone":"0955-7030321;0955-7065875;13519257469","category":"医疗保健服务;动物医疗场所;动物医疗场所","area":"","lng":105.198937,"lat":37.513389,"amap_id":"B0FFGDTSEE","order":5,"prev_distance_km":0.03,"cumulative_distance_km":6.04,"amap_marker_url":"https://uri.amap.com/marker?position=105.198937,37.513389&name=%E9%87%91%E9%BC%8E%E5%85%BD%E8%8D%AF%E9%A5%B2%E6%96%99%E5%BA%97&src=vetmap&coordinate=gaode&callnative=1"},{"name":"爱康宠物诊所","address":"南苑东路394号","phone":"17686838330","category":"医疗保健服务;动物医疗场所;宠物诊所","area":"","lng":105.205316,"lat":37.512436,"amap_id":"B0HG3BBCJM","order":6,"prev_distance_km":0.573,"cumulative_distance_km":6.612,"amap_marker_url":"https://uri.amap.com/marker?position=105.205316,37.512436&name=%E7%88%B1%E5%BA%B7%E5%AE%A0%E7%89%A9%E8%AF%8A%E6%89%80&src=vetmap&coordinate=gaode&callnative=1"},{"name":"中卫市康牧兴畜禽技术服务部","address":"中卫汽车客运总站云熙酒店北50米","phone":"13723338968","category":"医疗保健服务;动物医疗场所;兽医站","area":"","lng":105.21796,"lat":37.517505,"amap_id":"B0KUYHWIG3","order":7,"prev_distance_km":1.25,"cumulative_distance_km":7.862,"amap_marker_url":"https://uri.amap.com/marker?position=105.217960,37.517505&name=%E4%B8%AD%E5%8D%AB%E5%B8%82%E5%BA%B7%E7%89%A7%E5%85%B4%E7%95%9C%E7%A6%BD%E6%8A%80%E6%9C%AF%E6%9C%8D%E5%8A%A1%E9%83%A8&src=vetmap&coordinate=gaode&callnative=1"},{"name":"萌宠屋宠物诊所","address":"观河大院13号楼二单元102","phone":"17752457717;18919045794","category":"医疗保健服务;动物医疗场所;宠物诊所","area":"","lng":105.206123,"lat":37.492577,"amap_id":"B0FFLK4K1Q","order":8,"prev_distance_km":2.962,"cumulative_distance_km":10.824,"amap_marker_url":"https://uri.amap.com/marker?position=105.206123,37.492577&name=%E8%90%8C%E5%AE%A0%E5%B1%8B%E5%AE%A0%E7%89%A9%E8%AF%8A%E6%89%80&src=vetmap&coordinate=gaode&callnative=1"},{"name":"牧专畜禽技术服务部","address":"卫宁西路与常信北街交叉口西80米","phone":"15909566610","category":"医疗保健服务;动物医疗场所;兽医站","area":"","lng":105.435103,"lat":37.47294,"amap_id":"B0FFK221O1","order":9,"prev_distance_km":20.322,"cumulative_distance_km":31.146,"amap_marker_url":"https://uri.amap.com/marker?position=105.435103,37.472940&name=%E7%89%A7%E4%B8%93%E7%95%9C%E7%A6%BD%E6%8A%80%E6%9C%AF%E6%9C%8D%E5%8A%A1%E9%83%A8&src=vetmap&coordinate=gaode&callnative=1"}]}