{"summary":{"id":"d02145","province":"四川省","city":"资阳市","district":"乐至县","count":10,"route_count":1,"max_route_clinics":10,"total_distance_km":48.591,"coordinate_system":"GCJ-02 / Amap","generated_at":"2026-05-08 19:41:16"},"routes":[{"id":"r1","name":"第1段","count":10,"total_distance_km":48.591,"rows":[{"name":"乐至县良安镇畜牧兽医站","address":"人民路44号","phone":"","category":"医疗保健服务;动物医疗场所;兽医站","area":"","lng":104.937722,"lat":30.502342,"amap_id":"B03400169A","order":1,"prev_distance_km":0.0,"cumulative_distance_km":0.0,"amap_marker_url":"https://uri.amap.com/marker?position=104.937722,30.502342&name=%E4%B9%90%E8%87%B3%E5%8E%BF%E8%89%AF%E5%AE%89%E9%95%87%E7%95%9C%E7%89%A7%E5%85%BD%E5%8C%BB%E7%AB%99&src=vetmap&coordinate=gaode&callnative=1","route_id":"r1","route_name":"第1段"},{"name":"乐至县大佛镇畜牧兽医站","address":"友谊路南段与川西环线交叉口东北240米","phone":"","category":"医疗保健服务;动物医疗场所;兽医站","area":"","lng":104.902476,"lat":30.428466,"amap_id":"B0FFG2K34G","order":2,"prev_distance_km":8.882,"cumulative_distance_km":8.882,"amap_marker_url":"https://uri.amap.com/marker?position=104.902476,30.428466&name=%E4%B9%90%E8%87%B3%E5%8E%BF%E5%A4%A7%E4%BD%9B%E9%95%87%E7%95%9C%E7%89%A7%E5%85%BD%E5%8C%BB%E7%AB%99&src=vetmap&coordinate=gaode&callnative=1","route_id":"r1","route_name":"第1段"},{"name":"乐至县宝林镇畜牧兽医站","address":"宝林镇人民政府南侧270米","phone":"","category":"医疗保健服务;动物医疗场所;兽医站","area":"","lng":105.036554,"lat":30.397974,"amap_id":"B0LA1H9P3Q","order":3,"prev_distance_km":13.297,"cumulative_distance_km":22.179,"amap_marker_url":"https://uri.amap.com/marker?position=105.036554,30.397974&name=%E4%B9%90%E8%87%B3%E5%8E%BF%E5%AE%9D%E6%9E%97%E9%95%87%E7%95%9C%E7%89%A7%E5%85%BD%E5%8C%BB%E7%AB%99&src=vetmap&coordinate=gaode&callnative=1","route_id":"r1","route_name":"第1段"},{"name":"佳静动物医院","address":"乐至县迎宾大道西三巷185.187号,新档案馆对面","phone":"15883244884","category":"医疗保健服务;动物医疗场所;宠物诊所","area":"","lng":104.999665,"lat":30.289353,"amap_id":"B0K3FUF5C5","order":4,"prev_distance_km":12.586,"cumulative_distance_km":34.765,"amap_marker_url":"https://uri.amap.com/marker?position=104.999665,30.289353&name=%E4%BD%B3%E9%9D%99%E5%8A%A8%E7%89%A9%E5%8C%BB%E9%99%A2&src=vetmap&coordinate=gaode&callnative=1","route_id":"r1","route_name":"第1段"},{"name":"王姐宠物美容院","address":"帅乡大道一段与金三街交叉口西北60米","phone":"","category":"医疗保健服务;动物医疗场所;宠物诊所","area":"","lng":105.018875,"lat":30.280875,"amap_id":"B0L0K7QF6P","order":5,"prev_distance_km":2.071,"cumulative_distance_km":36.837,"amap_marker_url":"https://uri.amap.com/marker?position=105.018875,30.280875&name=%E7%8E%8B%E5%A7%90%E5%AE%A0%E7%89%A9%E7%BE%8E%E5%AE%B9%E9%99%A2&src=vetmap&coordinate=gaode&callnative=1","route_id":"r1","route_name":"第1段"},{"name":"狗仔屋宠物美容","address":"名景路67号","phone":"19982801972","category":"医疗保健服务;动物医疗场所;宠物诊所","area":"","lng":105.020048,"lat":30.26952,"amap_id":"B0FFKMQEZ5","order":6,"prev_distance_km":1.268,"cumulative_distance_km":38.104,"amap_marker_url":"https://uri.amap.com/marker?position=105.020048,30.269520&name=%E7%8B%97%E4%BB%94%E5%B1%8B%E5%AE%A0%E7%89%A9%E7%BE%8E%E5%AE%B9&src=vetmap&coordinate=gaode&callnative=1","route_id":"r1","route_name":"第1段"},{"name":"仁望动物医院(乐至分院)","address":"南湖路47.49.51号","phone":"028-25055120;18708298120","category":"医疗保健服务;动物医疗场所;宠物诊所","area":"","lng":105.021907,"lat":30.269923,"amap_id":"B0K3P94CUA","order":7,"prev_distance_km":0.184,"cumulative_distance_km":38.288,"amap_marker_url":"https://uri.amap.com/marker?position=105.021907,30.269923&name=%E4%BB%81%E6%9C%9B%E5%8A%A8%E7%89%A9%E5%8C%BB%E9%99%A2%28%E4%B9%90%E8%87%B3%E5%88%86%E9%99%A2%29&src=vetmap&coordinate=gaode&callnative=1","route_id":"r1","route_name":"第1段"},{"name":"乐至县南塔街道畜牧兽医站","address":"乐安路213号","phone":"","category":"医疗保健服务;动物医疗场所;兽医站","area":"","lng":105.030223,"lat":30.271067,"amap_id":"B0HG7GJA3A","order":8,"prev_distance_km":0.809,"cumulative_distance_km":39.097,"amap_marker_url":"https://uri.amap.com/marker?position=105.030223,30.271067&name=%E4%B9%90%E8%87%B3%E5%8E%BF%E5%8D%97%E5%A1%94%E8%A1%97%E9%81%93%E7%95%9C%E7%89%A7%E5%85%BD%E5%8C%BB%E7%AB%99&src=vetmap&coordinate=gaode&callnative=1","route_id":"r1","route_name":"第1段"},{"name":"亲亲宠物诊所","address":"文庙街200-202号","phone":"13882994300","category":"医疗保健服务;动物医疗场所;宠物诊所","area":"","lng":105.028781,"lat":30.282633,"amap_id":"B0FFKO0IVK","order":9,"prev_distance_km":1.294,"cumulative_distance_km":40.391,"amap_marker_url":"https://uri.amap.com/marker?position=105.028781,30.282633&name=%E4%BA%B2%E4%BA%B2%E5%AE%A0%E7%89%A9%E8%AF%8A%E6%89%80&src=vetmap&coordinate=gaode&callnative=1","route_id":"r1","route_name":"第1段"},{"name":"乐至县石佛镇畜牧兽医站","address":"石佛中心卫生院东侧","phone":"","category":"医疗保健服务;动物医疗场所;兽医站","area":"","lng":105.112818,"lat":30.295773,"amap_id":"B0H22MII75","order":10,"prev_distance_km":8.2,"cumulative_distance_km":48.591,"amap_marker_url":"https://uri.amap.com/marker?position=105.112818,30.295773&name=%E4%B9%90%E8%87%B3%E5%8E%BF%E7%9F%B3%E4%BD%9B%E9%95%87%E7%95%9C%E7%89%A7%E5%85%BD%E5%8C%BB%E7%AB%99&src=vetmap&coordinate=gaode&callnative=1","route_id":"r1","route_name":"第1段"}]}],"rows":[{"name":"乐至县良安镇畜牧兽医站","address":"人民路44号","phone":"","category":"医疗保健服务;动物医疗场所;兽医站","area":"","lng":104.937722,"lat":30.502342,"amap_id":"B03400169A","order":1,"prev_distance_km":0.0,"cumulative_distance_km":0.0,"amap_marker_url":"https://uri.amap.com/marker?position=104.937722,30.502342&name=%E4%B9%90%E8%87%B3%E5%8E%BF%E8%89%AF%E5%AE%89%E9%95%87%E7%95%9C%E7%89%A7%E5%85%BD%E5%8C%BB%E7%AB%99&src=vetmap&coordinate=gaode&callnative=1","route_id":"r1","route_name":"第1段","global_order":1},{"name":"乐至县大佛镇畜牧兽医站","address":"友谊路南段与川西环线交叉口东北240米","phone":"","category":"医疗保健服务;动物医疗场所;兽医站","area":"","lng":104.902476,"lat":30.428466,"amap_id":"B0FFG2K34G","order":2,"prev_distance_km":8.882,"cumulative_distance_km":8.882,"amap_marker_url":"https://uri.amap.com/marker?position=104.902476,30.428466&name=%E4%B9%90%E8%87%B3%E5%8E%BF%E5%A4%A7%E4%BD%9B%E9%95%87%E7%95%9C%E7%89%A7%E5%85%BD%E5%8C%BB%E7%AB%99&src=vetmap&coordinate=gaode&callnative=1","route_id":"r1","route_name":"第1段","global_order":2},{"name":"乐至县宝林镇畜牧兽医站","address":"宝林镇人民政府南侧270米","phone":"","category":"医疗保健服务;动物医疗场所;兽医站","area":"","lng":105.036554,"lat":30.397974,"amap_id":"B0LA1H9P3Q","order":3,"prev_distance_km":13.297,"cumulative_distance_km":22.179,"amap_marker_url":"https://uri.amap.com/marker?position=105.036554,30.397974&name=%E4%B9%90%E8%87%B3%E5%8E%BF%E5%AE%9D%E6%9E%97%E9%95%87%E7%95%9C%E7%89%A7%E5%85%BD%E5%8C%BB%E7%AB%99&src=vetmap&coordinate=gaode&callnative=1","route_id":"r1","route_name":"第1段","global_order":3},{"name":"佳静动物医院","address":"乐至县迎宾大道西三巷185.187号,新档案馆对面","phone":"15883244884","category":"医疗保健服务;动物医疗场所;宠物诊所","area":"","lng":104.999665,"lat":30.289353,"amap_id":"B0K3FUF5C5","order":4,"prev_distance_km":12.586,"cumulative_distance_km":34.765,"amap_marker_url":"https://uri.amap.com/marker?position=104.999665,30.289353&name=%E4%BD%B3%E9%9D%99%E5%8A%A8%E7%89%A9%E5%8C%BB%E9%99%A2&src=vetmap&coordinate=gaode&callnative=1","route_id":"r1","route_name":"第1段","global_order":4},{"name":"王姐宠物美容院","address":"帅乡大道一段与金三街交叉口西北60米","phone":"","category":"医疗保健服务;动物医疗场所;宠物诊所","area":"","lng":105.018875,"lat":30.280875,"amap_id":"B0L0K7QF6P","order":5,"prev_distance_km":2.071,"cumulative_distance_km":36.837,"amap_marker_url":"https://uri.amap.com/marker?position=105.018875,30.280875&name=%E7%8E%8B%E5%A7%90%E5%AE%A0%E7%89%A9%E7%BE%8E%E5%AE%B9%E9%99%A2&src=vetmap&coordinate=gaode&callnative=1","route_id":"r1","route_name":"第1段","global_order":5},{"name":"狗仔屋宠物美容","address":"名景路67号","phone":"19982801972","category":"医疗保健服务;动物医疗场所;宠物诊所","area":"","lng":105.020048,"lat":30.26952,"amap_id":"B0FFKMQEZ5","order":6,"prev_distance_km":1.268,"cumulative_distance_km":38.104,"amap_marker_url":"https://uri.amap.com/marker?position=105.020048,30.269520&name=%E7%8B%97%E4%BB%94%E5%B1%8B%E5%AE%A0%E7%89%A9%E7%BE%8E%E5%AE%B9&src=vetmap&coordinate=gaode&callnative=1","route_id":"r1","route_name":"第1段","global_order":6},{"name":"仁望动物医院(乐至分院)","address":"南湖路47.49.51号","phone":"028-25055120;18708298120","category":"医疗保健服务;动物医疗场所;宠物诊所","area":"","lng":105.021907,"lat":30.269923,"amap_id":"B0K3P94CUA","order":7,"prev_distance_km":0.184,"cumulative_distance_km":38.288,"amap_marker_url":"https://uri.amap.com/marker?position=105.021907,30.269923&name=%E4%BB%81%E6%9C%9B%E5%8A%A8%E7%89%A9%E5%8C%BB%E9%99%A2%28%E4%B9%90%E8%87%B3%E5%88%86%E9%99%A2%29&src=vetmap&coordinate=gaode&callnative=1","route_id":"r1","route_name":"第1段","global_order":7},{"name":"乐至县南塔街道畜牧兽医站","address":"乐安路213号","phone":"","category":"医疗保健服务;动物医疗场所;兽医站","area":"","lng":105.030223,"lat":30.271067,"amap_id":"B0HG7GJA3A","order":8,"prev_distance_km":0.809,"cumulative_distance_km":39.097,"amap_marker_url":"https://uri.amap.com/marker?position=105.030223,30.271067&name=%E4%B9%90%E8%87%B3%E5%8E%BF%E5%8D%97%E5%A1%94%E8%A1%97%E9%81%93%E7%95%9C%E7%89%A7%E5%85%BD%E5%8C%BB%E7%AB%99&src=vetmap&coordinate=gaode&callnative=1","route_id":"r1","route_name":"第1段","global_order":8},{"name":"亲亲宠物诊所","address":"文庙街200-202号","phone":"13882994300","category":"医疗保健服务;动物医疗场所;宠物诊所","area":"","lng":105.028781,"lat":30.282633,"amap_id":"B0FFKO0IVK","order":9,"prev_distance_km":1.294,"cumulative_distance_km":40.391,"amap_marker_url":"https://uri.amap.com/marker?position=105.028781,30.282633&name=%E4%BA%B2%E4%BA%B2%E5%AE%A0%E7%89%A9%E8%AF%8A%E6%89%80&src=vetmap&coordinate=gaode&callnative=1","route_id":"r1","route_name":"第1段","global_order":9},{"name":"乐至县石佛镇畜牧兽医站","address":"石佛中心卫生院东侧","phone":"","category":"医疗保健服务;动物医疗场所;兽医站","area":"","lng":105.112818,"lat":30.295773,"amap_id":"B0H22MII75","order":10,"prev_distance_km":8.2,"cumulative_distance_km":48.591,"amap_marker_url":"https://uri.amap.com/marker?position=105.112818,30.295773&name=%E4%B9%90%E8%87%B3%E5%8E%BF%E7%9F%B3%E4%BD%9B%E9%95%87%E7%95%9C%E7%89%A7%E5%85%BD%E5%8C%BB%E7%AB%99&src=vetmap&coordinate=gaode&callnative=1","route_id":"r1","route_name":"第1段","global_order":10}]}