{"summary":{"id":"d02177","province":"宁夏回族自治区","city":"吴忠市","district":"利通区","count":12,"route_count":1,"max_route_clinics":12,"total_distance_km":25.421,"coordinate_system":"GCJ-02 / Amap","generated_at":"2026-05-07 21:27:03"},"routes":[{"id":"r1","name":"第1段","count":12,"total_distance_km":25.421,"rows":[{"name":"利通区动物检疫申报点","address":"秦汉街与工业大街(东)交叉口西400米","phone":"","category":"医疗保健服务;动物医疗场所;动物医疗场所","area":"","lng":106.121985,"lat":37.936135,"amap_id":"B03B90M4UB","order":1,"prev_distance_km":0.0,"cumulative_distance_km":0.0,"amap_marker_url":"https://uri.amap.com/marker?position=106.121985,37.936135&name=%E5%88%A9%E9%80%9A%E5%8C%BA%E5%8A%A8%E7%89%A9%E6%A3%80%E7%96%AB%E7%94%B3%E6%8A%A5%E7%82%B9&src=vetmap&coordinate=gaode&callnative=1","route_id":"r1","route_name":"第1段"},{"name":"优宠宠物诊所","address":"裕民西路541号","phone":"18995377706","category":"医疗保健服务;动物医疗场所;宠物诊所","area":"","lng":106.183705,"lat":37.987421,"amap_id":"B0FFHZU74H","order":2,"prev_distance_km":7.861,"cumulative_distance_km":7.861,"amap_marker_url":"https://uri.amap.com/marker?position=106.183705,37.987421&name=%E4%BC%98%E5%AE%A0%E5%AE%A0%E7%89%A9%E8%AF%8A%E6%89%80&src=vetmap&coordinate=gaode&callnative=1","route_id":"r1","route_name":"第1段"},{"name":"天康牧业老柴饲料店","address":"古城路211号","phone":"","category":"医疗保健服务;动物医疗场所;动物医疗场所","area":"","lng":106.195445,"lat":37.989052,"amap_id":"B0FFG9CE8M","order":3,"prev_distance_km":1.045,"cumulative_distance_km":8.906,"amap_marker_url":"https://uri.amap.com/marker?position=106.195445,37.989052&name=%E5%A4%A9%E5%BA%B7%E7%89%A7%E4%B8%9A%E8%80%81%E6%9F%B4%E9%A5%B2%E6%96%99%E5%BA%97&src=vetmap&coordinate=gaode&callnative=1","route_id":"r1","route_name":"第1段"},{"name":"敏宠动物医院","address":"利宁北街515号","phone":"15226299876","category":"医疗保健服务;动物医疗场所;宠物诊所","area":"","lng":106.19311,"lat":37.996736,"amap_id":"B0IRLMFSZA","order":4,"prev_distance_km":0.879,"cumulative_distance_km":9.785,"amap_marker_url":"https://uri.amap.com/marker?position=106.193110,37.996736&name=%E6%95%8F%E5%AE%A0%E5%8A%A8%E7%89%A9%E5%8C%BB%E9%99%A2&src=vetmap&coordinate=gaode&callnative=1","route_id":"r1","route_name":"第1段"},{"name":"宠物诊所","address":"安居路334号","phone":"13895351520","category":"医疗保健服务;动物医疗场所;宠物诊所","area":"","lng":106.19902,"lat":38.001456,"amap_id":"B0FFHP2I50","order":5,"prev_distance_km":0.737,"cumulative_distance_km":10.522,"amap_marker_url":"https://uri.amap.com/marker?position=106.199020,38.001456&name=%E5%AE%A0%E7%89%A9%E8%AF%8A%E6%89%80&src=vetmap&coordinate=gaode&callnative=1","route_id":"r1","route_name":"第1段"},{"name":"万顺宠物诊所","address":"开元大道东14号","phone":"18195327252","category":"医疗保健服务;动物医疗场所;宠物诊所","area":"","lng":106.204882,"lat":37.994456,"amap_id":"B0JUMCCMQC","order":6,"prev_distance_km":0.933,"cumulative_distance_km":11.454,"amap_marker_url":"https://uri.amap.com/marker?position=106.204882,37.994456&name=%E4%B8%87%E9%A1%BA%E5%AE%A0%E7%89%A9%E8%AF%8A%E6%89%80&src=vetmap&coordinate=gaode&callnative=1","route_id":"r1","route_name":"第1段"},{"name":"吴忠市旭鸣兽药店","address":"世纪大道北方农资农机城11号楼105号营业房","phone":"15595366688","category":"医疗保健服务;动物医疗场所;动物医疗场所","area":"","lng":106.229602,"lat":37.999957,"amap_id":"B0FFM7SPFN","order":7,"prev_distance_km":2.251,"cumulative_distance_km":13.705,"amap_marker_url":"https://uri.amap.com/marker?position=106.229602,37.999957&name=%E5%90%B4%E5%BF%A0%E5%B8%82%E6%97%AD%E9%B8%A3%E5%85%BD%E8%8D%AF%E5%BA%97&src=vetmap&coordinate=gaode&callnative=1","route_id":"r1","route_name":"第1段"},{"name":"小吴兽药店","address":"郭家桥乡郭桥乡桥头","phone":"","category":"医疗保健服务;动物医疗场所;动物医疗场所","area":"","lng":106.260131,"lat":37.985168,"amap_id":"B0GRT7GY8D","order":8,"prev_distance_km":3.14,"cumulative_distance_km":16.846,"amap_marker_url":"https://uri.amap.com/marker?position=106.260131,37.985168&name=%E5%B0%8F%E5%90%B4%E5%85%BD%E8%8D%AF%E5%BA%97&src=vetmap&coordinate=gaode&callnative=1","route_id":"r1","route_name":"第1段"},{"name":"吴忠市王小光兽医技术服务有限公司","address":"郭家桥乡政府东北侧150米","phone":"","category":"公司企业;公司企业;公司企业|医疗保健服务;动物医疗场所;动物医疗场所","area":"","lng":106.260225,"lat":37.985125,"amap_id":"B0LRA4ZSA0","order":9,"prev_distance_km":0.01,"cumulative_distance_km":16.855,"amap_marker_url":"https://uri.amap.com/marker?position=106.260225,37.985125&name=%E5%90%B4%E5%BF%A0%E5%B8%82%E7%8E%8B%E5%B0%8F%E5%85%89%E5%85%BD%E5%8C%BB%E6%8A%80%E6%9C%AF%E6%9C%8D%E5%8A%A1%E6%9C%89%E9%99%90%E5%85%AC%E5%8F%B8&src=vetmap&coordinate=gaode&callnative=1","route_id":"r1","route_name":"第1段"},{"name":"惠丰兽药店","address":"金银滩镇九公里农贸市场","phone":"","category":"医疗保健服务;动物医疗场所;动物医疗场所","area":"","lng":106.269719,"lat":37.913943,"amap_id":"B0GR5Y2KW3","order":10,"prev_distance_km":7.959,"cumulative_distance_km":24.814,"amap_marker_url":"https://uri.amap.com/marker?position=106.269719,37.913943&name=%E6%83%A0%E4%B8%B0%E5%85%BD%E8%8D%AF%E5%BA%97&src=vetmap&coordinate=gaode&callnative=1","route_id":"r1","route_name":"第1段"},{"name":"宁夏硕牧农牧天康饲料兽药","address":"金银滩镇农贸市场综合楼5号楼2号营业房","phone":"15509631230","category":"医疗保健服务;动物医疗场所;兽医站","area":"","lng":106.269634,"lat":37.913504,"amap_id":"B0K6HD6TWR","order":11,"prev_distance_km":0.049,"cumulative_distance_km":24.863,"amap_marker_url":"https://uri.amap.com/marker?position=106.269634,37.913504&name=%E5%AE%81%E5%A4%8F%E7%A1%95%E7%89%A7%E5%86%9C%E7%89%A7%E5%A4%A9%E5%BA%B7%E9%A5%B2%E6%96%99%E5%85%BD%E8%8D%AF&src=vetmap&coordinate=gaode&callnative=1","route_id":"r1","route_name":"第1段"},{"name":"海天牧业兽药店","address":"中国石化金银滩加油站西北侧160米","phone":"","category":"医疗保健服务;动物医疗场所;动物医疗场所","area":"","lng":106.273781,"lat":37.909703,"amap_id":"B0JBOZLADU","order":12,"prev_distance_km":0.558,"cumulative_distance_km":25.421,"amap_marker_url":"https://uri.amap.com/marker?position=106.273781,37.909703&name=%E6%B5%B7%E5%A4%A9%E7%89%A7%E4%B8%9A%E5%85%BD%E8%8D%AF%E5%BA%97&src=vetmap&coordinate=gaode&callnative=1","route_id":"r1","route_name":"第1段"}]}],"rows":[{"name":"利通区动物检疫申报点","address":"秦汉街与工业大街(东)交叉口西400米","phone":"","category":"医疗保健服务;动物医疗场所;动物医疗场所","area":"","lng":106.121985,"lat":37.936135,"amap_id":"B03B90M4UB","order":1,"prev_distance_km":0.0,"cumulative_distance_km":0.0,"amap_marker_url":"https://uri.amap.com/marker?position=106.121985,37.936135&name=%E5%88%A9%E9%80%9A%E5%8C%BA%E5%8A%A8%E7%89%A9%E6%A3%80%E7%96%AB%E7%94%B3%E6%8A%A5%E7%82%B9&src=vetmap&coordinate=gaode&callnative=1","route_id":"r1","route_name":"第1段","global_order":1},{"name":"优宠宠物诊所","address":"裕民西路541号","phone":"18995377706","category":"医疗保健服务;动物医疗场所;宠物诊所","area":"","lng":106.183705,"lat":37.987421,"amap_id":"B0FFHZU74H","order":2,"prev_distance_km":7.861,"cumulative_distance_km":7.861,"amap_marker_url":"https://uri.amap.com/marker?position=106.183705,37.987421&name=%E4%BC%98%E5%AE%A0%E5%AE%A0%E7%89%A9%E8%AF%8A%E6%89%80&src=vetmap&coordinate=gaode&callnative=1","route_id":"r1","route_name":"第1段","global_order":2},{"name":"天康牧业老柴饲料店","address":"古城路211号","phone":"","category":"医疗保健服务;动物医疗场所;动物医疗场所","area":"","lng":106.195445,"lat":37.989052,"amap_id":"B0FFG9CE8M","order":3,"prev_distance_km":1.045,"cumulative_distance_km":8.906,"amap_marker_url":"https://uri.amap.com/marker?position=106.195445,37.989052&name=%E5%A4%A9%E5%BA%B7%E7%89%A7%E4%B8%9A%E8%80%81%E6%9F%B4%E9%A5%B2%E6%96%99%E5%BA%97&src=vetmap&coordinate=gaode&callnative=1","route_id":"r1","route_name":"第1段","global_order":3},{"name":"敏宠动物医院","address":"利宁北街515号","phone":"15226299876","category":"医疗保健服务;动物医疗场所;宠物诊所","area":"","lng":106.19311,"lat":37.996736,"amap_id":"B0IRLMFSZA","order":4,"prev_distance_km":0.879,"cumulative_distance_km":9.785,"amap_marker_url":"https://uri.amap.com/marker?position=106.193110,37.996736&name=%E6%95%8F%E5%AE%A0%E5%8A%A8%E7%89%A9%E5%8C%BB%E9%99%A2&src=vetmap&coordinate=gaode&callnative=1","route_id":"r1","route_name":"第1段","global_order":4},{"name":"宠物诊所","address":"安居路334号","phone":"13895351520","category":"医疗保健服务;动物医疗场所;宠物诊所","area":"","lng":106.19902,"lat":38.001456,"amap_id":"B0FFHP2I50","order":5,"prev_distance_km":0.737,"cumulative_distance_km":10.522,"amap_marker_url":"https://uri.amap.com/marker?position=106.199020,38.001456&name=%E5%AE%A0%E7%89%A9%E8%AF%8A%E6%89%80&src=vetmap&coordinate=gaode&callnative=1","route_id":"r1","route_name":"第1段","global_order":5},{"name":"万顺宠物诊所","address":"开元大道东14号","phone":"18195327252","category":"医疗保健服务;动物医疗场所;宠物诊所","area":"","lng":106.204882,"lat":37.994456,"amap_id":"B0JUMCCMQC","order":6,"prev_distance_km":0.933,"cumulative_distance_km":11.454,"amap_marker_url":"https://uri.amap.com/marker?position=106.204882,37.994456&name=%E4%B8%87%E9%A1%BA%E5%AE%A0%E7%89%A9%E8%AF%8A%E6%89%80&src=vetmap&coordinate=gaode&callnative=1","route_id":"r1","route_name":"第1段","global_order":6},{"name":"吴忠市旭鸣兽药店","address":"世纪大道北方农资农机城11号楼105号营业房","phone":"15595366688","category":"医疗保健服务;动物医疗场所;动物医疗场所","area":"","lng":106.229602,"lat":37.999957,"amap_id":"B0FFM7SPFN","order":7,"prev_distance_km":2.251,"cumulative_distance_km":13.705,"amap_marker_url":"https://uri.amap.com/marker?position=106.229602,37.999957&name=%E5%90%B4%E5%BF%A0%E5%B8%82%E6%97%AD%E9%B8%A3%E5%85%BD%E8%8D%AF%E5%BA%97&src=vetmap&coordinate=gaode&callnative=1","route_id":"r1","route_name":"第1段","global_order":7},{"name":"小吴兽药店","address":"郭家桥乡郭桥乡桥头","phone":"","category":"医疗保健服务;动物医疗场所;动物医疗场所","area":"","lng":106.260131,"lat":37.985168,"amap_id":"B0GRT7GY8D","order":8,"prev_distance_km":3.14,"cumulative_distance_km":16.846,"amap_marker_url":"https://uri.amap.com/marker?position=106.260131,37.985168&name=%E5%B0%8F%E5%90%B4%E5%85%BD%E8%8D%AF%E5%BA%97&src=vetmap&coordinate=gaode&callnative=1","route_id":"r1","route_name":"第1段","global_order":8},{"name":"吴忠市王小光兽医技术服务有限公司","address":"郭家桥乡政府东北侧150米","phone":"","category":"公司企业;公司企业;公司企业|医疗保健服务;动物医疗场所;动物医疗场所","area":"","lng":106.260225,"lat":37.985125,"amap_id":"B0LRA4ZSA0","order":9,"prev_distance_km":0.01,"cumulative_distance_km":16.855,"amap_marker_url":"https://uri.amap.com/marker?position=106.260225,37.985125&name=%E5%90%B4%E5%BF%A0%E5%B8%82%E7%8E%8B%E5%B0%8F%E5%85%89%E5%85%BD%E5%8C%BB%E6%8A%80%E6%9C%AF%E6%9C%8D%E5%8A%A1%E6%9C%89%E9%99%90%E5%85%AC%E5%8F%B8&src=vetmap&coordinate=gaode&callnative=1","route_id":"r1","route_name":"第1段","global_order":9},{"name":"惠丰兽药店","address":"金银滩镇九公里农贸市场","phone":"","category":"医疗保健服务;动物医疗场所;动物医疗场所","area":"","lng":106.269719,"lat":37.913943,"amap_id":"B0GR5Y2KW3","order":10,"prev_distance_km":7.959,"cumulative_distance_km":24.814,"amap_marker_url":"https://uri.amap.com/marker?position=106.269719,37.913943&name=%E6%83%A0%E4%B8%B0%E5%85%BD%E8%8D%AF%E5%BA%97&src=vetmap&coordinate=gaode&callnative=1","route_id":"r1","route_name":"第1段","global_order":10},{"name":"宁夏硕牧农牧天康饲料兽药","address":"金银滩镇农贸市场综合楼5号楼2号营业房","phone":"15509631230","category":"医疗保健服务;动物医疗场所;兽医站","area":"","lng":106.269634,"lat":37.913504,"amap_id":"B0K6HD6TWR","order":11,"prev_distance_km":0.049,"cumulative_distance_km":24.863,"amap_marker_url":"https://uri.amap.com/marker?position=106.269634,37.913504&name=%E5%AE%81%E5%A4%8F%E7%A1%95%E7%89%A7%E5%86%9C%E7%89%A7%E5%A4%A9%E5%BA%B7%E9%A5%B2%E6%96%99%E5%85%BD%E8%8D%AF&src=vetmap&coordinate=gaode&callnative=1","route_id":"r1","route_name":"第1段","global_order":11},{"name":"海天牧业兽药店","address":"中国石化金银滩加油站西北侧160米","phone":"","category":"医疗保健服务;动物医疗场所;动物医疗场所","area":"","lng":106.273781,"lat":37.909703,"amap_id":"B0JBOZLADU","order":12,"prev_distance_km":0.558,"cumulative_distance_km":25.421,"amap_marker_url":"https://uri.amap.com/marker?position=106.273781,37.909703&name=%E6%B5%B7%E5%A4%A9%E7%89%A7%E4%B8%9A%E5%85%BD%E8%8D%AF%E5%BA%97&src=vetmap&coordinate=gaode&callnative=1","route_id":"r1","route_name":"第1段","global_order":12}]}