{"summary":{"id":"d02114","province":"四川省","city":"泸州市","district":"合江县","count":10,"total_distance_km":16.5,"coordinate_system":"GCJ-02 / Amap","generated_at":"2026-05-07 20:21:26"},"rows":[{"name":"动物检疫","address":"通江路与仁和路交叉口西北140米","phone":"","category":"医疗保健服务;动物医疗场所;动物医疗场所","area":"","lng":105.754564,"lat":28.91891,"amap_id":"B0LUSU3H1X","order":1,"prev_distance_km":0.0,"cumulative_distance_km":0.0,"amap_marker_url":"https://uri.amap.com/marker?position=105.754564,28.918910&name=%E5%8A%A8%E7%89%A9%E6%A3%80%E7%96%AB&src=vetmap&coordinate=gaode&callnative=1"},{"name":"四川三河职业学院附属动物医院","address":"荔城大道500号","phone":"","category":"医疗保健服务;动物医疗场所;宠物诊所","area":"","lng":105.80972,"lat":28.82797,"amap_id":"B0M66DB1A7","order":2,"prev_distance_km":11.45,"cumulative_distance_km":11.45,"amap_marker_url":"https://uri.amap.com/marker?position=105.809720,28.827970&name=%E5%9B%9B%E5%B7%9D%E4%B8%89%E6%B2%B3%E8%81%8C%E4%B8%9A%E5%AD%A6%E9%99%A2%E9%99%84%E5%B1%9E%E5%8A%A8%E7%89%A9%E5%8C%BB%E9%99%A2&src=vetmap&coordinate=gaode&callnative=1"},{"name":"江愈宠物诊疗中心","address":"滨江路上段366号","phone":"18715705120","category":"医疗保健服务;动物医疗场所;宠物诊所","area":"","lng":105.818312,"lat":28.828788,"amap_id":"B0MBNCT6O1","order":3,"prev_distance_km":0.842,"cumulative_distance_km":12.292,"amap_marker_url":"https://uri.amap.com/marker?position=105.818312,28.828788&name=%E6%B1%9F%E6%84%88%E5%AE%A0%E7%89%A9%E8%AF%8A%E7%96%97%E4%B8%AD%E5%BF%83&src=vetmap&coordinate=gaode&callnative=1"},{"name":"小毛孩欣旺宠物医院(合江店)","address":"菜坝东路16号","phone":"17360549109","category":"医疗保健服务;动物医疗场所;宠物诊所","area":"","lng":105.819355,"lat":28.825526,"amap_id":"B0J1SZS987","order":4,"prev_distance_km":0.377,"cumulative_distance_km":12.668,"amap_marker_url":"https://uri.amap.com/marker?position=105.819355,28.825526&name=%E5%B0%8F%E6%AF%9B%E5%AD%A9%E6%AC%A3%E6%97%BA%E5%AE%A0%E7%89%A9%E5%8C%BB%E9%99%A2%28%E5%90%88%E6%B1%9F%E5%BA%97%29&src=vetmap&coordinate=gaode&callnative=1"},{"name":"瑞恒宠物医院","address":"符阳街道滨江路上段236号(近朗域小区门口)","phone":"","category":"医疗保健服务;动物医疗场所;宠物诊所","area":"","lng":105.823875,"lat":28.825475,"amap_id":"B0LBA451H5","order":5,"prev_distance_km":0.44,"cumulative_distance_km":13.109,"amap_marker_url":"https://uri.amap.com/marker?position=105.823875,28.825475&name=%E7%91%9E%E6%81%92%E5%AE%A0%E7%89%A9%E5%8C%BB%E9%99%A2&src=vetmap&coordinate=gaode&callnative=1"},{"name":"耀阳铭宠物诊所","address":"符节路356号","phone":"","category":"医疗保健服务;动物医疗场所;宠物诊所","area":"","lng":105.8178,"lat":28.819486,"amap_id":"B0KRCCCYOL","order":6,"prev_distance_km":0.891,"cumulative_distance_km":14.0,"amap_marker_url":"https://uri.amap.com/marker?position=105.817800,28.819486&name=%E8%80%80%E9%98%B3%E9%93%AD%E5%AE%A0%E7%89%A9%E8%AF%8A%E6%89%80&src=vetmap&coordinate=gaode&callnative=1"},{"name":"卫康动物医院","address":"符节路438号","phone":"0830-5633669;18011635673","category":"医疗保健服务;动物医疗场所;宠物诊所","area":"","lng":105.818901,"lat":28.817139,"amap_id":"B0I3PCHGIE","order":7,"prev_distance_km":0.282,"cumulative_distance_km":14.282,"amap_marker_url":"https://uri.amap.com/marker?position=105.818901,28.817139&name=%E5%8D%AB%E5%BA%B7%E5%8A%A8%E7%89%A9%E5%8C%BB%E9%99%A2&src=vetmap&coordinate=gaode&callnative=1"},{"name":"恒阳动物医院","address":"滨江路中段311-313号","phone":"0830-5230989;18483515700","category":"医疗保健服务;动物医疗场所;宠物诊所","area":"","lng":105.83166,"lat":28.817166,"amap_id":"B0H0A6P6I1","order":8,"prev_distance_km":1.243,"cumulative_distance_km":15.525,"amap_marker_url":"https://uri.amap.com/marker?position=105.831660,28.817166&name=%E6%81%92%E9%98%B3%E5%8A%A8%E7%89%A9%E5%8C%BB%E9%99%A2&src=vetmap&coordinate=gaode&callnative=1"},{"name":"恒阳动物诊所","address":"滨江路中段311-312号","phone":"0830-5230989;18483515700","category":"医疗保健服务;动物医疗场所;宠物诊所","area":"","lng":105.831651,"lat":28.817153,"amap_id":"B0FFKOWRPQ","order":9,"prev_distance_km":0.002,"cumulative_distance_km":15.527,"amap_marker_url":"https://uri.amap.com/marker?position=105.831651,28.817153&name=%E6%81%92%E9%98%B3%E5%8A%A8%E7%89%A9%E8%AF%8A%E6%89%80&src=vetmap&coordinate=gaode&callnative=1"},{"name":"合江绿源动物诊所","address":"之溪街38-40号","phone":"13708284656","category":"医疗保健服务;动物医疗场所;宠物诊所","area":"","lng":105.833095,"lat":28.808491,"amap_id":"B033E0NG72","order":10,"prev_distance_km":0.973,"cumulative_distance_km":16.5,"amap_marker_url":"https://uri.amap.com/marker?position=105.833095,28.808491&name=%E5%90%88%E6%B1%9F%E7%BB%BF%E6%BA%90%E5%8A%A8%E7%89%A9%E8%AF%8A%E6%89%80&src=vetmap&coordinate=gaode&callnative=1"}]}