{"summary":{"id":"d02206","province":"新疆维吾尔自治区","city":"伊犁哈萨克自治州","district":"伊宁市","count":23,"route_count":1,"max_route_clinics":23,"total_distance_km":39.504,"coordinate_system":"GCJ-02 / Amap","generated_at":"2026-05-07 21:28:29"},"routes":[{"id":"r1","name":"第1段","count":23,"total_distance_km":39.504,"rows":[{"name":"家脉特公司畜牧兽医社会化服务中心","address":"043乡道","phone":"","category":"医疗保健服务;动物医疗场所;兽医站","area":"","lng":81.412544,"lat":43.86357,"amap_id":"B0M6PLO81Q","order":1,"prev_distance_km":0.0,"cumulative_distance_km":0.0,"amap_marker_url":"https://uri.amap.com/marker?position=81.412544,43.863570&name=%E5%AE%B6%E8%84%89%E7%89%B9%E5%85%AC%E5%8F%B8%E7%95%9C%E7%89%A7%E5%85%BD%E5%8C%BB%E7%A4%BE%E4%BC%9A%E5%8C%96%E6%9C%8D%E5%8A%A1%E4%B8%AD%E5%BF%83&src=vetmap&coordinate=gaode&callnative=1","route_id":"r1","route_name":"第1段"},{"name":"鹦龙宠物","address":"文苑街与兴业路交叉口西80米","phone":"","category":"医疗保健服务;动物医疗场所;动物医疗场所|购物服务;专卖店;宠物用品店","area":"","lng":81.363075,"lat":43.937975,"amap_id":"B0LK753R5E","order":2,"prev_distance_km":9.174,"cumulative_distance_km":9.174,"amap_marker_url":"https://uri.amap.com/marker?position=81.363075,43.937975&name=%E9%B9%A6%E9%BE%99%E5%AE%A0%E7%89%A9&src=vetmap&coordinate=gaode&callnative=1","route_id":"r1","route_name":"第1段"},{"name":"弘牧动物医院","address":"中苑新城西北门东北130米","phone":"0999-8210039","category":"医疗保健服务;动物医疗场所;兽医站|医疗保健服务;动物医疗场所;宠物诊所","area":"","lng":81.34712,"lat":43.939115,"amap_id":"B0FFGOPPC9","order":3,"prev_distance_km":1.284,"cumulative_distance_km":10.458,"amap_marker_url":"https://uri.amap.com/marker?position=81.347120,43.939115&name=%E5%BC%98%E7%89%A7%E5%8A%A8%E7%89%A9%E5%8C%BB%E9%99%A2&src=vetmap&coordinate=gaode&callnative=1","route_id":"r1","route_name":"第1段"},{"name":"诚康宠物门诊","address":"中苑新城雅静苑3号综合楼106","phone":"","category":"医疗保健服务;动物医疗场所;宠物诊所","area":"","lng":81.346012,"lat":43.937853,"amap_id":"B0H2BAJGCM","order":4,"prev_distance_km":0.166,"cumulative_distance_km":10.624,"amap_marker_url":"https://uri.amap.com/marker?position=81.346012,43.937853&name=%E8%AF%9A%E5%BA%B7%E5%AE%A0%E7%89%A9%E9%97%A8%E8%AF%8A&src=vetmap&coordinate=gaode&callnative=1","route_id":"r1","route_name":"第1段"},{"name":"莱诺动物医院有限责任公司","address":"胜利街181号州畜牧局2号楼一层1516商铺","phone":"0999-8356120;18197962910","category":"医疗保健服务;动物医疗场所;宠物诊所","area":"","lng":81.340627,"lat":43.933181,"amap_id":"B0H1L5IABU","order":5,"prev_distance_km":0.675,"cumulative_distance_km":11.299,"amap_marker_url":"https://uri.amap.com/marker?position=81.340627,43.933181&name=%E8%8E%B1%E8%AF%BA%E5%8A%A8%E7%89%A9%E5%8C%BB%E9%99%A2%E6%9C%89%E9%99%90%E8%B4%A3%E4%BB%BB%E5%85%AC%E5%8F%B8&src=vetmap&coordinate=gaode&callnative=1","route_id":"r1","route_name":"第1段"},{"name":"鑫康宁兽药经销部","address":"胜利街181号州兽医站旁","phone":"0999-8056860;13579725996","category":"医疗保健服务;动物医疗场所;兽医站","area":"","lng":81.340537,"lat":43.93321,"amap_id":"B0FFI9LA99","order":6,"prev_distance_km":0.008,"cumulative_distance_km":11.307,"amap_marker_url":"https://uri.amap.com/marker?position=81.340537,43.933210&name=%E9%91%AB%E5%BA%B7%E5%AE%81%E5%85%BD%E8%8D%AF%E7%BB%8F%E9%94%80%E9%83%A8&src=vetmap&coordinate=gaode&callnative=1","route_id":"r1","route_name":"第1段"},{"name":"伊宁市兴农大兽药","address":"胜利北路365号","phone":"13999386333","category":"医疗保健服务;动物医疗场所;动物医疗场所","area":"","lng":81.340321,"lat":43.932986,"amap_id":"B03E7002K6","order":7,"prev_distance_km":0.03,"cumulative_distance_km":11.337,"amap_marker_url":"https://uri.amap.com/marker?position=81.340321,43.932986&name=%E4%BC%8A%E5%AE%81%E5%B8%82%E5%85%B4%E5%86%9C%E5%A4%A7%E5%85%BD%E8%8D%AF&src=vetmap&coordinate=gaode&callnative=1","route_id":"r1","route_name":"第1段"},{"name":"毛孩子动物医院","address":"飞机场路5号","phone":"0999-8215554;18109993667;18997599457","category":"医疗保健服务;动物医疗场所;宠物诊所","area":"","lng":81.320274,"lat":43.924639,"amap_id":"B0LGPD7NL9","order":8,"prev_distance_km":1.854,"cumulative_distance_km":13.191,"amap_marker_url":"https://uri.amap.com/marker?position=81.320274,43.924639&name=%E6%AF%9B%E5%AD%A9%E5%AD%90%E5%8A%A8%E7%89%A9%E5%8C%BB%E9%99%A2&src=vetmap&coordinate=gaode&callnative=1","route_id":"r1","route_name":"第1段"},{"name":"爱犬宠物美容诊疗中心","address":"斯大林西路一巷与斯大林西路五巷交叉口东60米","phone":"13201124499","category":"医疗保健服务;动物医疗场所;宠物诊所","area":"","lng":81.311125,"lat":43.921998,"amap_id":"B0FFFYFSQ1","order":9,"prev_distance_km":0.789,"cumulative_distance_km":13.981,"amap_marker_url":"https://uri.amap.com/marker?position=81.311125,43.921998&name=%E7%88%B1%E7%8A%AC%E5%AE%A0%E7%89%A9%E7%BE%8E%E5%AE%B9%E8%AF%8A%E7%96%97%E4%B8%AD%E5%BF%83&src=vetmap&coordinate=gaode&callnative=1","route_id":"r1","route_name":"第1段"},{"name":"谷猫柠宠物美容店","address":"四川路江南春晓北门3号商住楼1层114号","phone":"13031360077","category":"医疗保健服务;动物医疗场所;动物医疗场所","area":"","lng":81.278804,"lat":43.930965,"amap_id":"B0MBPD1E5O","order":10,"prev_distance_km":2.774,"cumulative_distance_km":16.755,"amap_marker_url":"https://uri.amap.com/marker?position=81.278804,43.930965&name=%E8%B0%B7%E7%8C%AB%E6%9F%A0%E5%AE%A0%E7%89%A9%E7%BE%8E%E5%AE%B9%E5%BA%97&src=vetmap&coordinate=gaode&callnative=1","route_id":"r1","route_name":"第1段"},{"name":"瑞派·哈妮动物医院","address":"江南春城北1门东南220米","phone":"0999-6783693;18139203027;18999394976","category":"医疗保健服务;动物医疗场所;宠物诊所","area":"","lng":81.282691,"lat":43.933361,"amap_id":"B0FFFETLKA","order":11,"prev_distance_km":0.41,"cumulative_distance_km":17.164,"amap_marker_url":"https://uri.amap.com/marker?position=81.282691,43.933361&name=%E7%91%9E%E6%B4%BE%C2%B7%E5%93%88%E5%A6%AE%E5%8A%A8%E7%89%A9%E5%8C%BB%E9%99%A2&src=vetmap&coordinate=gaode&callnative=1","route_id":"r1","route_name":"第1段"},{"name":"首嘉宠物医院.CT检查中心","address":"吉林路天富伊城美仑酒店旁5号商业楼楼103商铺","phone":"18099993016","category":"医疗保健服务;动物医疗场所;宠物诊所","area":"","lng":81.278293,"lat":43.945618,"amap_id":"B0FFIRD894","order":12,"prev_distance_km":1.408,"cumulative_distance_km":18.572,"amap_marker_url":"https://uri.amap.com/marker?position=81.278293,43.945618&name=%E9%A6%96%E5%98%89%E5%AE%A0%E7%89%A9%E5%8C%BB%E9%99%A2.CT%E6%A3%80%E6%9F%A5%E4%B8%AD%E5%BF%83&src=vetmap&coordinate=gaode&callnative=1","route_id":"r1","route_name":"第1段"},{"name":"伊宁市永祯动物诊所","address":"达达木图镇西环北路壹品天城C","phone":"13779572720","category":"医疗保健服务;动物医疗场所;宠物诊所","area":"","lng":81.304155,"lat":43.956856,"amap_id":"B0FFIZACUG","order":13,"prev_distance_km":2.418,"cumulative_distance_km":20.99,"amap_marker_url":"https://uri.amap.com/marker?position=81.304155,43.956856&name=%E4%BC%8A%E5%AE%81%E5%B8%82%E6%B0%B8%E7%A5%AF%E5%8A%A8%E7%89%A9%E8%AF%8A%E6%89%80&src=vetmap&coordinate=gaode&callnative=1","route_id":"r1","route_name":"第1段"},{"name":"爱可家动物医院","address":"兴边路与深圳北路交叉口西北80米","phone":"","category":"医疗保健服务;动物医疗场所;宠物诊所","area":"","lng":81.2798,"lat":43.956138,"amap_id":"B0J1X6R0RU","order":14,"prev_distance_km":1.951,"cumulative_distance_km":22.941,"amap_marker_url":"https://uri.amap.com/marker?position=81.279800,43.956138&name=%E7%88%B1%E5%8F%AF%E5%AE%B6%E5%8A%A8%E7%89%A9%E5%8C%BB%E9%99%A2&src=vetmap&coordinate=gaode&callnative=1","route_id":"r1","route_name":"第1段"},{"name":"巴彦岱镇兽医站","address":"宁远路与宁远西路二十巷交叉口东南220米","phone":"","category":"医疗保健服务;动物医疗场所;兽医站","area":"","lng":81.245934,"lat":43.967056,"amap_id":"B0K1G6SY8A","order":15,"prev_distance_km":2.97,"cumulative_distance_km":25.911,"amap_marker_url":"https://uri.amap.com/marker?position=81.245934,43.967056&name=%E5%B7%B4%E5%BD%A6%E5%B2%B1%E9%95%87%E5%85%BD%E5%8C%BB%E7%AB%99&src=vetmap&coordinate=gaode&callnative=1","route_id":"r1","route_name":"第1段"},{"name":"新疆伊宁市润宠动物医院","address":"重庆路中杰新城8-110门面房","phone":"13659945165","category":"医疗保健服务;动物医疗场所;宠物诊所","area":"","lng":81.259044,"lat":43.941897,"amap_id":"B0FFJIVIXG","order":16,"prev_distance_km":2.988,"cumulative_distance_km":28.899,"amap_marker_url":"https://uri.amap.com/marker?position=81.259044,43.941897&name=%E6%96%B0%E7%96%86%E4%BC%8A%E5%AE%81%E5%B8%82%E6%B6%A6%E5%AE%A0%E5%8A%A8%E7%89%A9%E5%8C%BB%E9%99%A2&src=vetmap&coordinate=gaode&callnative=1","route_id":"r1","route_name":"第1段"},{"name":"好宠伊动物医院","address":"山东路1500号梦想家园东门临街商铺第三间","phone":"19190689995","category":"医疗保健服务;动物医疗场所;宠物诊所","area":"","lng":81.266276,"lat":43.933634,"amap_id":"B0L1UB21L7","order":17,"prev_distance_km":1.086,"cumulative_distance_km":29.985,"amap_marker_url":"https://uri.amap.com/marker?position=81.266276,43.933634&name=%E5%A5%BD%E5%AE%A0%E4%BC%8A%E5%8A%A8%E7%89%A9%E5%8C%BB%E9%99%A2&src=vetmap&coordinate=gaode&callnative=1","route_id":"r1","route_name":"第1段"},{"name":"宝憨豆动物医院","address":"福安国际南门4号楼112铺","phone":"15299021986","category":"医疗保健服务;动物医疗场所;宠物诊所","area":"","lng":81.257518,"lat":43.926899,"amap_id":"B0FFITYN89","order":18,"prev_distance_km":1.026,"cumulative_distance_km":31.012,"amap_marker_url":"https://uri.amap.com/marker?position=81.257518,43.926899&name=%E5%AE%9D%E6%86%A8%E8%B1%86%E5%8A%A8%E7%89%A9%E5%8C%BB%E9%99%A2&src=vetmap&coordinate=gaode&callnative=1","route_id":"r1","route_name":"第1段"},{"name":"派特尔动物医院","address":"河北路新华书店(家乡好超市)286号新华雅居底商","phone":"19351111120","category":"医疗保健服务;动物医疗场所;宠物诊所","area":"","lng":81.270337,"lat":43.921932,"amap_id":"B0IRXUY9FC","order":19,"prev_distance_km":1.166,"cumulative_distance_km":32.177,"amap_marker_url":"https://uri.amap.com/marker?position=81.270337,43.921932&name=%E6%B4%BE%E7%89%B9%E5%B0%94%E5%8A%A8%E7%89%A9%E5%8C%BB%E9%99%A2&src=vetmap&coordinate=gaode&callnative=1","route_id":"r1","route_name":"第1段"},{"name":"瑞派博纳宠物医院","address":"润景国际2号楼108号","phone":"0999-8888287;18009991676","category":"医疗保健服务;动物医疗场所;宠物诊所","area":"","lng":81.262875,"lat":43.912775,"amap_id":"B0FFHMH4FO","order":20,"prev_distance_km":1.181,"cumulative_distance_km":33.358,"amap_marker_url":"https://uri.amap.com/marker?position=81.262875,43.912775&name=%E7%91%9E%E6%B4%BE%E5%8D%9A%E7%BA%B3%E5%AE%A0%E7%89%A9%E5%8C%BB%E9%99%A2&src=vetmap&coordinate=gaode&callnative=1","route_id":"r1","route_name":"第1段"},{"name":"宠多福宠物医院","address":"一品墅A3-107","phone":"16699370360;18109993667","category":"医疗保健服务;动物医疗场所;宠物诊所","area":"","lng":81.256936,"lat":43.913684,"amap_id":"B0LKCD0RIN","order":21,"prev_distance_km":0.486,"cumulative_distance_km":33.844,"amap_marker_url":"https://uri.amap.com/marker?position=81.256936,43.913684&name=%E5%AE%A0%E5%A4%9A%E7%A6%8F%E5%AE%A0%E7%89%A9%E5%8C%BB%E9%99%A2&src=vetmap&coordinate=gaode&callnative=1","route_id":"r1","route_name":"第1段"},{"name":"伊宁市喵田田宠物服务中心","address":"伊水街道伊南大道十七巷东3排2号","phone":"13779582061;13779583016","category":"医疗保健服务;动物医疗场所;宠物诊所","area":"","lng":81.260065,"lat":43.871116,"amap_id":"B0L2DA82VF","order":22,"prev_distance_km":4.74,"cumulative_distance_km":38.584,"amap_marker_url":"https://uri.amap.com/marker?position=81.260065,43.871116&name=%E4%BC%8A%E5%AE%81%E5%B8%82%E5%96%B5%E7%94%B0%E7%94%B0%E5%AE%A0%E7%89%A9%E6%9C%8D%E5%8A%A1%E4%B8%AD%E5%BF%83&src=vetmap&coordinate=gaode&callnative=1","route_id":"r1","route_name":"第1段"},{"name":"牧友兽药饲料店","address":"芦草沟镇","phone":"13899705167","category":"医疗保健服务;动物医疗场所;动物医疗场所","area":"","lng":81.271508,"lat":43.870503,"amap_id":"B0FFG2JWN9","order":23,"prev_distance_km":0.92,"cumulative_distance_km":39.504,"amap_marker_url":"https://uri.amap.com/marker?position=81.271508,43.870503&name=%E7%89%A7%E5%8F%8B%E5%85%BD%E8%8D%AF%E9%A5%B2%E6%96%99%E5%BA%97&src=vetmap&coordinate=gaode&callnative=1","route_id":"r1","route_name":"第1段"}]}],"rows":[{"name":"家脉特公司畜牧兽医社会化服务中心","address":"043乡道","phone":"","category":"医疗保健服务;动物医疗场所;兽医站","area":"","lng":81.412544,"lat":43.86357,"amap_id":"B0M6PLO81Q","order":1,"prev_distance_km":0.0,"cumulative_distance_km":0.0,"amap_marker_url":"https://uri.amap.com/marker?position=81.412544,43.863570&name=%E5%AE%B6%E8%84%89%E7%89%B9%E5%85%AC%E5%8F%B8%E7%95%9C%E7%89%A7%E5%85%BD%E5%8C%BB%E7%A4%BE%E4%BC%9A%E5%8C%96%E6%9C%8D%E5%8A%A1%E4%B8%AD%E5%BF%83&src=vetmap&coordinate=gaode&callnative=1","route_id":"r1","route_name":"第1段","global_order":1},{"name":"鹦龙宠物","address":"文苑街与兴业路交叉口西80米","phone":"","category":"医疗保健服务;动物医疗场所;动物医疗场所|购物服务;专卖店;宠物用品店","area":"","lng":81.363075,"lat":43.937975,"amap_id":"B0LK753R5E","order":2,"prev_distance_km":9.174,"cumulative_distance_km":9.174,"amap_marker_url":"https://uri.amap.com/marker?position=81.363075,43.937975&name=%E9%B9%A6%E9%BE%99%E5%AE%A0%E7%89%A9&src=vetmap&coordinate=gaode&callnative=1","route_id":"r1","route_name":"第1段","global_order":2},{"name":"弘牧动物医院","address":"中苑新城西北门东北130米","phone":"0999-8210039","category":"医疗保健服务;动物医疗场所;兽医站|医疗保健服务;动物医疗场所;宠物诊所","area":"","lng":81.34712,"lat":43.939115,"amap_id":"B0FFGOPPC9","order":3,"prev_distance_km":1.284,"cumulative_distance_km":10.458,"amap_marker_url":"https://uri.amap.com/marker?position=81.347120,43.939115&name=%E5%BC%98%E7%89%A7%E5%8A%A8%E7%89%A9%E5%8C%BB%E9%99%A2&src=vetmap&coordinate=gaode&callnative=1","route_id":"r1","route_name":"第1段","global_order":3},{"name":"诚康宠物门诊","address":"中苑新城雅静苑3号综合楼106","phone":"","category":"医疗保健服务;动物医疗场所;宠物诊所","area":"","lng":81.346012,"lat":43.937853,"amap_id":"B0H2BAJGCM","order":4,"prev_distance_km":0.166,"cumulative_distance_km":10.624,"amap_marker_url":"https://uri.amap.com/marker?position=81.346012,43.937853&name=%E8%AF%9A%E5%BA%B7%E5%AE%A0%E7%89%A9%E9%97%A8%E8%AF%8A&src=vetmap&coordinate=gaode&callnative=1","route_id":"r1","route_name":"第1段","global_order":4},{"name":"莱诺动物医院有限责任公司","address":"胜利街181号州畜牧局2号楼一层1516商铺","phone":"0999-8356120;18197962910","category":"医疗保健服务;动物医疗场所;宠物诊所","area":"","lng":81.340627,"lat":43.933181,"amap_id":"B0H1L5IABU","order":5,"prev_distance_km":0.675,"cumulative_distance_km":11.299,"amap_marker_url":"https://uri.amap.com/marker?position=81.340627,43.933181&name=%E8%8E%B1%E8%AF%BA%E5%8A%A8%E7%89%A9%E5%8C%BB%E9%99%A2%E6%9C%89%E9%99%90%E8%B4%A3%E4%BB%BB%E5%85%AC%E5%8F%B8&src=vetmap&coordinate=gaode&callnative=1","route_id":"r1","route_name":"第1段","global_order":5},{"name":"鑫康宁兽药经销部","address":"胜利街181号州兽医站旁","phone":"0999-8056860;13579725996","category":"医疗保健服务;动物医疗场所;兽医站","area":"","lng":81.340537,"lat":43.93321,"amap_id":"B0FFI9LA99","order":6,"prev_distance_km":0.008,"cumulative_distance_km":11.307,"amap_marker_url":"https://uri.amap.com/marker?position=81.340537,43.933210&name=%E9%91%AB%E5%BA%B7%E5%AE%81%E5%85%BD%E8%8D%AF%E7%BB%8F%E9%94%80%E9%83%A8&src=vetmap&coordinate=gaode&callnative=1","route_id":"r1","route_name":"第1段","global_order":6},{"name":"伊宁市兴农大兽药","address":"胜利北路365号","phone":"13999386333","category":"医疗保健服务;动物医疗场所;动物医疗场所","area":"","lng":81.340321,"lat":43.932986,"amap_id":"B03E7002K6","order":7,"prev_distance_km":0.03,"cumulative_distance_km":11.337,"amap_marker_url":"https://uri.amap.com/marker?position=81.340321,43.932986&name=%E4%BC%8A%E5%AE%81%E5%B8%82%E5%85%B4%E5%86%9C%E5%A4%A7%E5%85%BD%E8%8D%AF&src=vetmap&coordinate=gaode&callnative=1","route_id":"r1","route_name":"第1段","global_order":7},{"name":"毛孩子动物医院","address":"飞机场路5号","phone":"0999-8215554;18109993667;18997599457","category":"医疗保健服务;动物医疗场所;宠物诊所","area":"","lng":81.320274,"lat":43.924639,"amap_id":"B0LGPD7NL9","order":8,"prev_distance_km":1.854,"cumulative_distance_km":13.191,"amap_marker_url":"https://uri.amap.com/marker?position=81.320274,43.924639&name=%E6%AF%9B%E5%AD%A9%E5%AD%90%E5%8A%A8%E7%89%A9%E5%8C%BB%E9%99%A2&src=vetmap&coordinate=gaode&callnative=1","route_id":"r1","route_name":"第1段","global_order":8},{"name":"爱犬宠物美容诊疗中心","address":"斯大林西路一巷与斯大林西路五巷交叉口东60米","phone":"13201124499","category":"医疗保健服务;动物医疗场所;宠物诊所","area":"","lng":81.311125,"lat":43.921998,"amap_id":"B0FFFYFSQ1","order":9,"prev_distance_km":0.789,"cumulative_distance_km":13.981,"amap_marker_url":"https://uri.amap.com/marker?position=81.311125,43.921998&name=%E7%88%B1%E7%8A%AC%E5%AE%A0%E7%89%A9%E7%BE%8E%E5%AE%B9%E8%AF%8A%E7%96%97%E4%B8%AD%E5%BF%83&src=vetmap&coordinate=gaode&callnative=1","route_id":"r1","route_name":"第1段","global_order":9},{"name":"谷猫柠宠物美容店","address":"四川路江南春晓北门3号商住楼1层114号","phone":"13031360077","category":"医疗保健服务;动物医疗场所;动物医疗场所","area":"","lng":81.278804,"lat":43.930965,"amap_id":"B0MBPD1E5O","order":10,"prev_distance_km":2.774,"cumulative_distance_km":16.755,"amap_marker_url":"https://uri.amap.com/marker?position=81.278804,43.930965&name=%E8%B0%B7%E7%8C%AB%E6%9F%A0%E5%AE%A0%E7%89%A9%E7%BE%8E%E5%AE%B9%E5%BA%97&src=vetmap&coordinate=gaode&callnative=1","route_id":"r1","route_name":"第1段","global_order":10},{"name":"瑞派·哈妮动物医院","address":"江南春城北1门东南220米","phone":"0999-6783693;18139203027;18999394976","category":"医疗保健服务;动物医疗场所;宠物诊所","area":"","lng":81.282691,"lat":43.933361,"amap_id":"B0FFFETLKA","order":11,"prev_distance_km":0.41,"cumulative_distance_km":17.164,"amap_marker_url":"https://uri.amap.com/marker?position=81.282691,43.933361&name=%E7%91%9E%E6%B4%BE%C2%B7%E5%93%88%E5%A6%AE%E5%8A%A8%E7%89%A9%E5%8C%BB%E9%99%A2&src=vetmap&coordinate=gaode&callnative=1","route_id":"r1","route_name":"第1段","global_order":11},{"name":"首嘉宠物医院.CT检查中心","address":"吉林路天富伊城美仑酒店旁5号商业楼楼103商铺","phone":"18099993016","category":"医疗保健服务;动物医疗场所;宠物诊所","area":"","lng":81.278293,"lat":43.945618,"amap_id":"B0FFIRD894","order":12,"prev_distance_km":1.408,"cumulative_distance_km":18.572,"amap_marker_url":"https://uri.amap.com/marker?position=81.278293,43.945618&name=%E9%A6%96%E5%98%89%E5%AE%A0%E7%89%A9%E5%8C%BB%E9%99%A2.CT%E6%A3%80%E6%9F%A5%E4%B8%AD%E5%BF%83&src=vetmap&coordinate=gaode&callnative=1","route_id":"r1","route_name":"第1段","global_order":12},{"name":"伊宁市永祯动物诊所","address":"达达木图镇西环北路壹品天城C","phone":"13779572720","category":"医疗保健服务;动物医疗场所;宠物诊所","area":"","lng":81.304155,"lat":43.956856,"amap_id":"B0FFIZACUG","order":13,"prev_distance_km":2.418,"cumulative_distance_km":20.99,"amap_marker_url":"https://uri.amap.com/marker?position=81.304155,43.956856&name=%E4%BC%8A%E5%AE%81%E5%B8%82%E6%B0%B8%E7%A5%AF%E5%8A%A8%E7%89%A9%E8%AF%8A%E6%89%80&src=vetmap&coordinate=gaode&callnative=1","route_id":"r1","route_name":"第1段","global_order":13},{"name":"爱可家动物医院","address":"兴边路与深圳北路交叉口西北80米","phone":"","category":"医疗保健服务;动物医疗场所;宠物诊所","area":"","lng":81.2798,"lat":43.956138,"amap_id":"B0J1X6R0RU","order":14,"prev_distance_km":1.951,"cumulative_distance_km":22.941,"amap_marker_url":"https://uri.amap.com/marker?position=81.279800,43.956138&name=%E7%88%B1%E5%8F%AF%E5%AE%B6%E5%8A%A8%E7%89%A9%E5%8C%BB%E9%99%A2&src=vetmap&coordinate=gaode&callnative=1","route_id":"r1","route_name":"第1段","global_order":14},{"name":"巴彦岱镇兽医站","address":"宁远路与宁远西路二十巷交叉口东南220米","phone":"","category":"医疗保健服务;动物医疗场所;兽医站","area":"","lng":81.245934,"lat":43.967056,"amap_id":"B0K1G6SY8A","order":15,"prev_distance_km":2.97,"cumulative_distance_km":25.911,"amap_marker_url":"https://uri.amap.com/marker?position=81.245934,43.967056&name=%E5%B7%B4%E5%BD%A6%E5%B2%B1%E9%95%87%E5%85%BD%E5%8C%BB%E7%AB%99&src=vetmap&coordinate=gaode&callnative=1","route_id":"r1","route_name":"第1段","global_order":15},{"name":"新疆伊宁市润宠动物医院","address":"重庆路中杰新城8-110门面房","phone":"13659945165","category":"医疗保健服务;动物医疗场所;宠物诊所","area":"","lng":81.259044,"lat":43.941897,"amap_id":"B0FFJIVIXG","order":16,"prev_distance_km":2.988,"cumulative_distance_km":28.899,"amap_marker_url":"https://uri.amap.com/marker?position=81.259044,43.941897&name=%E6%96%B0%E7%96%86%E4%BC%8A%E5%AE%81%E5%B8%82%E6%B6%A6%E5%AE%A0%E5%8A%A8%E7%89%A9%E5%8C%BB%E9%99%A2&src=vetmap&coordinate=gaode&callnative=1","route_id":"r1","route_name":"第1段","global_order":16},{"name":"好宠伊动物医院","address":"山东路1500号梦想家园东门临街商铺第三间","phone":"19190689995","category":"医疗保健服务;动物医疗场所;宠物诊所","area":"","lng":81.266276,"lat":43.933634,"amap_id":"B0L1UB21L7","order":17,"prev_distance_km":1.086,"cumulative_distance_km":29.985,"amap_marker_url":"https://uri.amap.com/marker?position=81.266276,43.933634&name=%E5%A5%BD%E5%AE%A0%E4%BC%8A%E5%8A%A8%E7%89%A9%E5%8C%BB%E9%99%A2&src=vetmap&coordinate=gaode&callnative=1","route_id":"r1","route_name":"第1段","global_order":17},{"name":"宝憨豆动物医院","address":"福安国际南门4号楼112铺","phone":"15299021986","category":"医疗保健服务;动物医疗场所;宠物诊所","area":"","lng":81.257518,"lat":43.926899,"amap_id":"B0FFITYN89","order":18,"prev_distance_km":1.026,"cumulative_distance_km":31.012,"amap_marker_url":"https://uri.amap.com/marker?position=81.257518,43.926899&name=%E5%AE%9D%E6%86%A8%E8%B1%86%E5%8A%A8%E7%89%A9%E5%8C%BB%E9%99%A2&src=vetmap&coordinate=gaode&callnative=1","route_id":"r1","route_name":"第1段","global_order":18},{"name":"派特尔动物医院","address":"河北路新华书店(家乡好超市)286号新华雅居底商","phone":"19351111120","category":"医疗保健服务;动物医疗场所;宠物诊所","area":"","lng":81.270337,"lat":43.921932,"amap_id":"B0IRXUY9FC","order":19,"prev_distance_km":1.166,"cumulative_distance_km":32.177,"amap_marker_url":"https://uri.amap.com/marker?position=81.270337,43.921932&name=%E6%B4%BE%E7%89%B9%E5%B0%94%E5%8A%A8%E7%89%A9%E5%8C%BB%E9%99%A2&src=vetmap&coordinate=gaode&callnative=1","route_id":"r1","route_name":"第1段","global_order":19},{"name":"瑞派博纳宠物医院","address":"润景国际2号楼108号","phone":"0999-8888287;18009991676","category":"医疗保健服务;动物医疗场所;宠物诊所","area":"","lng":81.262875,"lat":43.912775,"amap_id":"B0FFHMH4FO","order":20,"prev_distance_km":1.181,"cumulative_distance_km":33.358,"amap_marker_url":"https://uri.amap.com/marker?position=81.262875,43.912775&name=%E7%91%9E%E6%B4%BE%E5%8D%9A%E7%BA%B3%E5%AE%A0%E7%89%A9%E5%8C%BB%E9%99%A2&src=vetmap&coordinate=gaode&callnative=1","route_id":"r1","route_name":"第1段","global_order":20},{"name":"宠多福宠物医院","address":"一品墅A3-107","phone":"16699370360;18109993667","category":"医疗保健服务;动物医疗场所;宠物诊所","area":"","lng":81.256936,"lat":43.913684,"amap_id":"B0LKCD0RIN","order":21,"prev_distance_km":0.486,"cumulative_distance_km":33.844,"amap_marker_url":"https://uri.amap.com/marker?position=81.256936,43.913684&name=%E5%AE%A0%E5%A4%9A%E7%A6%8F%E5%AE%A0%E7%89%A9%E5%8C%BB%E9%99%A2&src=vetmap&coordinate=gaode&callnative=1","route_id":"r1","route_name":"第1段","global_order":21},{"name":"伊宁市喵田田宠物服务中心","address":"伊水街道伊南大道十七巷东3排2号","phone":"13779582061;13779583016","category":"医疗保健服务;动物医疗场所;宠物诊所","area":"","lng":81.260065,"lat":43.871116,"amap_id":"B0L2DA82VF","order":22,"prev_distance_km":4.74,"cumulative_distance_km":38.584,"amap_marker_url":"https://uri.amap.com/marker?position=81.260065,43.871116&name=%E4%BC%8A%E5%AE%81%E5%B8%82%E5%96%B5%E7%94%B0%E7%94%B0%E5%AE%A0%E7%89%A9%E6%9C%8D%E5%8A%A1%E4%B8%AD%E5%BF%83&src=vetmap&coordinate=gaode&callnative=1","route_id":"r1","route_name":"第1段","global_order":22},{"name":"牧友兽药饲料店","address":"芦草沟镇","phone":"13899705167","category":"医疗保健服务;动物医疗场所;动物医疗场所","area":"","lng":81.271508,"lat":43.870503,"amap_id":"B0FFG2JWN9","order":23,"prev_distance_km":0.92,"cumulative_distance_km":39.504,"amap_marker_url":"https://uri.amap.com/marker?position=81.271508,43.870503&name=%E7%89%A7%E5%8F%8B%E5%85%BD%E8%8D%AF%E9%A5%B2%E6%96%99%E5%BA%97&src=vetmap&coordinate=gaode&callnative=1","route_id":"r1","route_name":"第1段","global_order":23}]}