{"summary":{"id":"d02246","province":"新疆维吾尔自治区","city":"塔城地区","district":"乌苏市","count":5,"total_distance_km":112.393,"coordinate_system":"GCJ-02 / Amap","generated_at":"2026-05-07 20:22:24"},"rows":[{"name":"乌苏高泉乌云兽药店","address":"医南段与西高段交叉口南240米","phone":"","category":"医疗保健服务;动物医疗场所;动物医疗场所","area":"","lng":84.113297,"lat":44.381187,"amap_id":"B0J1LSKKEU","order":1,"prev_distance_km":0.0,"cumulative_distance_km":0.0,"amap_marker_url":"https://uri.amap.com/marker?position=84.113297,44.381187&name=%E4%B9%8C%E8%8B%8F%E9%AB%98%E6%B3%89%E4%B9%8C%E4%BA%91%E5%85%BD%E8%8D%AF%E5%BA%97&src=vetmap&coordinate=gaode&callnative=1"},{"name":"茉芮家宠物自助洗护","address":"新市区街道文德路社区黄河东路文林小区26号楼1-645号(北门西侧)","phone":"","category":"医疗保健服务;动物医疗场所;动物医疗场所","area":"","lng":84.711317,"lat":44.417142,"amap_id":"B0L3CUK116","order":2,"prev_distance_km":47.679,"cumulative_distance_km":47.679,"amap_marker_url":"https://uri.amap.com/marker?position=84.711317,44.417142&name=%E8%8C%89%E8%8A%AE%E5%AE%B6%E5%AE%A0%E7%89%A9%E8%87%AA%E5%8A%A9%E6%B4%97%E6%8A%A4&src=vetmap&coordinate=gaode&callnative=1"},{"name":"LISM狗主猫仆动物门诊","address":"新市区街道文景路社区中山路282号观景台小区103铺","phone":"19990686456","category":"医疗保健服务;动物医疗场所;宠物诊所","area":"","lng":84.723645,"lat":44.421987,"amap_id":"B0JDYM0AFK","order":3,"prev_distance_km":1.118,"cumulative_distance_km":48.796,"amap_marker_url":"https://uri.amap.com/marker?position=84.723645,44.421987&name=LISM%E7%8B%97%E4%B8%BB%E7%8C%AB%E4%BB%86%E5%8A%A8%E7%89%A9%E9%97%A8%E8%AF%8A&src=vetmap&coordinate=gaode&callnative=1"},{"name":"小苏动物诊所","address":"曙光里1期西侧210米","phone":"","category":"医疗保健服务;动物医疗场所;宠物诊所","area":"","lng":84.501319,"lat":44.967494,"amap_id":"B0J1MDVEDL","order":4,"prev_distance_km":63.152,"cumulative_distance_km":111.948,"amap_marker_url":"https://uri.amap.com/marker?position=84.501319,44.967494&name=%E5%B0%8F%E8%8B%8F%E5%8A%A8%E7%89%A9%E8%AF%8A%E6%89%80&src=vetmap&coordinate=gaode&callnative=1"},{"name":"润牧丰兽药店","address":"青北公路与南环东路交叉口南100米","phone":"17690593721;18999722555","category":"医疗保健服务;动物医疗场所;动物医疗场所","area":"","lng":84.501029,"lat":44.971487,"amap_id":"B0KBYZD2Y4","order":5,"prev_distance_km":0.445,"cumulative_distance_km":112.393,"amap_marker_url":"https://uri.amap.com/marker?position=84.501029,44.971487&name=%E6%B6%A6%E7%89%A7%E4%B8%B0%E5%85%BD%E8%8D%AF%E5%BA%97&src=vetmap&coordinate=gaode&callnative=1"}]}