{"summary":{"id":"d02265","province":"新疆维吾尔自治区","city":"石河子市","district":"石河子市","count":23,"total_distance_km":27.474,"coordinate_system":"GCJ-02 / Amap","generated_at":"2026-05-07 20:22:24"},"rows":[{"name":"第八师石河子市畜牧兽医工作站","address":"科学路61号","phone":"0993-2014867;0993-2098817","category":"医疗保健服务;动物医疗场所;兽医站","area":"","lng":86.111249,"lat":44.248767,"amap_id":"B0GU3AHZ8H","order":1,"prev_distance_km":0.0,"cumulative_distance_km":0.0,"amap_marker_url":"https://uri.amap.com/marker?position=86.111249,44.248767&name=%E7%AC%AC%E5%85%AB%E5%B8%88%E7%9F%B3%E6%B2%B3%E5%AD%90%E5%B8%82%E7%95%9C%E7%89%A7%E5%85%BD%E5%8C%BB%E5%B7%A5%E4%BD%9C%E7%AB%99&src=vetmap&coordinate=gaode&callnative=1"},{"name":"普爱动物诊所","address":"北一路42小区74栋","phone":"0993-2822203;18999321432","category":"医疗保健服务;动物医疗场所;宠物诊所","area":"","lng":86.070852,"lat":44.292688,"amap_id":"B0FFH63FN3","order":2,"prev_distance_km":5.848,"cumulative_distance_km":5.848,"amap_marker_url":"https://uri.amap.com/marker?position=86.070852,44.292688&name=%E6%99%AE%E7%88%B1%E5%8A%A8%E7%89%A9%E8%AF%8A%E6%89%80&src=vetmap&coordinate=gaode&callnative=1"},{"name":"宠乐福动物医院","address":"北二东三路口(北新佳境南门向西20米)","phone":"15886938041","category":"医疗保健服务;动物医疗场所;宠物诊所","area":"","lng":86.066174,"lat":44.29715,"amap_id":"B0FFG8YAX2","order":3,"prev_distance_km":0.62,"cumulative_distance_km":6.468,"amap_marker_url":"https://uri.amap.com/marker?position=86.066174,44.297150&name=%E5%AE%A0%E4%B9%90%E7%A6%8F%E5%8A%A8%E7%89%A9%E5%8C%BB%E9%99%A2&src=vetmap&coordinate=gaode&callnative=1"},{"name":"京嘟嘟动物诊所(石河子总店)","address":"北二路东方花园东南角165-1号","phone":"18009933510","category":"医疗保健服务;动物医疗场所;宠物诊所","area":"","lng":86.077774,"lat":44.297063,"amap_id":"B0FFFWP4EM","order":4,"prev_distance_km":0.923,"cumulative_distance_km":7.391,"amap_marker_url":"https://uri.amap.com/marker?position=86.077774,44.297063&name=%E4%BA%AC%E5%98%9F%E5%98%9F%E5%8A%A8%E7%89%A9%E8%AF%8A%E6%89%80%28%E7%9F%B3%E6%B2%B3%E5%AD%90%E6%80%BB%E5%BA%97%29&src=vetmap&coordinate=gaode&callnative=1"},{"name":"康德动物诊所(北二路店)","address":"石河子市开发区东方花园东门167-15","phone":"0993-2613220;15809935330","category":"医疗保健服务;动物医疗场所;宠物诊所","area":"","lng":86.077628,"lat":44.298144,"amap_id":"B0FFG9FGZ6","order":5,"prev_distance_km":0.121,"cumulative_distance_km":7.512,"amap_marker_url":"https://uri.amap.com/marker?position=86.077628,44.298144&name=%E5%BA%B7%E5%BE%B7%E5%8A%A8%E7%89%A9%E8%AF%8A%E6%89%80%28%E5%8C%97%E4%BA%8C%E8%B7%AF%E5%BA%97%29&src=vetmap&coordinate=gaode&callnative=1"},{"name":"顽皮伴侣动物医院(东五路店)","address":"东五路58号天富玉城48-2号","phone":"0993-2658682;13031324044","category":"医疗保健服务;动物医疗场所;宠物诊所","area":"","lng":86.085918,"lat":44.299736,"amap_id":"B0FFIPL9CN","order":6,"prev_distance_km":0.683,"cumulative_distance_km":8.195,"amap_marker_url":"https://uri.amap.com/marker?position=86.085918,44.299736&name=%E9%A1%BD%E7%9A%AE%E4%BC%B4%E4%BE%A3%E5%8A%A8%E7%89%A9%E5%8C%BB%E9%99%A2%28%E4%B8%9C%E4%BA%94%E8%B7%AF%E5%BA%97%29&src=vetmap&coordinate=gaode&callnative=1"},{"name":"新新添宠动物医院","address":"东城街道东五路步行街建材城28-6号","phone":"0993-2662288;18139266586","category":"医疗保健服务;动物医疗场所;宠物诊所","area":"","lng":86.086059,"lat":44.302765,"amap_id":"B0FFGWRKW4","order":7,"prev_distance_km":0.337,"cumulative_distance_km":8.532,"amap_marker_url":"https://uri.amap.com/marker?position=86.086059,44.302765&name=%E6%96%B0%E6%96%B0%E6%B7%BB%E5%AE%A0%E5%8A%A8%E7%89%A9%E5%8C%BB%E9%99%A2&src=vetmap&coordinate=gaode&callnative=1"},{"name":"慧宠宠物中心(天业雅园2区店)","address":"北四东路天业雅园一期门面6-4号","phone":"18799740152","category":"医疗保健服务;动物医疗场所;动物医疗场所","area":"","lng":86.088977,"lat":44.304781,"amap_id":"B0FFHMU8MK","order":8,"prev_distance_km":0.323,"cumulative_distance_km":8.855,"amap_marker_url":"https://uri.amap.com/marker?position=86.088977,44.304781&name=%E6%85%A7%E5%AE%A0%E5%AE%A0%E7%89%A9%E4%B8%AD%E5%BF%83%28%E5%A4%A9%E4%B8%9A%E9%9B%85%E5%9B%AD2%E5%8C%BA%E5%BA%97%29&src=vetmap&coordinate=gaode&callnative=1"},{"name":"壹品·宠客动物医院","address":"东五路附近","phone":"0993-2023467;13519927882","category":"医疗保健服务;动物医疗场所;宠物诊所","area":"","lng":86.085064,"lat":44.307609,"amap_id":"B0FFHS2A7O","order":9,"prev_distance_km":0.443,"cumulative_distance_km":9.298,"amap_marker_url":"https://uri.amap.com/marker?position=86.085064,44.307609&name=%E5%A3%B9%E5%93%81%C2%B7%E5%AE%A0%E5%AE%A2%E5%8A%A8%E7%89%A9%E5%8C%BB%E9%99%A2&src=vetmap&coordinate=gaode&callnative=1"},{"name":"顽皮宠物美容","address":"东城街道东五路13-6","phone":"13677543360","category":"医疗保健服务;动物医疗场所;动物医疗场所","area":"","lng":86.085123,"lat":44.308615,"amap_id":"B0FFHKKCHR","order":10,"prev_distance_km":0.112,"cumulative_distance_km":9.409,"amap_marker_url":"https://uri.amap.com/marker?position=86.085123,44.308615&name=%E9%A1%BD%E7%9A%AE%E5%AE%A0%E7%89%A9%E7%BE%8E%E5%AE%B9&src=vetmap&coordinate=gaode&callnative=1"},{"name":"春枫动物医院","address":"39小区伯爵庄园南门247-18号","phone":"","category":"医疗保健服务;动物医疗场所;宠物诊所","area":"","lng":86.06914,"lat":44.307011,"amap_id":"B0KKKYQGES","order":11,"prev_distance_km":1.284,"cumulative_distance_km":10.694,"amap_marker_url":"https://uri.amap.com/marker?position=86.069140,44.307011&name=%E6%98%A5%E6%9E%AB%E5%8A%A8%E7%89%A9%E5%8C%BB%E9%99%A2&src=vetmap&coordinate=gaode&callnative=1"},{"name":"石河子大学教学动物医院","address":"北五路165号","phone":"13239935543","category":"医疗保健服务;动物医疗场所;兽医站","area":"","lng":86.057675,"lat":44.313325,"amap_id":"B0LDL9TAGO","order":12,"prev_distance_km":1.151,"cumulative_distance_km":11.845,"amap_marker_url":"https://uri.amap.com/marker?position=86.057675,44.313325&name=%E7%9F%B3%E6%B2%B3%E5%AD%90%E5%A4%A7%E5%AD%A6%E6%95%99%E5%AD%A6%E5%8A%A8%E7%89%A9%E5%8C%BB%E9%99%A2&src=vetmap&coordinate=gaode&callnative=1"},{"name":"爱乐宠动物诊所","address":"北泉镇军垦路300-10","phone":"17767455886;19999485669","category":"医疗保健服务;动物医疗场所;宠物诊所","area":"","lng":86.036989,"lat":44.328293,"amap_id":"B0FFLBSFNG","order":13,"prev_distance_km":2.341,"cumulative_distance_km":14.185,"amap_marker_url":"https://uri.amap.com/marker?position=86.036989,44.328293&name=%E7%88%B1%E4%B9%90%E5%AE%A0%E5%8A%A8%E7%89%A9%E8%AF%8A%E6%89%80&src=vetmap&coordinate=gaode&callnative=1"},{"name":"康德动物医院","address":"世纪华庭东门405栋5号","phone":"15809935330;19809933338","category":"医疗保健服务;动物医疗场所;宠物诊所","area":"","lng":86.02936,"lat":44.327033,"amap_id":"B0K0DADYJF","order":14,"prev_distance_km":0.623,"cumulative_distance_km":14.808,"amap_marker_url":"https://uri.amap.com/marker?position=86.029360,44.327033&name=%E5%BA%B7%E5%BE%B7%E5%8A%A8%E7%89%A9%E5%8C%BB%E9%99%A2&src=vetmap&coordinate=gaode&callnative=1"},{"name":"宠爱动物诊所","address":"西小路8-1号","phone":"13031324044","category":"医疗保健服务;动物医疗场所;宠物诊所","area":"","lng":86.033365,"lat":44.315793,"amap_id":"B0FFH3VVMP","order":15,"prev_distance_km":1.29,"cumulative_distance_km":16.098,"amap_marker_url":"https://uri.amap.com/marker?position=86.033365,44.315793&name=%E5%AE%A0%E7%88%B1%E5%8A%A8%E7%89%A9%E8%AF%8A%E6%89%80&src=vetmap&coordinate=gaode&callnative=1"},{"name":"兽医站","address":"西小路与泰康路交叉口南100米","phone":"","category":"医疗保健服务;动物医疗场所;兽医站","area":"","lng":86.033077,"lat":44.314725,"amap_id":"B0M67AX9LK","order":16,"prev_distance_km":0.121,"cumulative_distance_km":16.219,"amap_marker_url":"https://uri.amap.com/marker?position=86.033077,44.314725&name=%E5%85%BD%E5%8C%BB%E7%AB%99&src=vetmap&coordinate=gaode&callnative=1"},{"name":"燕宠宠物美容馆","address":"红星路与西一路交叉口西200米","phone":"15700988999","category":"医疗保健服务;动物医疗场所;动物医疗场所","area":"","lng":86.025637,"lat":44.304834,"amap_id":"B0JG17EAPP","order":17,"prev_distance_km":1.249,"cumulative_distance_km":17.468,"amap_marker_url":"https://uri.amap.com/marker?position=86.025637,44.304834&name=%E7%87%95%E5%AE%A0%E5%AE%A0%E7%89%A9%E7%BE%8E%E5%AE%B9%E9%A6%86&src=vetmap&coordinate=gaode&callnative=1"},{"name":"旺佳动物诊所(二十三小区店)","address":"东一路63-7号附2号","phone":"0993-2038120;13999335332","category":"医疗保健服务;动物医疗场所;宠物诊所","area":"","lng":86.051367,"lat":44.304296,"amap_id":"B03E1002D1","order":18,"prev_distance_km":2.048,"cumulative_distance_km":19.516,"amap_marker_url":"https://uri.amap.com/marker?position=86.051367,44.304296&name=%E6%97%BA%E4%BD%B3%E5%8A%A8%E7%89%A9%E8%AF%8A%E6%89%80%28%E4%BA%8C%E5%8D%81%E4%B8%89%E5%B0%8F%E5%8C%BA%E5%BA%97%29&src=vetmap&coordinate=gaode&callnative=1"},{"name":"联和动物诊所","address":"西面东环路28-2号24小区西门旁","phone":"0993-2099120;15276482332","category":"医疗保健服务;动物医疗场所;宠物诊所","area":"","lng":86.044525,"lat":44.300275,"amap_id":"B0FFMD6124","order":19,"prev_distance_km":0.705,"cumulative_distance_km":20.221,"amap_marker_url":"https://uri.amap.com/marker?position=86.044525,44.300275&name=%E8%81%94%E5%92%8C%E5%8A%A8%E7%89%A9%E8%AF%8A%E6%89%80&src=vetmap&coordinate=gaode&callnative=1"},{"name":"汇康动物诊所","address":"石河子市25小区西门(客管处斜对面)","phone":"13519939903","category":"医疗保健服务;动物医疗场所;宠物诊所","area":"","lng":86.044467,"lat":44.295145,"amap_id":"B0FFKTJVJI","order":20,"prev_distance_km":0.57,"cumulative_distance_km":20.791,"amap_marker_url":"https://uri.amap.com/marker?position=86.044467,44.295145&name=%E6%B1%87%E5%BA%B7%E5%8A%A8%E7%89%A9%E8%AF%8A%E6%89%80&src=vetmap&coordinate=gaode&callnative=1"},{"name":"顽皮宠物医院(东一路店)","address":"东一路125-3-5号","phone":"0993-2859379;13031324044","category":"医疗保健服务;动物医疗场所;宠物诊所","area":"","lng":86.051332,"lat":44.293254,"amap_id":"B0FFF6A7AH","order":21,"prev_distance_km":0.585,"cumulative_distance_km":21.377,"amap_marker_url":"https://uri.amap.com/marker?position=86.051332,44.293254&name=%E9%A1%BD%E7%9A%AE%E5%AE%A0%E7%89%A9%E5%8C%BB%E9%99%A2%28%E4%B8%9C%E4%B8%80%E8%B7%AF%E5%BA%97%29&src=vetmap&coordinate=gaode&callnative=1"},{"name":"瑞禧宠乐福宠物医院中心","address":"东一路163号","phone":"19109932919","category":"医疗保健服务;动物医疗场所;宠物诊所","area":"","lng":86.051264,"lat":44.284612,"amap_id":"B0LGB103WB","order":22,"prev_distance_km":0.961,"cumulative_distance_km":22.338,"amap_marker_url":"https://uri.amap.com/marker?position=86.051264,44.284612&name=%E7%91%9E%E7%A6%A7%E5%AE%A0%E4%B9%90%E7%A6%8F%E5%AE%A0%E7%89%A9%E5%8C%BB%E9%99%A2%E4%B8%AD%E5%BF%83&src=vetmap&coordinate=gaode&callnative=1"},{"name":"普爱宠康动物医院","address":"城南嘉苑62栋13号","phone":"0993-2811622;18999321432","category":"医疗保健服务;动物医疗场所;宠物诊所","area":"","lng":86.02541,"lat":44.242298,"amap_id":"B0JKNHI9ON","order":23,"prev_distance_km":5.136,"cumulative_distance_km":27.474,"amap_marker_url":"https://uri.amap.com/marker?position=86.025410,44.242298&name=%E6%99%AE%E7%88%B1%E5%AE%A0%E5%BA%B7%E5%8A%A8%E7%89%A9%E5%8C%BB%E9%99%A2&src=vetmap&coordinate=gaode&callnative=1"}]}