{"summary":{"id":"d02289","province":"海南省","city":"定安县","district":"定安县","count":5,"route_count":1,"max_route_clinics":5,"total_distance_km":39.919,"coordinate_system":"GCJ-02 / Amap","generated_at":"2026-05-07 21:30:11"},"routes":[{"id":"r1","name":"第1段","count":5,"total_distance_km":39.919,"rows":[{"name":"亚华兽药店","address":"龙门镇定南街362号","phone":"15203619228","category":"医疗保健服务;动物医疗场所;动物医疗场所","area":"","lng":110.328311,"lat":19.43766,"amap_id":"B0IB57BSPY","order":1,"prev_distance_km":0.0,"cumulative_distance_km":0.0,"amap_marker_url":"https://uri.amap.com/marker?position=110.328311,19.437660&name=%E4%BA%9A%E5%8D%8E%E5%85%BD%E8%8D%AF%E5%BA%97&src=vetmap&coordinate=gaode&callnative=1","route_id":"r1","route_name":"第1段"},{"name":"康益兽药店","address":"龙门镇龙富路38号","phone":"13368982995","category":"医疗保健服务;动物医疗场所;动物医疗场所","area":"","lng":110.327246,"lat":19.444183,"amap_id":"B0L6LDC829","order":2,"prev_distance_km":0.734,"cumulative_distance_km":0.734,"amap_marker_url":"https://uri.amap.com/marker?position=110.327246,19.444183&name=%E5%BA%B7%E7%9B%8A%E5%85%BD%E8%8D%AF%E5%BA%97&src=vetmap&coordinate=gaode&callnative=1","route_id":"r1","route_name":"第1段"},{"name":"进能兽药店","address":"黄竹镇农兴农贸巿场北门对面","phone":"","category":"医疗保健服务;动物医疗场所;动物医疗场所","area":"","lng":110.447724,"lat":19.473833,"amap_id":"B0JUMSA528","order":3,"prev_distance_km":13.055,"cumulative_distance_km":13.788,"amap_marker_url":"https://uri.amap.com/marker?position=110.447724,19.473833&name=%E8%BF%9B%E8%83%BD%E5%85%BD%E8%8D%AF%E5%BA%97&src=vetmap&coordinate=gaode&callnative=1","route_id":"r1","route_name":"第1段"},{"name":"陈开东兽药店","address":"214省道与027乡道交叉口北160米","phone":"","category":"医疗保健服务;动物医疗场所;动物医疗场所","area":"","lng":110.3451,"lat":19.620383,"amap_id":"B0M6CHTZ5E","order":4,"prev_distance_km":19.524,"cumulative_distance_km":33.312,"amap_marker_url":"https://uri.amap.com/marker?position=110.345100,19.620383&name=%E9%99%88%E5%BC%80%E4%B8%9C%E5%85%BD%E8%8D%AF%E5%BA%97&src=vetmap&coordinate=gaode&callnative=1","route_id":"r1","route_name":"第1段"},{"name":"定安得宠动物诊疗中心","address":"定城镇塔岭椰风水韵1号楼12 3号铺面","phone":"15248985678","category":"医疗保健服务;动物医疗场所;宠物诊所","area":"","lng":110.341568,"lat":19.679706,"amap_id":"B0I2T7XRD4","order":5,"prev_distance_km":6.607,"cumulative_distance_km":39.919,"amap_marker_url":"https://uri.amap.com/marker?position=110.341568,19.679706&name=%E5%AE%9A%E5%AE%89%E5%BE%97%E5%AE%A0%E5%8A%A8%E7%89%A9%E8%AF%8A%E7%96%97%E4%B8%AD%E5%BF%83&src=vetmap&coordinate=gaode&callnative=1","route_id":"r1","route_name":"第1段"}]}],"rows":[{"name":"亚华兽药店","address":"龙门镇定南街362号","phone":"15203619228","category":"医疗保健服务;动物医疗场所;动物医疗场所","area":"","lng":110.328311,"lat":19.43766,"amap_id":"B0IB57BSPY","order":1,"prev_distance_km":0.0,"cumulative_distance_km":0.0,"amap_marker_url":"https://uri.amap.com/marker?position=110.328311,19.437660&name=%E4%BA%9A%E5%8D%8E%E5%85%BD%E8%8D%AF%E5%BA%97&src=vetmap&coordinate=gaode&callnative=1","route_id":"r1","route_name":"第1段","global_order":1},{"name":"康益兽药店","address":"龙门镇龙富路38号","phone":"13368982995","category":"医疗保健服务;动物医疗场所;动物医疗场所","area":"","lng":110.327246,"lat":19.444183,"amap_id":"B0L6LDC829","order":2,"prev_distance_km":0.734,"cumulative_distance_km":0.734,"amap_marker_url":"https://uri.amap.com/marker?position=110.327246,19.444183&name=%E5%BA%B7%E7%9B%8A%E5%85%BD%E8%8D%AF%E5%BA%97&src=vetmap&coordinate=gaode&callnative=1","route_id":"r1","route_name":"第1段","global_order":2},{"name":"进能兽药店","address":"黄竹镇农兴农贸巿场北门对面","phone":"","category":"医疗保健服务;动物医疗场所;动物医疗场所","area":"","lng":110.447724,"lat":19.473833,"amap_id":"B0JUMSA528","order":3,"prev_distance_km":13.055,"cumulative_distance_km":13.788,"amap_marker_url":"https://uri.amap.com/marker?position=110.447724,19.473833&name=%E8%BF%9B%E8%83%BD%E5%85%BD%E8%8D%AF%E5%BA%97&src=vetmap&coordinate=gaode&callnative=1","route_id":"r1","route_name":"第1段","global_order":3},{"name":"陈开东兽药店","address":"214省道与027乡道交叉口北160米","phone":"","category":"医疗保健服务;动物医疗场所;动物医疗场所","area":"","lng":110.3451,"lat":19.620383,"amap_id":"B0M6CHTZ5E","order":4,"prev_distance_km":19.524,"cumulative_distance_km":33.312,"amap_marker_url":"https://uri.amap.com/marker?position=110.345100,19.620383&name=%E9%99%88%E5%BC%80%E4%B8%9C%E5%85%BD%E8%8D%AF%E5%BA%97&src=vetmap&coordinate=gaode&callnative=1","route_id":"r1","route_name":"第1段","global_order":4},{"name":"定安得宠动物诊疗中心","address":"定城镇塔岭椰风水韵1号楼12 3号铺面","phone":"15248985678","category":"医疗保健服务;动物医疗场所;宠物诊所","area":"","lng":110.341568,"lat":19.679706,"amap_id":"B0I2T7XRD4","order":5,"prev_distance_km":6.607,"cumulative_distance_km":39.919,"amap_marker_url":"https://uri.amap.com/marker?position=110.341568,19.679706&name=%E5%AE%9A%E5%AE%89%E5%BE%97%E5%AE%A0%E5%8A%A8%E7%89%A9%E8%AF%8A%E7%96%97%E4%B8%AD%E5%BF%83&src=vetmap&coordinate=gaode&callnative=1","route_id":"r1","route_name":"第1段","global_order":5}]}