{"summary":{"id":"d02394","province":"贵州省","city":"六盘水市","district":"钟山区","count":14,"route_count":1,"max_route_clinics":14,"total_distance_km":58.819,"coordinate_system":"GCJ-02 / Amap","generated_at":"2026-05-07 21:30:35"},"routes":[{"id":"r1","name":"第1段","count":14,"total_distance_km":58.819,"rows":[{"name":"多格宠物诊所","address":"德坞秀山路职院安置小区门面113号","phone":"15286669699","category":"医疗保健服务;动物医疗场所;宠物诊所","area":"","lng":104.799399,"lat":26.609901,"amap_id":"B0G0FS929W","order":1,"prev_distance_km":0.0,"cumulative_distance_km":0.0,"amap_marker_url":"https://uri.amap.com/marker?position=104.799399,26.609901&name=%E5%A4%9A%E6%A0%BC%E5%AE%A0%E7%89%A9%E8%AF%8A%E6%89%80&src=vetmap&coordinate=gaode&callnative=1","route_id":"r1","route_name":"第1段"},{"name":"久牧兽药店","address":"水矿德馨园西南门东南80米","phone":"","category":"医疗保健服务;动物医疗场所;动物医疗场所","area":"","lng":104.804345,"lat":26.602267,"amap_id":"B0LBN7SRWI","order":2,"prev_distance_km":0.981,"cumulative_distance_km":0.981,"amap_marker_url":"https://uri.amap.com/marker?position=104.804345,26.602267&name=%E4%B9%85%E7%89%A7%E5%85%BD%E8%8D%AF%E5%BA%97&src=vetmap&coordinate=gaode&callnative=1","route_id":"r1","route_name":"第1段"},{"name":"宠品道动物医院(德坞店)","address":"德月北路12号","phone":"19384387486","category":"医疗保健服务;动物医疗场所;宠物诊所","area":"","lng":104.808111,"lat":26.604575,"amap_id":"B0K1YM63YD","order":3,"prev_distance_km":0.454,"cumulative_distance_km":1.435,"amap_marker_url":"https://uri.amap.com/marker?position=104.808111,26.604575&name=%E5%AE%A0%E5%93%81%E9%81%93%E5%8A%A8%E7%89%A9%E5%8C%BB%E9%99%A2%28%E5%BE%B7%E5%9D%9E%E5%BA%97%29&src=vetmap&coordinate=gaode&callnative=1","route_id":"r1","route_name":"第1段"},{"name":"贝爱宠物诊所","address":"松坪南路特殊教育学校斜对面","phone":"15117411119","category":"医疗保健服务;动物医疗场所;宠物诊所","area":"","lng":104.835062,"lat":26.588081,"amap_id":"B0HD3YMOCG","order":4,"prev_distance_km":3.247,"cumulative_distance_km":4.682,"amap_marker_url":"https://uri.amap.com/marker?position=104.835062,26.588081&name=%E8%B4%9D%E7%88%B1%E5%AE%A0%E7%89%A9%E8%AF%8A%E6%89%80&src=vetmap&coordinate=gaode&callnative=1","route_id":"r1","route_name":"第1段"},{"name":"顽皮宠物诊疗中心","address":"碧云路西段253号","phone":"18084171155","category":"医疗保健服务;动物医疗场所;宠物诊所","area":"","lng":104.842253,"lat":26.576924,"amap_id":"B0FFHUB822","order":5,"prev_distance_km":1.432,"cumulative_distance_km":6.114,"amap_marker_url":"https://uri.amap.com/marker?position=104.842253,26.576924&name=%E9%A1%BD%E7%9A%AE%E5%AE%A0%E7%89%A9%E8%AF%8A%E7%96%97%E4%B8%AD%E5%BF%83&src=vetmap&coordinate=gaode&callnative=1","route_id":"r1","route_name":"第1段"},{"name":"大嘴狗宠物医院(凤凰大道店)","address":"山海观天下西南门西南60米","phone":"13071152222","category":"医疗保健服务;动物医疗场所;宠物诊所","area":"","lng":104.842102,"lat":26.573191,"amap_id":"B0FFIQ0LH6","order":6,"prev_distance_km":0.415,"cumulative_distance_km":6.529,"amap_marker_url":"https://uri.amap.com/marker?position=104.842102,26.573191&name=%E5%A4%A7%E5%98%B4%E7%8B%97%E5%AE%A0%E7%89%A9%E5%8C%BB%E9%99%A2%28%E5%87%A4%E5%87%B0%E5%A4%A7%E9%81%93%E5%BA%97%29&src=vetmap&coordinate=gaode&callnative=1","route_id":"r1","route_name":"第1段"},{"name":"宠品道动物医院(凤凰山店)","address":"碧云路3号","phone":"17585214627;19028638181","category":"医疗保健服务;动物医疗场所;宠物诊所","area":"","lng":104.851163,"lat":26.574909,"amap_id":"B0K1GCTZ9V","order":7,"prev_distance_km":0.921,"cumulative_distance_km":7.451,"amap_marker_url":"https://uri.amap.com/marker?position=104.851163,26.574909&name=%E5%AE%A0%E5%93%81%E9%81%93%E5%8A%A8%E7%89%A9%E5%8C%BB%E9%99%A2%28%E5%87%A4%E5%87%B0%E5%B1%B1%E5%BA%97%29&src=vetmap&coordinate=gaode&callnative=1","route_id":"r1","route_name":"第1段"},{"name":"康济动物医院","address":"中山大道中段富康路8号","phone":"0858-8953377;17784880034","category":"医疗保健服务;动物医疗场所;宠物诊所","area":"","lng":104.85829,"lat":26.582376,"amap_id":"B0G3NYNS1R","order":8,"prev_distance_km":1.092,"cumulative_distance_km":8.542,"amap_marker_url":"https://uri.amap.com/marker?position=104.858290,26.582376&name=%E5%BA%B7%E6%B5%8E%E5%8A%A8%E7%89%A9%E5%8C%BB%E9%99%A2&src=vetmap&coordinate=gaode&callnative=1","route_id":"r1","route_name":"第1段"},{"name":"心宠汇宠物大药房","address":"吉祥街117号(老客车站搬迁一街117号)","phone":"17586085541;18083617822","category":"医疗保健服务;动物医疗场所;动物医疗场所","area":"","lng":104.863,"lat":26.582715,"amap_id":"B0L02COOBE","order":9,"prev_distance_km":0.47,"cumulative_distance_km":9.012,"amap_marker_url":"https://uri.amap.com/marker?position=104.863000,26.582715&name=%E5%BF%83%E5%AE%A0%E6%B1%87%E5%AE%A0%E7%89%A9%E5%A4%A7%E8%8D%AF%E6%88%BF&src=vetmap&coordinate=gaode&callnative=1","route_id":"r1","route_name":"第1段"},{"name":"汤姆狗动物医院(荷城店)","address":"荷城花园铜锣湾聚伦商厦109-110室","phone":"0858-8105899;18212986499","category":"医疗保健服务;动物医疗场所;宠物诊所","area":"","lng":104.868644,"lat":26.578533,"amap_id":"B0FFLPNCR8","order":10,"prev_distance_km":0.729,"cumulative_distance_km":9.741,"amap_marker_url":"https://uri.amap.com/marker?position=104.868644,26.578533&name=%E6%B1%A4%E5%A7%86%E7%8B%97%E5%8A%A8%E7%89%A9%E5%8C%BB%E9%99%A2%28%E8%8D%B7%E5%9F%8E%E5%BA%97%29&src=vetmap&coordinate=gaode&callnative=1","route_id":"r1","route_name":"第1段"},{"name":"巴普动物医院","address":"金水港湾106号门面","phone":"13398585522","category":"医疗保健服务;动物医疗场所;宠物诊所","area":"","lng":104.871393,"lat":26.577556,"amap_id":"B0HBLUCPR3","order":11,"prev_distance_km":0.294,"cumulative_distance_km":10.035,"amap_marker_url":"https://uri.amap.com/marker?position=104.871393,26.577556&name=%E5%B7%B4%E6%99%AE%E5%8A%A8%E7%89%A9%E5%8C%BB%E9%99%A2&src=vetmap&coordinate=gaode&callnative=1","route_id":"r1","route_name":"第1段"},{"name":"松树林动物诊所","address":"纳电家园二期A区46号","phone":"13985016332;18885898665;19028631200","category":"医疗保健服务;动物医疗场所;宠物诊所","area":"","lng":104.905001,"lat":26.561843,"amap_id":"B0L6FCJASN","order":12,"prev_distance_km":3.772,"cumulative_distance_km":13.807,"amap_marker_url":"https://uri.amap.com/marker?position=104.905001,26.561843&name=%E6%9D%BE%E6%A0%91%E6%9E%97%E5%8A%A8%E7%89%A9%E8%AF%8A%E6%89%80&src=vetmap&coordinate=gaode&callnative=1","route_id":"r1","route_name":"第1段"},{"name":"坤钰动物医院","address":"676乡道","phone":"","category":"医疗保健服务;动物医疗场所;宠物诊所","area":"","lng":105.092781,"lat":26.745481,"amap_id":"B0K2CA4J48","order":13,"prev_distance_km":27.662,"cumulative_distance_km":41.469,"amap_marker_url":"https://uri.amap.com/marker?position=105.092781,26.745481&name=%E5%9D%A4%E9%92%B0%E5%8A%A8%E7%89%A9%E5%8C%BB%E9%99%A2&src=vetmap&coordinate=gaode&callnative=1","route_id":"r1","route_name":"第1段"},{"name":"益牧康兽药","address":"营盘村灯塔组","phone":"","category":"医疗保健服务;动物医疗场所;动物医疗场所","area":"","lng":104.959788,"lat":26.846736,"amap_id":"B0L1YRF8U6","order":14,"prev_distance_km":17.35,"cumulative_distance_km":58.819,"amap_marker_url":"https://uri.amap.com/marker?position=104.959788,26.846736&name=%E7%9B%8A%E7%89%A7%E5%BA%B7%E5%85%BD%E8%8D%AF&src=vetmap&coordinate=gaode&callnative=1","route_id":"r1","route_name":"第1段"}]}],"rows":[{"name":"多格宠物诊所","address":"德坞秀山路职院安置小区门面113号","phone":"15286669699","category":"医疗保健服务;动物医疗场所;宠物诊所","area":"","lng":104.799399,"lat":26.609901,"amap_id":"B0G0FS929W","order":1,"prev_distance_km":0.0,"cumulative_distance_km":0.0,"amap_marker_url":"https://uri.amap.com/marker?position=104.799399,26.609901&name=%E5%A4%9A%E6%A0%BC%E5%AE%A0%E7%89%A9%E8%AF%8A%E6%89%80&src=vetmap&coordinate=gaode&callnative=1","route_id":"r1","route_name":"第1段","global_order":1},{"name":"久牧兽药店","address":"水矿德馨园西南门东南80米","phone":"","category":"医疗保健服务;动物医疗场所;动物医疗场所","area":"","lng":104.804345,"lat":26.602267,"amap_id":"B0LBN7SRWI","order":2,"prev_distance_km":0.981,"cumulative_distance_km":0.981,"amap_marker_url":"https://uri.amap.com/marker?position=104.804345,26.602267&name=%E4%B9%85%E7%89%A7%E5%85%BD%E8%8D%AF%E5%BA%97&src=vetmap&coordinate=gaode&callnative=1","route_id":"r1","route_name":"第1段","global_order":2},{"name":"宠品道动物医院(德坞店)","address":"德月北路12号","phone":"19384387486","category":"医疗保健服务;动物医疗场所;宠物诊所","area":"","lng":104.808111,"lat":26.604575,"amap_id":"B0K1YM63YD","order":3,"prev_distance_km":0.454,"cumulative_distance_km":1.435,"amap_marker_url":"https://uri.amap.com/marker?position=104.808111,26.604575&name=%E5%AE%A0%E5%93%81%E9%81%93%E5%8A%A8%E7%89%A9%E5%8C%BB%E9%99%A2%28%E5%BE%B7%E5%9D%9E%E5%BA%97%29&src=vetmap&coordinate=gaode&callnative=1","route_id":"r1","route_name":"第1段","global_order":3},{"name":"贝爱宠物诊所","address":"松坪南路特殊教育学校斜对面","phone":"15117411119","category":"医疗保健服务;动物医疗场所;宠物诊所","area":"","lng":104.835062,"lat":26.588081,"amap_id":"B0HD3YMOCG","order":4,"prev_distance_km":3.247,"cumulative_distance_km":4.682,"amap_marker_url":"https://uri.amap.com/marker?position=104.835062,26.588081&name=%E8%B4%9D%E7%88%B1%E5%AE%A0%E7%89%A9%E8%AF%8A%E6%89%80&src=vetmap&coordinate=gaode&callnative=1","route_id":"r1","route_name":"第1段","global_order":4},{"name":"顽皮宠物诊疗中心","address":"碧云路西段253号","phone":"18084171155","category":"医疗保健服务;动物医疗场所;宠物诊所","area":"","lng":104.842253,"lat":26.576924,"amap_id":"B0FFHUB822","order":5,"prev_distance_km":1.432,"cumulative_distance_km":6.114,"amap_marker_url":"https://uri.amap.com/marker?position=104.842253,26.576924&name=%E9%A1%BD%E7%9A%AE%E5%AE%A0%E7%89%A9%E8%AF%8A%E7%96%97%E4%B8%AD%E5%BF%83&src=vetmap&coordinate=gaode&callnative=1","route_id":"r1","route_name":"第1段","global_order":5},{"name":"大嘴狗宠物医院(凤凰大道店)","address":"山海观天下西南门西南60米","phone":"13071152222","category":"医疗保健服务;动物医疗场所;宠物诊所","area":"","lng":104.842102,"lat":26.573191,"amap_id":"B0FFIQ0LH6","order":6,"prev_distance_km":0.415,"cumulative_distance_km":6.529,"amap_marker_url":"https://uri.amap.com/marker?position=104.842102,26.573191&name=%E5%A4%A7%E5%98%B4%E7%8B%97%E5%AE%A0%E7%89%A9%E5%8C%BB%E9%99%A2%28%E5%87%A4%E5%87%B0%E5%A4%A7%E9%81%93%E5%BA%97%29&src=vetmap&coordinate=gaode&callnative=1","route_id":"r1","route_name":"第1段","global_order":6},{"name":"宠品道动物医院(凤凰山店)","address":"碧云路3号","phone":"17585214627;19028638181","category":"医疗保健服务;动物医疗场所;宠物诊所","area":"","lng":104.851163,"lat":26.574909,"amap_id":"B0K1GCTZ9V","order":7,"prev_distance_km":0.921,"cumulative_distance_km":7.451,"amap_marker_url":"https://uri.amap.com/marker?position=104.851163,26.574909&name=%E5%AE%A0%E5%93%81%E9%81%93%E5%8A%A8%E7%89%A9%E5%8C%BB%E9%99%A2%28%E5%87%A4%E5%87%B0%E5%B1%B1%E5%BA%97%29&src=vetmap&coordinate=gaode&callnative=1","route_id":"r1","route_name":"第1段","global_order":7},{"name":"康济动物医院","address":"中山大道中段富康路8号","phone":"0858-8953377;17784880034","category":"医疗保健服务;动物医疗场所;宠物诊所","area":"","lng":104.85829,"lat":26.582376,"amap_id":"B0G3NYNS1R","order":8,"prev_distance_km":1.092,"cumulative_distance_km":8.542,"amap_marker_url":"https://uri.amap.com/marker?position=104.858290,26.582376&name=%E5%BA%B7%E6%B5%8E%E5%8A%A8%E7%89%A9%E5%8C%BB%E9%99%A2&src=vetmap&coordinate=gaode&callnative=1","route_id":"r1","route_name":"第1段","global_order":8},{"name":"心宠汇宠物大药房","address":"吉祥街117号(老客车站搬迁一街117号)","phone":"17586085541;18083617822","category":"医疗保健服务;动物医疗场所;动物医疗场所","area":"","lng":104.863,"lat":26.582715,"amap_id":"B0L02COOBE","order":9,"prev_distance_km":0.47,"cumulative_distance_km":9.012,"amap_marker_url":"https://uri.amap.com/marker?position=104.863000,26.582715&name=%E5%BF%83%E5%AE%A0%E6%B1%87%E5%AE%A0%E7%89%A9%E5%A4%A7%E8%8D%AF%E6%88%BF&src=vetmap&coordinate=gaode&callnative=1","route_id":"r1","route_name":"第1段","global_order":9},{"name":"汤姆狗动物医院(荷城店)","address":"荷城花园铜锣湾聚伦商厦109-110室","phone":"0858-8105899;18212986499","category":"医疗保健服务;动物医疗场所;宠物诊所","area":"","lng":104.868644,"lat":26.578533,"amap_id":"B0FFLPNCR8","order":10,"prev_distance_km":0.729,"cumulative_distance_km":9.741,"amap_marker_url":"https://uri.amap.com/marker?position=104.868644,26.578533&name=%E6%B1%A4%E5%A7%86%E7%8B%97%E5%8A%A8%E7%89%A9%E5%8C%BB%E9%99%A2%28%E8%8D%B7%E5%9F%8E%E5%BA%97%29&src=vetmap&coordinate=gaode&callnative=1","route_id":"r1","route_name":"第1段","global_order":10},{"name":"巴普动物医院","address":"金水港湾106号门面","phone":"13398585522","category":"医疗保健服务;动物医疗场所;宠物诊所","area":"","lng":104.871393,"lat":26.577556,"amap_id":"B0HBLUCPR3","order":11,"prev_distance_km":0.294,"cumulative_distance_km":10.035,"amap_marker_url":"https://uri.amap.com/marker?position=104.871393,26.577556&name=%E5%B7%B4%E6%99%AE%E5%8A%A8%E7%89%A9%E5%8C%BB%E9%99%A2&src=vetmap&coordinate=gaode&callnative=1","route_id":"r1","route_name":"第1段","global_order":11},{"name":"松树林动物诊所","address":"纳电家园二期A区46号","phone":"13985016332;18885898665;19028631200","category":"医疗保健服务;动物医疗场所;宠物诊所","area":"","lng":104.905001,"lat":26.561843,"amap_id":"B0L6FCJASN","order":12,"prev_distance_km":3.772,"cumulative_distance_km":13.807,"amap_marker_url":"https://uri.amap.com/marker?position=104.905001,26.561843&name=%E6%9D%BE%E6%A0%91%E6%9E%97%E5%8A%A8%E7%89%A9%E8%AF%8A%E6%89%80&src=vetmap&coordinate=gaode&callnative=1","route_id":"r1","route_name":"第1段","global_order":12},{"name":"坤钰动物医院","address":"676乡道","phone":"","category":"医疗保健服务;动物医疗场所;宠物诊所","area":"","lng":105.092781,"lat":26.745481,"amap_id":"B0K2CA4J48","order":13,"prev_distance_km":27.662,"cumulative_distance_km":41.469,"amap_marker_url":"https://uri.amap.com/marker?position=105.092781,26.745481&name=%E5%9D%A4%E9%92%B0%E5%8A%A8%E7%89%A9%E5%8C%BB%E9%99%A2&src=vetmap&coordinate=gaode&callnative=1","route_id":"r1","route_name":"第1段","global_order":13},{"name":"益牧康兽药","address":"营盘村灯塔组","phone":"","category":"医疗保健服务;动物医疗场所;动物医疗场所","area":"","lng":104.959788,"lat":26.846736,"amap_id":"B0L1YRF8U6","order":14,"prev_distance_km":17.35,"cumulative_distance_km":58.819,"amap_marker_url":"https://uri.amap.com/marker?position=104.959788,26.846736&name=%E7%9B%8A%E7%89%A7%E5%BA%B7%E5%85%BD%E8%8D%AF&src=vetmap&coordinate=gaode&callnative=1","route_id":"r1","route_name":"第1段","global_order":14}]}