{"summary":{"id":"d02380","province":"甘肃省","city":"陇南市","district":"武都区","count":9,"route_count":1,"max_route_clinics":9,"total_distance_km":31.281,"coordinate_system":"GCJ-02 / Amap","generated_at":"2026-05-08 19:48:28"},"routes":[{"id":"r1","name":"第1段","count":9,"total_distance_km":31.281,"rows":[{"name":"兽医饲料销售部","address":"212国道与G75兰海高速入口交叉口西北180米","phone":"","category":"医疗保健服务;动物医疗场所;兽医站","area":"","lng":104.810451,"lat":33.426623,"amap_id":"B0GRBCFT3S","order":1,"prev_distance_km":0.0,"cumulative_distance_km":0.0,"amap_marker_url":"https://uri.amap.com/marker?position=104.810451,33.426623&name=%E5%85%BD%E5%8C%BB%E9%A5%B2%E6%96%99%E9%94%80%E5%94%AE%E9%83%A8&src=vetmap&coordinate=gaode&callnative=1","route_id":"r1","route_name":"第1段"},{"name":"宝贝宠物诊所(人民路)","address":"人民路西花苑A栋6号商铺","phone":"18139968669","category":"医疗保健服务;动物医疗场所;宠物诊所","area":"","lng":104.924589,"lat":33.39508,"amap_id":"B0FFGXXUHD","order":2,"prev_distance_km":11.16,"cumulative_distance_km":11.16,"amap_marker_url":"https://uri.amap.com/marker?position=104.924589,33.395080&name=%E5%AE%9D%E8%B4%9D%E5%AE%A0%E7%89%A9%E8%AF%8A%E6%89%80%28%E4%BA%BA%E6%B0%91%E8%B7%AF%29&src=vetmap&coordinate=gaode&callnative=1","route_id":"r1","route_name":"第1段"},{"name":"陇南市武都区畜牧兽医站","address":"盘旋西路与商贸街交叉口南20米","phone":"","category":"医疗保健服务;动物医疗场所;兽医站","area":"","lng":104.928826,"lat":33.387956,"amap_id":"B0JBCBGSG3","order":3,"prev_distance_km":0.884,"cumulative_distance_km":12.044,"amap_marker_url":"https://uri.amap.com/marker?position=104.928826,33.387956&name=%E9%99%87%E5%8D%97%E5%B8%82%E6%AD%A6%E9%83%BD%E5%8C%BA%E7%95%9C%E7%89%A7%E5%85%BD%E5%8C%BB%E7%AB%99&src=vetmap&coordinate=gaode&callnative=1","route_id":"r1","route_name":"第1段"},{"name":"陇南市畜牧兽医总站","address":"城关镇教场社区牛奶场巷5号","phone":"","category":"医疗保健服务;动物医疗场所;兽医站","area":"","lng":104.94016,"lat":33.37705,"amap_id":"B0L60S22AB","order":4,"prev_distance_km":1.606,"cumulative_distance_km":13.65,"amap_marker_url":"https://uri.amap.com/marker?position=104.940160,33.377050&name=%E9%99%87%E5%8D%97%E5%B8%82%E7%95%9C%E7%89%A7%E5%85%BD%E5%8C%BB%E6%80%BB%E7%AB%99&src=vetmap&coordinate=gaode&callnative=1","route_id":"r1","route_name":"第1段"},{"name":"宠福来宠物医院","address":"城关镇东江水彩虹桥向北100米","phone":"15193965273","category":"医疗保健服务;动物医疗场所;宠物诊所","area":"","lng":104.940387,"lat":33.376725,"amap_id":"B0FFKQ5F7P","order":5,"prev_distance_km":0.042,"cumulative_distance_km":13.692,"amap_marker_url":"https://uri.amap.com/marker?position=104.940387,33.376725&name=%E5%AE%A0%E7%A6%8F%E6%9D%A5%E5%AE%A0%E7%89%A9%E5%8C%BB%E9%99%A2&src=vetmap&coordinate=gaode&callnative=1","route_id":"r1","route_name":"第1段"},{"name":"悦宠宠物诊所","address":"陇城一号一期商铺148","phone":"18701552751;19193791235","category":"医疗保健服务;动物医疗场所;宠物诊所","area":"","lng":104.945177,"lat":33.374721,"amap_id":"B0K29DPD37","order":6,"prev_distance_km":0.497,"cumulative_distance_km":14.189,"amap_marker_url":"https://uri.amap.com/marker?position=104.945177,33.374721&name=%E6%82%A6%E5%AE%A0%E5%AE%A0%E7%89%A9%E8%AF%8A%E6%89%80&src=vetmap&coordinate=gaode&callnative=1","route_id":"r1","route_name":"第1段"},{"name":"动物防疫","address":"柏林镇政府南侧","phone":"","category":"医疗保健服务;动物医疗场所;动物医疗场所","area":"","lng":105.008101,"lat":33.483621,"amap_id":"B0L6ASOXRT","order":7,"prev_distance_km":13.444,"cumulative_distance_km":27.633,"amap_marker_url":"https://uri.amap.com/marker?position=105.008101,33.483621&name=%E5%8A%A8%E7%89%A9%E9%98%B2%E7%96%AB&src=vetmap&coordinate=gaode&callnative=1","route_id":"r1","route_name":"第1段"},{"name":"安化镇畜牧兽医站","address":"武都区动物卫生监督所安华镇分所南侧","phone":"","category":"医疗保健服务;动物医疗场所;兽医站","area":"","lng":105.038526,"lat":33.504257,"amap_id":"B0FFG747JG","order":8,"prev_distance_km":3.637,"cumulative_distance_km":31.269,"amap_marker_url":"https://uri.amap.com/marker?position=105.038526,33.504257&name=%E5%AE%89%E5%8C%96%E9%95%87%E7%95%9C%E7%89%A7%E5%85%BD%E5%8C%BB%E7%AB%99&src=vetmap&coordinate=gaode&callnative=1","route_id":"r1","route_name":"第1段"},{"name":"动物防疫","address":"武都八一中学南侧180米","phone":"","category":"医疗保健服务;动物医疗场所;动物医疗场所","area":"","lng":105.038636,"lat":33.504312,"amap_id":"B0L6ASN8JU","order":9,"prev_distance_km":0.012,"cumulative_distance_km":31.281,"amap_marker_url":"https://uri.amap.com/marker?position=105.038636,33.504312&name=%E5%8A%A8%E7%89%A9%E9%98%B2%E7%96%AB&src=vetmap&coordinate=gaode&callnative=1","route_id":"r1","route_name":"第1段"}]}],"rows":[{"name":"兽医饲料销售部","address":"212国道与G75兰海高速入口交叉口西北180米","phone":"","category":"医疗保健服务;动物医疗场所;兽医站","area":"","lng":104.810451,"lat":33.426623,"amap_id":"B0GRBCFT3S","order":1,"prev_distance_km":0.0,"cumulative_distance_km":0.0,"amap_marker_url":"https://uri.amap.com/marker?position=104.810451,33.426623&name=%E5%85%BD%E5%8C%BB%E9%A5%B2%E6%96%99%E9%94%80%E5%94%AE%E9%83%A8&src=vetmap&coordinate=gaode&callnative=1","route_id":"r1","route_name":"第1段","global_order":1},{"name":"宝贝宠物诊所(人民路)","address":"人民路西花苑A栋6号商铺","phone":"18139968669","category":"医疗保健服务;动物医疗场所;宠物诊所","area":"","lng":104.924589,"lat":33.39508,"amap_id":"B0FFGXXUHD","order":2,"prev_distance_km":11.16,"cumulative_distance_km":11.16,"amap_marker_url":"https://uri.amap.com/marker?position=104.924589,33.395080&name=%E5%AE%9D%E8%B4%9D%E5%AE%A0%E7%89%A9%E8%AF%8A%E6%89%80%28%E4%BA%BA%E6%B0%91%E8%B7%AF%29&src=vetmap&coordinate=gaode&callnative=1","route_id":"r1","route_name":"第1段","global_order":2},{"name":"陇南市武都区畜牧兽医站","address":"盘旋西路与商贸街交叉口南20米","phone":"","category":"医疗保健服务;动物医疗场所;兽医站","area":"","lng":104.928826,"lat":33.387956,"amap_id":"B0JBCBGSG3","order":3,"prev_distance_km":0.884,"cumulative_distance_km":12.044,"amap_marker_url":"https://uri.amap.com/marker?position=104.928826,33.387956&name=%E9%99%87%E5%8D%97%E5%B8%82%E6%AD%A6%E9%83%BD%E5%8C%BA%E7%95%9C%E7%89%A7%E5%85%BD%E5%8C%BB%E7%AB%99&src=vetmap&coordinate=gaode&callnative=1","route_id":"r1","route_name":"第1段","global_order":3},{"name":"陇南市畜牧兽医总站","address":"城关镇教场社区牛奶场巷5号","phone":"","category":"医疗保健服务;动物医疗场所;兽医站","area":"","lng":104.94016,"lat":33.37705,"amap_id":"B0L60S22AB","order":4,"prev_distance_km":1.606,"cumulative_distance_km":13.65,"amap_marker_url":"https://uri.amap.com/marker?position=104.940160,33.377050&name=%E9%99%87%E5%8D%97%E5%B8%82%E7%95%9C%E7%89%A7%E5%85%BD%E5%8C%BB%E6%80%BB%E7%AB%99&src=vetmap&coordinate=gaode&callnative=1","route_id":"r1","route_name":"第1段","global_order":4},{"name":"宠福来宠物医院","address":"城关镇东江水彩虹桥向北100米","phone":"15193965273","category":"医疗保健服务;动物医疗场所;宠物诊所","area":"","lng":104.940387,"lat":33.376725,"amap_id":"B0FFKQ5F7P","order":5,"prev_distance_km":0.042,"cumulative_distance_km":13.692,"amap_marker_url":"https://uri.amap.com/marker?position=104.940387,33.376725&name=%E5%AE%A0%E7%A6%8F%E6%9D%A5%E5%AE%A0%E7%89%A9%E5%8C%BB%E9%99%A2&src=vetmap&coordinate=gaode&callnative=1","route_id":"r1","route_name":"第1段","global_order":5},{"name":"悦宠宠物诊所","address":"陇城一号一期商铺148","phone":"18701552751;19193791235","category":"医疗保健服务;动物医疗场所;宠物诊所","area":"","lng":104.945177,"lat":33.374721,"amap_id":"B0K29DPD37","order":6,"prev_distance_km":0.497,"cumulative_distance_km":14.189,"amap_marker_url":"https://uri.amap.com/marker?position=104.945177,33.374721&name=%E6%82%A6%E5%AE%A0%E5%AE%A0%E7%89%A9%E8%AF%8A%E6%89%80&src=vetmap&coordinate=gaode&callnative=1","route_id":"r1","route_name":"第1段","global_order":6},{"name":"动物防疫","address":"柏林镇政府南侧","phone":"","category":"医疗保健服务;动物医疗场所;动物医疗场所","area":"","lng":105.008101,"lat":33.483621,"amap_id":"B0L6ASOXRT","order":7,"prev_distance_km":13.444,"cumulative_distance_km":27.633,"amap_marker_url":"https://uri.amap.com/marker?position=105.008101,33.483621&name=%E5%8A%A8%E7%89%A9%E9%98%B2%E7%96%AB&src=vetmap&coordinate=gaode&callnative=1","route_id":"r1","route_name":"第1段","global_order":7},{"name":"安化镇畜牧兽医站","address":"武都区动物卫生监督所安华镇分所南侧","phone":"","category":"医疗保健服务;动物医疗场所;兽医站","area":"","lng":105.038526,"lat":33.504257,"amap_id":"B0FFG747JG","order":8,"prev_distance_km":3.637,"cumulative_distance_km":31.269,"amap_marker_url":"https://uri.amap.com/marker?position=105.038526,33.504257&name=%E5%AE%89%E5%8C%96%E9%95%87%E7%95%9C%E7%89%A7%E5%85%BD%E5%8C%BB%E7%AB%99&src=vetmap&coordinate=gaode&callnative=1","route_id":"r1","route_name":"第1段","global_order":8},{"name":"动物防疫","address":"武都八一中学南侧180米","phone":"","category":"医疗保健服务;动物医疗场所;动物医疗场所","area":"","lng":105.038636,"lat":33.504312,"amap_id":"B0L6ASN8JU","order":9,"prev_distance_km":0.012,"cumulative_distance_km":31.281,"amap_marker_url":"https://uri.amap.com/marker?position=105.038636,33.504312&name=%E5%8A%A8%E7%89%A9%E9%98%B2%E7%96%AB&src=vetmap&coordinate=gaode&callnative=1","route_id":"r1","route_name":"第1段","global_order":9}]}