{"summary":{"id":"d02323","province":"甘肃省","city":"天水市","district":"秦州区","count":8,"total_distance_km":30.456,"coordinate_system":"GCJ-02 / Amap","generated_at":"2026-05-07 20:24:02"},"rows":[{"name":"兽医门诊","address":"绿佳电动车(牡丹店)西南侧220米","phone":"","category":"医疗保健服务;动物医疗场所;兽医站","area":"","lng":105.504732,"lat":34.442245,"amap_id":"B0IU5DXH9R","order":1,"prev_distance_km":0.0,"cumulative_distance_km":0.0,"amap_marker_url":"https://uri.amap.com/marker?position=105.504732,34.442245&name=%E5%85%BD%E5%8C%BB%E9%97%A8%E8%AF%8A&src=vetmap&coordinate=gaode&callnative=1"},{"name":"宠爱有家宠物门诊","address":"成纪大道西路辅路1035号电缆厂东门正对面","phone":"15193829098","category":"医疗保健服务;动物医疗场所;宠物诊所","area":"","lng":105.702343,"lat":34.578423,"amap_id":"B0HD153410","order":2,"prev_distance_km":23.604,"cumulative_distance_km":23.604,"amap_marker_url":"https://uri.amap.com/marker?position=105.702343,34.578423&name=%E5%AE%A0%E7%88%B1%E6%9C%89%E5%AE%B6%E5%AE%A0%E7%89%A9%E9%97%A8%E8%AF%8A&src=vetmap&coordinate=gaode&callnative=1"},{"name":"爱牧犬猫专科医院","address":"玉泉观附近东海洗浴正对面","phone":"15097274065","category":"医疗保健服务;动物医疗场所;宠物诊所","area":"天水","lng":105.713691,"lat":34.581314,"amap_id":"B0HURH2VM4","order":3,"prev_distance_km":1.088,"cumulative_distance_km":24.691,"amap_marker_url":"https://uri.amap.com/marker?position=105.713691,34.581314&name=%E7%88%B1%E7%89%A7%E7%8A%AC%E7%8C%AB%E4%B8%93%E7%A7%91%E5%8C%BB%E9%99%A2&src=vetmap&coordinate=gaode&callnative=1"},{"name":"秦州区王大夫动物诊所","address":"西关街道南明路240号","phone":"0938-8518588;19993868588","category":"医疗保健服务;动物医疗场所;宠物诊所","area":"天水","lng":105.712572,"lat":34.577058,"amap_id":"B0HG1MRFEA","order":4,"prev_distance_km":0.484,"cumulative_distance_km":25.175,"amap_marker_url":"https://uri.amap.com/marker?position=105.712572,34.577058&name=%E7%A7%A6%E5%B7%9E%E5%8C%BA%E7%8E%8B%E5%A4%A7%E5%A4%AB%E5%8A%A8%E7%89%A9%E8%AF%8A%E6%89%80&src=vetmap&coordinate=gaode&callnative=1"},{"name":"天和动物诊所","address":"石马坪海天家园1875号","phone":"0938-8236237;18993810837","category":"医疗保健服务;动物医疗场所;宠物诊所","area":"","lng":105.716575,"lat":34.568575,"amap_id":"B0JACAJ8M7","order":5,"prev_distance_km":1.012,"cumulative_distance_km":26.187,"amap_marker_url":"https://uri.amap.com/marker?position=105.716575,34.568575&name=%E5%A4%A9%E5%92%8C%E5%8A%A8%E7%89%A9%E8%AF%8A%E6%89%80&src=vetmap&coordinate=gaode&callnative=1"},{"name":"哈尼·领航动物医院 24h 急症中心","address":"籍河北路32号","phone":"15193848197","category":"医疗保健服务;动物医疗场所;宠物诊所","area":"","lng":105.734749,"lat":34.57797,"amap_id":"B0LDMC1TW3","order":6,"prev_distance_km":1.965,"cumulative_distance_km":28.152,"amap_marker_url":"https://uri.amap.com/marker?position=105.734749,34.577970&name=%E5%93%88%E5%B0%BC%C2%B7%E9%A2%86%E8%88%AA%E5%8A%A8%E7%89%A9%E5%8C%BB%E9%99%A2%2024h%20%E6%80%A5%E7%97%87%E4%B8%AD%E5%BF%83&src=vetmap&coordinate=gaode&callnative=1"},{"name":"澜宠宠物医院天水分院","address":"万达天御二期西门东110米","phone":"0938-8556101;17393175223","category":"医疗保健服务;动物医疗场所;宠物诊所","area":"天水","lng":105.756277,"lat":34.581009,"amap_id":"B0I32CMYMQ","order":7,"prev_distance_km":2.0,"cumulative_distance_km":30.152,"amap_marker_url":"https://uri.amap.com/marker?position=105.756277,34.581009&name=%E6%BE%9C%E5%AE%A0%E5%AE%A0%E7%89%A9%E5%8C%BB%E9%99%A2%E5%A4%A9%E6%B0%B4%E5%88%86%E9%99%A2&src=vetmap&coordinate=gaode&callnative=1"},{"name":"天任宠物医院(岷山路店)","address":"中共天水市委党校北门东180米","phone":"18219983684","category":"医疗保健服务;动物医疗场所;宠物诊所","area":"","lng":105.759528,"lat":34.58043,"amap_id":"B0FFKNKKIZ","order":8,"prev_distance_km":0.305,"cumulative_distance_km":30.456,"amap_marker_url":"https://uri.amap.com/marker?position=105.759528,34.580430&name=%E5%A4%A9%E4%BB%BB%E5%AE%A0%E7%89%A9%E5%8C%BB%E9%99%A2%28%E5%B2%B7%E5%B1%B1%E8%B7%AF%E5%BA%97%29&src=vetmap&coordinate=gaode&callnative=1"}]}