{"summary":{"id":"d02382","province":"甘肃省","city":"陇南市","district":"西和县","count":5,"route_count":1,"max_route_clinics":5,"total_distance_km":2.674,"coordinate_system":"GCJ-02 / Amap","generated_at":"2026-05-08 19:48:28"},"routes":[{"id":"r1","name":"第1段","count":5,"total_distance_km":2.674,"rows":[{"name":"宠一生宠物诊所","address":"汉源镇黄磨村33号","phone":"17326368646","category":"医疗保健服务;动物医疗场所;宠物诊所","area":"","lng":105.300353,"lat":34.002991,"amap_id":"B0KDY7XKLT","order":1,"prev_distance_km":0.0,"cumulative_distance_km":0.0,"amap_marker_url":"https://uri.amap.com/marker?position=105.300353,34.002991&name=%E5%AE%A0%E4%B8%80%E7%94%9F%E5%AE%A0%E7%89%A9%E8%AF%8A%E6%89%80&src=vetmap&coordinate=gaode&callnative=1","route_id":"r1","route_name":"第1段"},{"name":"二马路兽医站","address":"仇池路与鼓楼街交叉口北120米","phone":"","category":"医疗保健服务;动物医疗场所;兽医站","area":"","lng":105.301095,"lat":34.013361,"amap_id":"B0L6C5JCLI","order":2,"prev_distance_km":1.155,"cumulative_distance_km":1.155,"amap_marker_url":"https://uri.amap.com/marker?position=105.301095,34.013361&name=%E4%BA%8C%E9%A9%AC%E8%B7%AF%E5%85%BD%E5%8C%BB%E7%AB%99&src=vetmap&coordinate=gaode&callnative=1","route_id":"r1","route_name":"第1段"},{"name":"西和县汉源镇兽医站","address":"仇池路与鼓楼街交叉口北140米","phone":"","category":"医疗保健服务;动物医疗场所;兽医站","area":"中山路","lng":105.30071,"lat":34.013568,"amap_id":"B0L6C5JCLJ","order":3,"prev_distance_km":0.042,"cumulative_distance_km":1.197,"amap_marker_url":"https://uri.amap.com/marker?position=105.300710,34.013568&name=%E8%A5%BF%E5%92%8C%E5%8E%BF%E6%B1%89%E6%BA%90%E9%95%87%E5%85%BD%E5%8C%BB%E7%AB%99&src=vetmap&coordinate=gaode&callnative=1","route_id":"r1","route_name":"第1段"},{"name":"中山村兽医站","address":"仇池路与解放街交叉口南120米","phone":"","category":"医疗保健服务;动物医疗场所;兽医站","area":"中山路","lng":105.300825,"lat":34.013725,"amap_id":"B0M6VPI1PO","order":4,"prev_distance_km":0.02,"cumulative_distance_km":1.218,"amap_marker_url":"https://uri.amap.com/marker?position=105.300825,34.013725&name=%E4%B8%AD%E5%B1%B1%E6%9D%91%E5%85%BD%E5%8C%BB%E7%AB%99&src=vetmap&coordinate=gaode&callnative=1","route_id":"r1","route_name":"第1段"},{"name":"宠喜动物医院","address":"中山北路2020号","phone":"18139940618","category":"医疗保健服务;动物医疗场所;宠物诊所","area":"","lng":105.300869,"lat":34.026822,"amap_id":"B0K2NL3MX8","order":5,"prev_distance_km":1.456,"cumulative_distance_km":2.674,"amap_marker_url":"https://uri.amap.com/marker?position=105.300869,34.026822&name=%E5%AE%A0%E5%96%9C%E5%8A%A8%E7%89%A9%E5%8C%BB%E9%99%A2&src=vetmap&coordinate=gaode&callnative=1","route_id":"r1","route_name":"第1段"}]}],"rows":[{"name":"宠一生宠物诊所","address":"汉源镇黄磨村33号","phone":"17326368646","category":"医疗保健服务;动物医疗场所;宠物诊所","area":"","lng":105.300353,"lat":34.002991,"amap_id":"B0KDY7XKLT","order":1,"prev_distance_km":0.0,"cumulative_distance_km":0.0,"amap_marker_url":"https://uri.amap.com/marker?position=105.300353,34.002991&name=%E5%AE%A0%E4%B8%80%E7%94%9F%E5%AE%A0%E7%89%A9%E8%AF%8A%E6%89%80&src=vetmap&coordinate=gaode&callnative=1","route_id":"r1","route_name":"第1段","global_order":1},{"name":"二马路兽医站","address":"仇池路与鼓楼街交叉口北120米","phone":"","category":"医疗保健服务;动物医疗场所;兽医站","area":"","lng":105.301095,"lat":34.013361,"amap_id":"B0L6C5JCLI","order":2,"prev_distance_km":1.155,"cumulative_distance_km":1.155,"amap_marker_url":"https://uri.amap.com/marker?position=105.301095,34.013361&name=%E4%BA%8C%E9%A9%AC%E8%B7%AF%E5%85%BD%E5%8C%BB%E7%AB%99&src=vetmap&coordinate=gaode&callnative=1","route_id":"r1","route_name":"第1段","global_order":2},{"name":"西和县汉源镇兽医站","address":"仇池路与鼓楼街交叉口北140米","phone":"","category":"医疗保健服务;动物医疗场所;兽医站","area":"中山路","lng":105.30071,"lat":34.013568,"amap_id":"B0L6C5JCLJ","order":3,"prev_distance_km":0.042,"cumulative_distance_km":1.197,"amap_marker_url":"https://uri.amap.com/marker?position=105.300710,34.013568&name=%E8%A5%BF%E5%92%8C%E5%8E%BF%E6%B1%89%E6%BA%90%E9%95%87%E5%85%BD%E5%8C%BB%E7%AB%99&src=vetmap&coordinate=gaode&callnative=1","route_id":"r1","route_name":"第1段","global_order":3},{"name":"中山村兽医站","address":"仇池路与解放街交叉口南120米","phone":"","category":"医疗保健服务;动物医疗场所;兽医站","area":"中山路","lng":105.300825,"lat":34.013725,"amap_id":"B0M6VPI1PO","order":4,"prev_distance_km":0.02,"cumulative_distance_km":1.218,"amap_marker_url":"https://uri.amap.com/marker?position=105.300825,34.013725&name=%E4%B8%AD%E5%B1%B1%E6%9D%91%E5%85%BD%E5%8C%BB%E7%AB%99&src=vetmap&coordinate=gaode&callnative=1","route_id":"r1","route_name":"第1段","global_order":4},{"name":"宠喜动物医院","address":"中山北路2020号","phone":"18139940618","category":"医疗保健服务;动物医疗场所;宠物诊所","area":"","lng":105.300869,"lat":34.026822,"amap_id":"B0K2NL3MX8","order":5,"prev_distance_km":1.456,"cumulative_distance_km":2.674,"amap_marker_url":"https://uri.amap.com/marker?position=105.300869,34.026822&name=%E5%AE%A0%E5%96%9C%E5%8A%A8%E7%89%A9%E5%8C%BB%E9%99%A2&src=vetmap&coordinate=gaode&callnative=1","route_id":"r1","route_name":"第1段","global_order":5}]}