{"summary":{"id":"d02366","province":"甘肃省","city":"白银市","district":"白银区","count":9,"total_distance_km":18.922,"coordinate_system":"GCJ-02 / Amap","generated_at":"2026-05-07 20:24:03"},"rows":[{"name":"武川乡兽医站","address":"217省道附近","phone":"","category":"医疗保健服务;动物医疗场所;兽医站","area":"","lng":104.052787,"lat":36.626486,"amap_id":"B03AF0M79Q","order":1,"prev_distance_km":0.0,"cumulative_distance_km":0.0,"amap_marker_url":"https://uri.amap.com/marker?position=104.052787,36.626486&name=%E6%AD%A6%E5%B7%9D%E4%B9%A1%E5%85%BD%E5%8C%BB%E7%AB%99&src=vetmap&coordinate=gaode&callnative=1"},{"name":"宠伊佳宠物诊所","address":"兰州路48号","phone":"13830055120","category":"医疗保健服务;动物医疗场所;宠物诊所","area":"","lng":104.140912,"lat":36.541422,"amap_id":"B0I3VSCZZR","order":2,"prev_distance_km":12.304,"cumulative_distance_km":12.304,"amap_marker_url":"https://uri.amap.com/marker?position=104.140912,36.541422&name=%E5%AE%A0%E4%BC%8A%E4%BD%B3%E5%AE%A0%E7%89%A9%E8%AF%8A%E6%89%80&src=vetmap&coordinate=gaode&callnative=1"},{"name":"白银伊宝康动物医院","address":"上海路国芳世贸花园","phone":"13919805305","category":"医疗保健服务;动物医疗场所;宠物诊所","area":"","lng":104.144082,"lat":36.541497,"amap_id":"B0FFKQ8HKJ","order":3,"prev_distance_km":0.283,"cumulative_distance_km":12.587,"amap_marker_url":"https://uri.amap.com/marker?position=104.144082,36.541497&name=%E7%99%BD%E9%93%B6%E4%BC%8A%E5%AE%9D%E5%BA%B7%E5%8A%A8%E7%89%A9%E5%8C%BB%E9%99%A2&src=vetmap&coordinate=gaode&callnative=1"},{"name":"祝康动物医院·骨科·心内科·眼科·中医科·异宠","address":"天津路新世纪花园东门213号","phone":"17393180580;18034664396","category":"医疗保健服务;动物医疗场所;宠物诊所","area":"","lng":104.148074,"lat":36.541151,"amap_id":"B0JUNC60ZN","order":4,"prev_distance_km":0.359,"cumulative_distance_km":12.946,"amap_marker_url":"https://uri.amap.com/marker?position=104.148074,36.541151&name=%E7%A5%9D%E5%BA%B7%E5%8A%A8%E7%89%A9%E5%8C%BB%E9%99%A2%C2%B7%E9%AA%A8%E7%A7%91%C2%B7%E5%BF%83%E5%86%85%E7%A7%91%C2%B7%E7%9C%BC%E7%A7%91%C2%B7%E4%B8%AD%E5%8C%BB%E7%A7%91%C2%B7%E5%BC%82%E5%AE%A0&src=vetmap&coordinate=gaode&callnative=1"},{"name":"康贝乐动物诊所(茗珠商务大厦店)","address":"天津路北口","phone":"13893009923","category":"医疗保健服务;动物医疗场所;宠物诊所","area":"","lng":104.148526,"lat":36.545233,"amap_id":"B0FFGAHP55","order":5,"prev_distance_km":0.456,"cumulative_distance_km":13.401,"amap_marker_url":"https://uri.amap.com/marker?position=104.148526,36.545233&name=%E5%BA%B7%E8%B4%9D%E4%B9%90%E5%8A%A8%E7%89%A9%E8%AF%8A%E6%89%80%28%E8%8C%97%E7%8F%A0%E5%95%86%E5%8A%A1%E5%A4%A7%E5%8E%A6%E5%BA%97%29&src=vetmap&coordinate=gaode&callnative=1"},{"name":"派特宠物诊疗中心","address":"祥和嘉园南门西200米","phone":"","category":"医疗保健服务;动物医疗场所;宠物诊所","area":"","lng":104.159923,"lat":36.548211,"amap_id":"B0J0SYE3RZ","order":6,"prev_distance_km":1.071,"cumulative_distance_km":14.472,"amap_marker_url":"https://uri.amap.com/marker?position=104.159923,36.548211&name=%E6%B4%BE%E7%89%B9%E5%AE%A0%E7%89%A9%E8%AF%8A%E7%96%97%E4%B8%AD%E5%BF%83&src=vetmap&coordinate=gaode&callnative=1"},{"name":"彦平宠物诊所","address":"熙春巷10号","phone":"13195864026","category":"医疗保健服务;动物医疗场所;宠物诊所","area":"","lng":104.160579,"lat":36.555883,"amap_id":"B0FFJWZXRH","order":7,"prev_distance_km":0.855,"cumulative_distance_km":15.327,"amap_marker_url":"https://uri.amap.com/marker?position=104.160579,36.555883&name=%E5%BD%A6%E5%B9%B3%E5%AE%A0%E7%89%A9%E8%AF%8A%E6%89%80&src=vetmap&coordinate=gaode&callnative=1"},{"name":"兴源宠物诊所","address":"白银矿勘院住宅区北门西80米","phone":"0943-5992598;13884270723;18794306010","category":"医疗保健服务;动物医疗场所;宠物诊所","area":"","lng":104.177676,"lat":36.541099,"amap_id":"B0FFFY29T1","order":8,"prev_distance_km":2.244,"cumulative_distance_km":17.571,"amap_marker_url":"https://uri.amap.com/marker?position=104.177676,36.541099&name=%E5%85%B4%E6%BA%90%E5%AE%A0%E7%89%A9%E8%AF%8A%E6%89%80&src=vetmap&coordinate=gaode&callnative=1"},{"name":"白银区yp宠物诊所","address":"四龙路","phone":"13195864026","category":"医疗保健服务;动物医疗场所;宠物诊所","area":"","lng":104.185534,"lat":36.551484,"amap_id":"B0FFGXHXI4","order":9,"prev_distance_km":1.351,"cumulative_distance_km":18.922,"amap_marker_url":"https://uri.amap.com/marker?position=104.185534,36.551484&name=%E7%99%BD%E9%93%B6%E5%8C%BAyp%E5%AE%A0%E7%89%A9%E8%AF%8A%E6%89%80&src=vetmap&coordinate=gaode&callnative=1"}]}