{"summary":{"id":"d02312","province":"甘肃省","city":"兰州市","district":"榆中县","count":10,"route_count":1,"max_route_clinics":10,"total_distance_km":71.53,"coordinate_system":"GCJ-02 / Amap","generated_at":"2026-05-07 21:30:27"},"routes":[{"id":"r1","name":"第1段","count":10,"total_distance_km":71.53,"rows":[{"name":"酷鑫宠物诊所","address":"和平大道357号108","phone":"18993164240","category":"医疗保健服务;动物医疗场所;宠物诊所","area":"","lng":103.963918,"lat":36.012246,"amap_id":"B0HD153R9I","order":1,"prev_distance_km":0.0,"cumulative_distance_km":0.0,"amap_marker_url":"https://uri.amap.com/marker?position=103.963918,36.012246&name=%E9%85%B7%E9%91%AB%E5%AE%A0%E7%89%A9%E8%AF%8A%E6%89%80&src=vetmap&coordinate=gaode&callnative=1","route_id":"r1","route_name":"第1段"},{"name":"定远乡村兽医服务店","address":"定远后街与矿水公路交叉口东220米","phone":"","category":"医疗保健服务;动物医疗场所;兽医站","area":"","lng":104.00652,"lat":35.961603,"amap_id":"B0G30RLAM6","order":2,"prev_distance_km":6.812,"cumulative_distance_km":6.812,"amap_marker_url":"https://uri.amap.com/marker?position=104.006520,35.961603&name=%E5%AE%9A%E8%BF%9C%E4%B9%A1%E6%9D%91%E5%85%BD%E5%8C%BB%E6%9C%8D%E5%8A%A1%E5%BA%97&src=vetmap&coordinate=gaode&callnative=1","route_id":"r1","route_name":"第1段"},{"name":"乐堂宠物诊所","address":"大名城D区北门6-101商铺","phone":"18693949139","category":"医疗保健服务;动物医疗场所;宠物诊所","area":"","lng":104.019148,"lat":35.944041,"amap_id":"B0GKXMDKZZ","order":3,"prev_distance_km":2.26,"cumulative_distance_km":9.072,"amap_marker_url":"https://uri.amap.com/marker?position=104.019148,35.944041&name=%E4%B9%90%E5%A0%82%E5%AE%A0%E7%89%A9%E8%AF%8A%E6%89%80&src=vetmap&coordinate=gaode&callnative=1","route_id":"r1","route_name":"第1段"},{"name":"榆中县兽医局金崖镇畜牧兽医站","address":"夏金兰公路138县","phone":"","category":"医疗保健服务;动物医疗场所;兽医站","area":"","lng":104.10211,"lat":36.016213,"amap_id":"B0FFJ92EKG","order":4,"prev_distance_km":10.96,"cumulative_distance_km":20.032,"amap_marker_url":"https://uri.amap.com/marker?position=104.102110,36.016213&name=%E6%A6%86%E4%B8%AD%E5%8E%BF%E5%85%BD%E5%8C%BB%E5%B1%80%E9%87%91%E5%B4%96%E9%95%87%E7%95%9C%E7%89%A7%E5%85%BD%E5%8C%BB%E7%AB%99&src=vetmap&coordinate=gaode&callnative=1","route_id":"r1","route_name":"第1段"},{"name":"动物防疫","address":"312国道与沪霍线交叉口西80米","phone":"","category":"医疗保健服务;动物医疗场所;动物医疗场所","area":"","lng":104.156565,"lat":35.885416,"amap_id":"B0FFJ8YGHQ","order":5,"prev_distance_km":15.348,"cumulative_distance_km":35.38,"amap_marker_url":"https://uri.amap.com/marker?position=104.156565,35.885416&name=%E5%8A%A8%E7%89%A9%E9%98%B2%E7%96%AB&src=vetmap&coordinate=gaode&callnative=1","route_id":"r1","route_name":"第1段"},{"name":"大胡子狗狗宠物诊所","address":"城关镇栖云北路社区文兴路16号亨威万象公馆","phone":"15117228559","category":"医疗保健服务;动物医疗场所;宠物诊所","area":"","lng":104.107821,"lat":35.851771,"amap_id":"B0IAJAT8DH","order":6,"prev_distance_km":5.77,"cumulative_distance_km":41.149,"amap_marker_url":"https://uri.amap.com/marker?position=104.107821,35.851771&name=%E5%A4%A7%E8%83%A1%E5%AD%90%E7%8B%97%E7%8B%97%E5%AE%A0%E7%89%A9%E8%AF%8A%E6%89%80&src=vetmap&coordinate=gaode&callnative=1","route_id":"r1","route_name":"第1段"},{"name":"榆中县动物疫病预防控制中心","address":"城关镇兴隆路339号","phone":"","category":"医疗保健服务;动物医疗场所;动物医疗场所","area":"","lng":104.12267,"lat":35.844294,"amap_id":"B0FFGE0YUR","order":7,"prev_distance_km":1.576,"cumulative_distance_km":42.725,"amap_marker_url":"https://uri.amap.com/marker?position=104.122670,35.844294&name=%E6%A6%86%E4%B8%AD%E5%8E%BF%E5%8A%A8%E7%89%A9%E7%96%AB%E7%97%85%E9%A2%84%E9%98%B2%E6%8E%A7%E5%88%B6%E4%B8%AD%E5%BF%83&src=vetmap&coordinate=gaode&callnative=1","route_id":"r1","route_name":"第1段"},{"name":"城关镇兽医服务点","address":"栖云南路与文成路交叉口东南200米","phone":"","category":"医疗保健服务;动物医疗场所;兽医站","area":"","lng":104.120191,"lat":35.84064,"amap_id":"B0JDL6MOAI","order":8,"prev_distance_km":0.464,"cumulative_distance_km":43.189,"amap_marker_url":"https://uri.amap.com/marker?position=104.120191,35.840640&name=%E5%9F%8E%E5%85%B3%E9%95%87%E5%85%BD%E5%8C%BB%E6%9C%8D%E5%8A%A1%E7%82%B9&src=vetmap&coordinate=gaode&callnative=1","route_id":"r1","route_name":"第1段"},{"name":"兽医铺","address":"榆中县第二人民医院南侧170米","phone":"","category":"医疗保健服务;动物医疗场所;兽医站","area":"","lng":104.281277,"lat":35.693718,"amap_id":"B0JDR6GDIP","order":9,"prev_distance_km":21.866,"cumulative_distance_km":65.055,"amap_marker_url":"https://uri.amap.com/marker?position=104.281277,35.693718&name=%E5%85%BD%E5%8C%BB%E9%93%BA&src=vetmap&coordinate=gaode&callnative=1","route_id":"r1","route_name":"第1段"},{"name":"小宿兽医门诊","address":"龙泉乡水家坡村","phone":"","category":"医疗保健服务;动物医疗场所;兽医站","area":"","lng":104.242467,"lat":35.644755,"amap_id":"B0J23Z29BZ","order":10,"prev_distance_km":6.476,"cumulative_distance_km":71.53,"amap_marker_url":"https://uri.amap.com/marker?position=104.242467,35.644755&name=%E5%B0%8F%E5%AE%BF%E5%85%BD%E5%8C%BB%E9%97%A8%E8%AF%8A&src=vetmap&coordinate=gaode&callnative=1","route_id":"r1","route_name":"第1段"}]}],"rows":[{"name":"酷鑫宠物诊所","address":"和平大道357号108","phone":"18993164240","category":"医疗保健服务;动物医疗场所;宠物诊所","area":"","lng":103.963918,"lat":36.012246,"amap_id":"B0HD153R9I","order":1,"prev_distance_km":0.0,"cumulative_distance_km":0.0,"amap_marker_url":"https://uri.amap.com/marker?position=103.963918,36.012246&name=%E9%85%B7%E9%91%AB%E5%AE%A0%E7%89%A9%E8%AF%8A%E6%89%80&src=vetmap&coordinate=gaode&callnative=1","route_id":"r1","route_name":"第1段","global_order":1},{"name":"定远乡村兽医服务店","address":"定远后街与矿水公路交叉口东220米","phone":"","category":"医疗保健服务;动物医疗场所;兽医站","area":"","lng":104.00652,"lat":35.961603,"amap_id":"B0G30RLAM6","order":2,"prev_distance_km":6.812,"cumulative_distance_km":6.812,"amap_marker_url":"https://uri.amap.com/marker?position=104.006520,35.961603&name=%E5%AE%9A%E8%BF%9C%E4%B9%A1%E6%9D%91%E5%85%BD%E5%8C%BB%E6%9C%8D%E5%8A%A1%E5%BA%97&src=vetmap&coordinate=gaode&callnative=1","route_id":"r1","route_name":"第1段","global_order":2},{"name":"乐堂宠物诊所","address":"大名城D区北门6-101商铺","phone":"18693949139","category":"医疗保健服务;动物医疗场所;宠物诊所","area":"","lng":104.019148,"lat":35.944041,"amap_id":"B0GKXMDKZZ","order":3,"prev_distance_km":2.26,"cumulative_distance_km":9.072,"amap_marker_url":"https://uri.amap.com/marker?position=104.019148,35.944041&name=%E4%B9%90%E5%A0%82%E5%AE%A0%E7%89%A9%E8%AF%8A%E6%89%80&src=vetmap&coordinate=gaode&callnative=1","route_id":"r1","route_name":"第1段","global_order":3},{"name":"榆中县兽医局金崖镇畜牧兽医站","address":"夏金兰公路138县","phone":"","category":"医疗保健服务;动物医疗场所;兽医站","area":"","lng":104.10211,"lat":36.016213,"amap_id":"B0FFJ92EKG","order":4,"prev_distance_km":10.96,"cumulative_distance_km":20.032,"amap_marker_url":"https://uri.amap.com/marker?position=104.102110,36.016213&name=%E6%A6%86%E4%B8%AD%E5%8E%BF%E5%85%BD%E5%8C%BB%E5%B1%80%E9%87%91%E5%B4%96%E9%95%87%E7%95%9C%E7%89%A7%E5%85%BD%E5%8C%BB%E7%AB%99&src=vetmap&coordinate=gaode&callnative=1","route_id":"r1","route_name":"第1段","global_order":4},{"name":"动物防疫","address":"312国道与沪霍线交叉口西80米","phone":"","category":"医疗保健服务;动物医疗场所;动物医疗场所","area":"","lng":104.156565,"lat":35.885416,"amap_id":"B0FFJ8YGHQ","order":5,"prev_distance_km":15.348,"cumulative_distance_km":35.38,"amap_marker_url":"https://uri.amap.com/marker?position=104.156565,35.885416&name=%E5%8A%A8%E7%89%A9%E9%98%B2%E7%96%AB&src=vetmap&coordinate=gaode&callnative=1","route_id":"r1","route_name":"第1段","global_order":5},{"name":"大胡子狗狗宠物诊所","address":"城关镇栖云北路社区文兴路16号亨威万象公馆","phone":"15117228559","category":"医疗保健服务;动物医疗场所;宠物诊所","area":"","lng":104.107821,"lat":35.851771,"amap_id":"B0IAJAT8DH","order":6,"prev_distance_km":5.77,"cumulative_distance_km":41.149,"amap_marker_url":"https://uri.amap.com/marker?position=104.107821,35.851771&name=%E5%A4%A7%E8%83%A1%E5%AD%90%E7%8B%97%E7%8B%97%E5%AE%A0%E7%89%A9%E8%AF%8A%E6%89%80&src=vetmap&coordinate=gaode&callnative=1","route_id":"r1","route_name":"第1段","global_order":6},{"name":"榆中县动物疫病预防控制中心","address":"城关镇兴隆路339号","phone":"","category":"医疗保健服务;动物医疗场所;动物医疗场所","area":"","lng":104.12267,"lat":35.844294,"amap_id":"B0FFGE0YUR","order":7,"prev_distance_km":1.576,"cumulative_distance_km":42.725,"amap_marker_url":"https://uri.amap.com/marker?position=104.122670,35.844294&name=%E6%A6%86%E4%B8%AD%E5%8E%BF%E5%8A%A8%E7%89%A9%E7%96%AB%E7%97%85%E9%A2%84%E9%98%B2%E6%8E%A7%E5%88%B6%E4%B8%AD%E5%BF%83&src=vetmap&coordinate=gaode&callnative=1","route_id":"r1","route_name":"第1段","global_order":7},{"name":"城关镇兽医服务点","address":"栖云南路与文成路交叉口东南200米","phone":"","category":"医疗保健服务;动物医疗场所;兽医站","area":"","lng":104.120191,"lat":35.84064,"amap_id":"B0JDL6MOAI","order":8,"prev_distance_km":0.464,"cumulative_distance_km":43.189,"amap_marker_url":"https://uri.amap.com/marker?position=104.120191,35.840640&name=%E5%9F%8E%E5%85%B3%E9%95%87%E5%85%BD%E5%8C%BB%E6%9C%8D%E5%8A%A1%E7%82%B9&src=vetmap&coordinate=gaode&callnative=1","route_id":"r1","route_name":"第1段","global_order":8},{"name":"兽医铺","address":"榆中县第二人民医院南侧170米","phone":"","category":"医疗保健服务;动物医疗场所;兽医站","area":"","lng":104.281277,"lat":35.693718,"amap_id":"B0JDR6GDIP","order":9,"prev_distance_km":21.866,"cumulative_distance_km":65.055,"amap_marker_url":"https://uri.amap.com/marker?position=104.281277,35.693718&name=%E5%85%BD%E5%8C%BB%E9%93%BA&src=vetmap&coordinate=gaode&callnative=1","route_id":"r1","route_name":"第1段","global_order":9},{"name":"小宿兽医门诊","address":"龙泉乡水家坡村","phone":"","category":"医疗保健服务;动物医疗场所;兽医站","area":"","lng":104.242467,"lat":35.644755,"amap_id":"B0J23Z29BZ","order":10,"prev_distance_km":6.476,"cumulative_distance_km":71.53,"amap_marker_url":"https://uri.amap.com/marker?position=104.242467,35.644755&name=%E5%B0%8F%E5%AE%BF%E5%85%BD%E5%8C%BB%E9%97%A8%E8%AF%8A&src=vetmap&coordinate=gaode&callnative=1","route_id":"r1","route_name":"第1段","global_order":10}]}