{"summary":{"id":"d02308","province":"甘肃省","city":"临夏回族自治州","district":"积石山保安族东乡族撒拉族自治县","count":5,"route_count":1,"max_route_clinics":5,"total_distance_km":26.764,"coordinate_system":"GCJ-02 / Amap","generated_at":"2026-05-07 21:30:26"},"routes":[{"id":"r1","name":"第1段","count":5,"total_distance_km":26.764,"rows":[{"name":"奋励兽药门诊","address":"居集人民法庭东侧","phone":"","category":"医疗保健服务;动物医疗场所;兽医站","area":"","lng":102.923954,"lat":35.651545,"amap_id":"B0KDJY5LGF","order":1,"prev_distance_km":0.0,"cumulative_distance_km":0.0,"amap_marker_url":"https://uri.amap.com/marker?position=102.923954,35.651545&name=%E5%A5%8B%E5%8A%B1%E5%85%BD%E8%8D%AF%E9%97%A8%E8%AF%8A&src=vetmap&coordinate=gaode&callnative=1","route_id":"r1","route_name":"第1段"},{"name":"积石山牧医兽药店","address":"银川路和谐小区十字路口向下10米","phone":"18393049156","category":"医疗保健服务;动物医疗场所;动物医疗场所","area":"","lng":102.893136,"lat":35.717872,"amap_id":"B0K10CWKVN","order":2,"prev_distance_km":7.883,"cumulative_distance_km":7.883,"amap_marker_url":"https://uri.amap.com/marker?position=102.893136,35.717872&name=%E7%A7%AF%E7%9F%B3%E5%B1%B1%E7%89%A7%E5%8C%BB%E5%85%BD%E8%8D%AF%E5%BA%97&src=vetmap&coordinate=gaode&callnative=1","route_id":"r1","route_name":"第1段"},{"name":"永康兽药","address":"大河路与林坪路交叉口北100米","phone":"","category":"医疗保健服务;动物医疗场所;兽医站","area":"","lng":102.878736,"lat":35.715962,"amap_id":"B0G125M2W3","order":3,"prev_distance_km":1.317,"cumulative_distance_km":9.2,"amap_marker_url":"https://uri.amap.com/marker?position=102.878736,35.715962&name=%E6%B0%B8%E5%BA%B7%E5%85%BD%E8%8D%AF&src=vetmap&coordinate=gaode&callnative=1","route_id":"r1","route_name":"第1段"},{"name":"张兽医药店","address":"石塬镇肖红坪街道刘集路14号","phone":"","category":"医疗保健服务;动物医疗场所;动物医疗场所","area":"","lng":102.807725,"lat":35.758325,"amap_id":"B0KRM1TBL9","order":4,"prev_distance_km":7.954,"cumulative_distance_km":17.154,"amap_marker_url":"https://uri.amap.com/marker?position=102.807725,35.758325&name=%E5%BC%A0%E5%85%BD%E5%8C%BB%E8%8D%AF%E5%BA%97&src=vetmap&coordinate=gaode&callnative=1","route_id":"r1","route_name":"第1段"},{"name":"魏大夫兽药经营部","address":"大河家镇派出所正对面","phone":"","category":"医疗保健服务;动物医疗场所;兽医站","area":"","lng":102.761065,"lat":35.836018,"amap_id":"B0IKJA3C2T","order":5,"prev_distance_km":9.61,"cumulative_distance_km":26.764,"amap_marker_url":"https://uri.amap.com/marker?position=102.761065,35.836018&name=%E9%AD%8F%E5%A4%A7%E5%A4%AB%E5%85%BD%E8%8D%AF%E7%BB%8F%E8%90%A5%E9%83%A8&src=vetmap&coordinate=gaode&callnative=1","route_id":"r1","route_name":"第1段"}]}],"rows":[{"name":"奋励兽药门诊","address":"居集人民法庭东侧","phone":"","category":"医疗保健服务;动物医疗场所;兽医站","area":"","lng":102.923954,"lat":35.651545,"amap_id":"B0KDJY5LGF","order":1,"prev_distance_km":0.0,"cumulative_distance_km":0.0,"amap_marker_url":"https://uri.amap.com/marker?position=102.923954,35.651545&name=%E5%A5%8B%E5%8A%B1%E5%85%BD%E8%8D%AF%E9%97%A8%E8%AF%8A&src=vetmap&coordinate=gaode&callnative=1","route_id":"r1","route_name":"第1段","global_order":1},{"name":"积石山牧医兽药店","address":"银川路和谐小区十字路口向下10米","phone":"18393049156","category":"医疗保健服务;动物医疗场所;动物医疗场所","area":"","lng":102.893136,"lat":35.717872,"amap_id":"B0K10CWKVN","order":2,"prev_distance_km":7.883,"cumulative_distance_km":7.883,"amap_marker_url":"https://uri.amap.com/marker?position=102.893136,35.717872&name=%E7%A7%AF%E7%9F%B3%E5%B1%B1%E7%89%A7%E5%8C%BB%E5%85%BD%E8%8D%AF%E5%BA%97&src=vetmap&coordinate=gaode&callnative=1","route_id":"r1","route_name":"第1段","global_order":2},{"name":"永康兽药","address":"大河路与林坪路交叉口北100米","phone":"","category":"医疗保健服务;动物医疗场所;兽医站","area":"","lng":102.878736,"lat":35.715962,"amap_id":"B0G125M2W3","order":3,"prev_distance_km":1.317,"cumulative_distance_km":9.2,"amap_marker_url":"https://uri.amap.com/marker?position=102.878736,35.715962&name=%E6%B0%B8%E5%BA%B7%E5%85%BD%E8%8D%AF&src=vetmap&coordinate=gaode&callnative=1","route_id":"r1","route_name":"第1段","global_order":3},{"name":"张兽医药店","address":"石塬镇肖红坪街道刘集路14号","phone":"","category":"医疗保健服务;动物医疗场所;动物医疗场所","area":"","lng":102.807725,"lat":35.758325,"amap_id":"B0KRM1TBL9","order":4,"prev_distance_km":7.954,"cumulative_distance_km":17.154,"amap_marker_url":"https://uri.amap.com/marker?position=102.807725,35.758325&name=%E5%BC%A0%E5%85%BD%E5%8C%BB%E8%8D%AF%E5%BA%97&src=vetmap&coordinate=gaode&callnative=1","route_id":"r1","route_name":"第1段","global_order":4},{"name":"魏大夫兽药经营部","address":"大河家镇派出所正对面","phone":"","category":"医疗保健服务;动物医疗场所;兽医站","area":"","lng":102.761065,"lat":35.836018,"amap_id":"B0IKJA3C2T","order":5,"prev_distance_km":9.61,"cumulative_distance_km":26.764,"amap_marker_url":"https://uri.amap.com/marker?position=102.761065,35.836018&name=%E9%AD%8F%E5%A4%A7%E5%A4%AB%E5%85%BD%E8%8D%AF%E7%BB%8F%E8%90%A5%E9%83%A8&src=vetmap&coordinate=gaode&callnative=1","route_id":"r1","route_name":"第1段","global_order":5}]}