{"summary":{"id":"d02477","province":"重庆市","city":"重庆市","district":"丰都县","count":14,"route_count":1,"max_route_clinics":14,"total_distance_km":88.826,"coordinate_system":"GCJ-02 / Amap","generated_at":"2026-05-07 21:30:57"},"routes":[{"id":"r1","name":"第1段","count":14,"total_distance_km":88.826,"rows":[{"name":"丰都县保合镇畜牧兽医站","address":"文曲路与武曲路交叉口西北40米","phone":"","category":"医疗保健服务;动物医疗场所;兽医站","area":"","lng":107.706065,"lat":30.058843,"amap_id":"B0FFJJ99FN","order":1,"prev_distance_km":0.0,"cumulative_distance_km":0.0,"amap_marker_url":"https://uri.amap.com/marker?position=107.706065,30.058843&name=%E4%B8%B0%E9%83%BD%E5%8E%BF%E4%BF%9D%E5%90%88%E9%95%87%E7%95%9C%E7%89%A7%E5%85%BD%E5%8C%BB%E7%AB%99&src=vetmap&coordinate=gaode&callnative=1","route_id":"r1","route_name":"第1段"},{"name":"丰都县许明寺镇畜牧兽医站","address":"黎明街与131县道交叉口西南40米","phone":"","category":"医疗保健服务;动物医疗场所;兽医站","area":"","lng":107.586667,"lat":30.157831,"amap_id":"B00178YVAV","order":2,"prev_distance_km":15.908,"cumulative_distance_km":15.908,"amap_marker_url":"https://uri.amap.com/marker?position=107.586667,30.157831&name=%E4%B8%B0%E9%83%BD%E5%8E%BF%E8%AE%B8%E6%98%8E%E5%AF%BA%E9%95%87%E7%95%9C%E7%89%A7%E5%85%BD%E5%8C%BB%E7%AB%99&src=vetmap&coordinate=gaode&callnative=1","route_id":"r1","route_name":"第1段"},{"name":"丰都县兴龙镇畜牧兽医站","address":"仁崇路与黎铺路交叉口东北100米","phone":"","category":"医疗保健服务;动物医疗场所;兽医站","area":"","lng":107.514215,"lat":29.992509,"amap_id":"B0FFLCDNU4","order":3,"prev_distance_km":19.661,"cumulative_distance_km":35.569,"amap_marker_url":"https://uri.amap.com/marker?position=107.514215,29.992509&name=%E4%B8%B0%E9%83%BD%E5%8E%BF%E5%85%B4%E9%BE%99%E9%95%87%E7%95%9C%E7%89%A7%E5%85%BD%E5%8C%BB%E7%AB%99&src=vetmap&coordinate=gaode&callnative=1","route_id":"r1","route_name":"第1段"},{"name":"丰都县虎威镇畜牧兽医站","address":"大池路与036乡道交叉口东20米","phone":"","category":"医疗保健服务;动物医疗场所;兽医站","area":"","lng":107.6445,"lat":29.901193,"amap_id":"B00178UT2S","order":4,"prev_distance_km":16.145,"cumulative_distance_km":51.714,"amap_marker_url":"https://uri.amap.com/marker?position=107.644500,29.901193&name=%E4%B8%B0%E9%83%BD%E5%8E%BF%E8%99%8E%E5%A8%81%E9%95%87%E7%95%9C%E7%89%A7%E5%85%BD%E5%8C%BB%E7%AB%99&src=vetmap&coordinate=gaode&callnative=1","route_id":"r1","route_name":"第1段"},{"name":"爱艺花宠(宏声花园店)","address":"南天湖西路与世平路交叉口东北60米","phone":"17723160302","category":"医疗保健服务;动物医疗场所;动物医疗场所","area":"三合","lng":107.729303,"lat":29.860822,"amap_id":"B0I2THW76Q","order":5,"prev_distance_km":9.327,"cumulative_distance_km":61.041,"amap_marker_url":"https://uri.amap.com/marker?position=107.729303,29.860822&name=%E7%88%B1%E8%89%BA%E8%8A%B1%E5%AE%A0%28%E5%AE%8F%E5%A3%B0%E8%8A%B1%E5%9B%AD%E5%BA%97%29&src=vetmap&coordinate=gaode&callnative=1","route_id":"r1","route_name":"第1段"},{"name":"120宠物门诊","address":"滨江西路与商业路交叉口南40米","phone":"","category":"医疗保健服务;动物医疗场所;宠物诊所|医疗保健服务;动物医疗场所;兽医站","area":"三合","lng":107.72814,"lat":29.868652,"amap_id":"B00178USF6","order":6,"prev_distance_km":0.878,"cumulative_distance_km":61.919,"amap_marker_url":"https://uri.amap.com/marker?position=107.728140,29.868652&name=120%E5%AE%A0%E7%89%A9%E9%97%A8%E8%AF%8A&src=vetmap&coordinate=gaode&callnative=1","route_id":"r1","route_name":"第1段"},{"name":"佳业兽药","address":"三合街道滨江路12号楼对面","phone":"13500373038;13896546004","category":"医疗保健服务;动物医疗场所;动物医疗场所","area":"三合","lng":107.728709,"lat":29.869561,"amap_id":"B00178XV1Y","order":7,"prev_distance_km":0.115,"cumulative_distance_km":62.034,"amap_marker_url":"https://uri.amap.com/marker?position=107.728709,29.869561&name=%E4%BD%B3%E4%B8%9A%E5%85%BD%E8%8D%AF&src=vetmap&coordinate=gaode&callnative=1","route_id":"r1","route_name":"第1段"},{"name":"丰都县悦灵宠物诊所","address":"三合街道滨江东路9号楼5号1-10","phone":"19123925506;19123925508","category":"医疗保健服务;动物医疗场所;宠物诊所","area":"三合","lng":107.733908,"lat":29.872017,"amap_id":"B0GRRUJK3R","order":8,"prev_distance_km":0.571,"cumulative_distance_km":62.605,"amap_marker_url":"https://uri.amap.com/marker?position=107.733908,29.872017&name=%E4%B8%B0%E9%83%BD%E5%8E%BF%E6%82%A6%E7%81%B5%E5%AE%A0%E7%89%A9%E8%AF%8A%E6%89%80&src=vetmap&coordinate=gaode&callnative=1","route_id":"r1","route_name":"第1段"},{"name":"丰宠动物医院","address":"重庆市丰都县商业一路10号","phone":"19923651861","category":"医疗保健服务;动物医疗场所;宠物诊所","area":"三合","lng":107.741053,"lat":29.873047,"amap_id":"B0LDUUEE8Z","order":9,"prev_distance_km":0.698,"cumulative_distance_km":63.304,"amap_marker_url":"https://uri.amap.com/marker?position=107.741053,29.873047&name=%E4%B8%B0%E5%AE%A0%E5%8A%A8%E7%89%A9%E5%8C%BB%E9%99%A2&src=vetmap&coordinate=gaode&callnative=1","route_id":"r1","route_name":"第1段"},{"name":"致远宠物诊疗中心","address":"久恒大道182号","phone":"17726207731","category":"医疗保健服务;动物医疗场所;宠物诊所","area":"","lng":107.750575,"lat":29.878834,"amap_id":"B0JKTS3Q8O","order":10,"prev_distance_km":1.121,"cumulative_distance_km":64.425,"amap_marker_url":"https://uri.amap.com/marker?position=107.750575,29.878834&name=%E8%87%B4%E8%BF%9C%E5%AE%A0%E7%89%A9%E8%AF%8A%E7%96%97%E4%B8%AD%E5%BF%83&src=vetmap&coordinate=gaode&callnative=1","route_id":"r1","route_name":"第1段"},{"name":"仁望动物医院丰都院","address":"龙城大道116号附7号","phone":"18716866120","category":"医疗保健服务;动物医疗场所;宠物诊所","area":"","lng":107.753626,"lat":29.88052,"amap_id":"B0L21ASN7M","order":11,"prev_distance_km":0.349,"cumulative_distance_km":64.773,"amap_marker_url":"https://uri.amap.com/marker?position=107.753626,29.880520&name=%E4%BB%81%E6%9C%9B%E5%8A%A8%E7%89%A9%E5%8C%BB%E9%99%A2%E4%B8%B0%E9%83%BD%E9%99%A2&src=vetmap&coordinate=gaode&callnative=1","route_id":"r1","route_name":"第1段"},{"name":"仁旺望动物医院","address":"龙城大道久恒城BF区116号附8号","phone":"18716866120","category":"医疗保健服务;动物医疗场所;宠物诊所","area":"","lng":107.753547,"lat":29.880575,"amap_id":"B0L21ASN7C","order":12,"prev_distance_km":0.01,"cumulative_distance_km":64.783,"amap_marker_url":"https://uri.amap.com/marker?position=107.753547,29.880575&name=%E4%BB%81%E6%97%BA%E6%9C%9B%E5%8A%A8%E7%89%A9%E5%8C%BB%E9%99%A2&src=vetmap&coordinate=gaode&callnative=1","route_id":"r1","route_name":"第1段"},{"name":"宠依宠物医疗中心","address":"三合街道水天坪大道金科黄金海岸57栋一层","phone":"15730234022","category":"医疗保健服务;动物医疗场所;宠物诊所","area":"","lng":107.753793,"lat":29.888212,"amap_id":"B0H0ACTML9","order":13,"prev_distance_km":0.85,"cumulative_distance_km":65.633,"amap_marker_url":"https://uri.amap.com/marker?position=107.753793,29.888212&name=%E5%AE%A0%E4%BE%9D%E5%AE%A0%E7%89%A9%E5%8C%BB%E7%96%97%E4%B8%AD%E5%BF%83&src=vetmap&coordinate=gaode&callnative=1","route_id":"r1","route_name":"第1段"},{"name":"丰都县龙河镇畜牧兽医站","address":"007乡道与518省道交叉口东北160米","phone":"","category":"医疗保健服务;动物医疗场所;兽医站","area":"","lng":107.986311,"lat":29.834869,"amap_id":"B00178YU2K","order":14,"prev_distance_km":23.193,"cumulative_distance_km":88.826,"amap_marker_url":"https://uri.amap.com/marker?position=107.986311,29.834869&name=%E4%B8%B0%E9%83%BD%E5%8E%BF%E9%BE%99%E6%B2%B3%E9%95%87%E7%95%9C%E7%89%A7%E5%85%BD%E5%8C%BB%E7%AB%99&src=vetmap&coordinate=gaode&callnative=1","route_id":"r1","route_name":"第1段"}]}],"rows":[{"name":"丰都县保合镇畜牧兽医站","address":"文曲路与武曲路交叉口西北40米","phone":"","category":"医疗保健服务;动物医疗场所;兽医站","area":"","lng":107.706065,"lat":30.058843,"amap_id":"B0FFJJ99FN","order":1,"prev_distance_km":0.0,"cumulative_distance_km":0.0,"amap_marker_url":"https://uri.amap.com/marker?position=107.706065,30.058843&name=%E4%B8%B0%E9%83%BD%E5%8E%BF%E4%BF%9D%E5%90%88%E9%95%87%E7%95%9C%E7%89%A7%E5%85%BD%E5%8C%BB%E7%AB%99&src=vetmap&coordinate=gaode&callnative=1","route_id":"r1","route_name":"第1段","global_order":1},{"name":"丰都县许明寺镇畜牧兽医站","address":"黎明街与131县道交叉口西南40米","phone":"","category":"医疗保健服务;动物医疗场所;兽医站","area":"","lng":107.586667,"lat":30.157831,"amap_id":"B00178YVAV","order":2,"prev_distance_km":15.908,"cumulative_distance_km":15.908,"amap_marker_url":"https://uri.amap.com/marker?position=107.586667,30.157831&name=%E4%B8%B0%E9%83%BD%E5%8E%BF%E8%AE%B8%E6%98%8E%E5%AF%BA%E9%95%87%E7%95%9C%E7%89%A7%E5%85%BD%E5%8C%BB%E7%AB%99&src=vetmap&coordinate=gaode&callnative=1","route_id":"r1","route_name":"第1段","global_order":2},{"name":"丰都县兴龙镇畜牧兽医站","address":"仁崇路与黎铺路交叉口东北100米","phone":"","category":"医疗保健服务;动物医疗场所;兽医站","area":"","lng":107.514215,"lat":29.992509,"amap_id":"B0FFLCDNU4","order":3,"prev_distance_km":19.661,"cumulative_distance_km":35.569,"amap_marker_url":"https://uri.amap.com/marker?position=107.514215,29.992509&name=%E4%B8%B0%E9%83%BD%E5%8E%BF%E5%85%B4%E9%BE%99%E9%95%87%E7%95%9C%E7%89%A7%E5%85%BD%E5%8C%BB%E7%AB%99&src=vetmap&coordinate=gaode&callnative=1","route_id":"r1","route_name":"第1段","global_order":3},{"name":"丰都县虎威镇畜牧兽医站","address":"大池路与036乡道交叉口东20米","phone":"","category":"医疗保健服务;动物医疗场所;兽医站","area":"","lng":107.6445,"lat":29.901193,"amap_id":"B00178UT2S","order":4,"prev_distance_km":16.145,"cumulative_distance_km":51.714,"amap_marker_url":"https://uri.amap.com/marker?position=107.644500,29.901193&name=%E4%B8%B0%E9%83%BD%E5%8E%BF%E8%99%8E%E5%A8%81%E9%95%87%E7%95%9C%E7%89%A7%E5%85%BD%E5%8C%BB%E7%AB%99&src=vetmap&coordinate=gaode&callnative=1","route_id":"r1","route_name":"第1段","global_order":4},{"name":"爱艺花宠(宏声花园店)","address":"南天湖西路与世平路交叉口东北60米","phone":"17723160302","category":"医疗保健服务;动物医疗场所;动物医疗场所","area":"三合","lng":107.729303,"lat":29.860822,"amap_id":"B0I2THW76Q","order":5,"prev_distance_km":9.327,"cumulative_distance_km":61.041,"amap_marker_url":"https://uri.amap.com/marker?position=107.729303,29.860822&name=%E7%88%B1%E8%89%BA%E8%8A%B1%E5%AE%A0%28%E5%AE%8F%E5%A3%B0%E8%8A%B1%E5%9B%AD%E5%BA%97%29&src=vetmap&coordinate=gaode&callnative=1","route_id":"r1","route_name":"第1段","global_order":5},{"name":"120宠物门诊","address":"滨江西路与商业路交叉口南40米","phone":"","category":"医疗保健服务;动物医疗场所;宠物诊所|医疗保健服务;动物医疗场所;兽医站","area":"三合","lng":107.72814,"lat":29.868652,"amap_id":"B00178USF6","order":6,"prev_distance_km":0.878,"cumulative_distance_km":61.919,"amap_marker_url":"https://uri.amap.com/marker?position=107.728140,29.868652&name=120%E5%AE%A0%E7%89%A9%E9%97%A8%E8%AF%8A&src=vetmap&coordinate=gaode&callnative=1","route_id":"r1","route_name":"第1段","global_order":6},{"name":"佳业兽药","address":"三合街道滨江路12号楼对面","phone":"13500373038;13896546004","category":"医疗保健服务;动物医疗场所;动物医疗场所","area":"三合","lng":107.728709,"lat":29.869561,"amap_id":"B00178XV1Y","order":7,"prev_distance_km":0.115,"cumulative_distance_km":62.034,"amap_marker_url":"https://uri.amap.com/marker?position=107.728709,29.869561&name=%E4%BD%B3%E4%B8%9A%E5%85%BD%E8%8D%AF&src=vetmap&coordinate=gaode&callnative=1","route_id":"r1","route_name":"第1段","global_order":7},{"name":"丰都县悦灵宠物诊所","address":"三合街道滨江东路9号楼5号1-10","phone":"19123925506;19123925508","category":"医疗保健服务;动物医疗场所;宠物诊所","area":"三合","lng":107.733908,"lat":29.872017,"amap_id":"B0GRRUJK3R","order":8,"prev_distance_km":0.571,"cumulative_distance_km":62.605,"amap_marker_url":"https://uri.amap.com/marker?position=107.733908,29.872017&name=%E4%B8%B0%E9%83%BD%E5%8E%BF%E6%82%A6%E7%81%B5%E5%AE%A0%E7%89%A9%E8%AF%8A%E6%89%80&src=vetmap&coordinate=gaode&callnative=1","route_id":"r1","route_name":"第1段","global_order":8},{"name":"丰宠动物医院","address":"重庆市丰都县商业一路10号","phone":"19923651861","category":"医疗保健服务;动物医疗场所;宠物诊所","area":"三合","lng":107.741053,"lat":29.873047,"amap_id":"B0LDUUEE8Z","order":9,"prev_distance_km":0.698,"cumulative_distance_km":63.304,"amap_marker_url":"https://uri.amap.com/marker?position=107.741053,29.873047&name=%E4%B8%B0%E5%AE%A0%E5%8A%A8%E7%89%A9%E5%8C%BB%E9%99%A2&src=vetmap&coordinate=gaode&callnative=1","route_id":"r1","route_name":"第1段","global_order":9},{"name":"致远宠物诊疗中心","address":"久恒大道182号","phone":"17726207731","category":"医疗保健服务;动物医疗场所;宠物诊所","area":"","lng":107.750575,"lat":29.878834,"amap_id":"B0JKTS3Q8O","order":10,"prev_distance_km":1.121,"cumulative_distance_km":64.425,"amap_marker_url":"https://uri.amap.com/marker?position=107.750575,29.878834&name=%E8%87%B4%E8%BF%9C%E5%AE%A0%E7%89%A9%E8%AF%8A%E7%96%97%E4%B8%AD%E5%BF%83&src=vetmap&coordinate=gaode&callnative=1","route_id":"r1","route_name":"第1段","global_order":10},{"name":"仁望动物医院丰都院","address":"龙城大道116号附7号","phone":"18716866120","category":"医疗保健服务;动物医疗场所;宠物诊所","area":"","lng":107.753626,"lat":29.88052,"amap_id":"B0L21ASN7M","order":11,"prev_distance_km":0.349,"cumulative_distance_km":64.773,"amap_marker_url":"https://uri.amap.com/marker?position=107.753626,29.880520&name=%E4%BB%81%E6%9C%9B%E5%8A%A8%E7%89%A9%E5%8C%BB%E9%99%A2%E4%B8%B0%E9%83%BD%E9%99%A2&src=vetmap&coordinate=gaode&callnative=1","route_id":"r1","route_name":"第1段","global_order":11},{"name":"仁旺望动物医院","address":"龙城大道久恒城BF区116号附8号","phone":"18716866120","category":"医疗保健服务;动物医疗场所;宠物诊所","area":"","lng":107.753547,"lat":29.880575,"amap_id":"B0L21ASN7C","order":12,"prev_distance_km":0.01,"cumulative_distance_km":64.783,"amap_marker_url":"https://uri.amap.com/marker?position=107.753547,29.880575&name=%E4%BB%81%E6%97%BA%E6%9C%9B%E5%8A%A8%E7%89%A9%E5%8C%BB%E9%99%A2&src=vetmap&coordinate=gaode&callnative=1","route_id":"r1","route_name":"第1段","global_order":12},{"name":"宠依宠物医疗中心","address":"三合街道水天坪大道金科黄金海岸57栋一层","phone":"15730234022","category":"医疗保健服务;动物医疗场所;宠物诊所","area":"","lng":107.753793,"lat":29.888212,"amap_id":"B0H0ACTML9","order":13,"prev_distance_km":0.85,"cumulative_distance_km":65.633,"amap_marker_url":"https://uri.amap.com/marker?position=107.753793,29.888212&name=%E5%AE%A0%E4%BE%9D%E5%AE%A0%E7%89%A9%E5%8C%BB%E7%96%97%E4%B8%AD%E5%BF%83&src=vetmap&coordinate=gaode&callnative=1","route_id":"r1","route_name":"第1段","global_order":13},{"name":"丰都县龙河镇畜牧兽医站","address":"007乡道与518省道交叉口东北160米","phone":"","category":"医疗保健服务;动物医疗场所;兽医站","area":"","lng":107.986311,"lat":29.834869,"amap_id":"B00178YU2K","order":14,"prev_distance_km":23.193,"cumulative_distance_km":88.826,"amap_marker_url":"https://uri.amap.com/marker?position=107.986311,29.834869&name=%E4%B8%B0%E9%83%BD%E5%8E%BF%E9%BE%99%E6%B2%B3%E9%95%87%E7%95%9C%E7%89%A7%E5%85%BD%E5%8C%BB%E7%AB%99&src=vetmap&coordinate=gaode&callnative=1","route_id":"r1","route_name":"第1段","global_order":14}]}