{"summary":{"id":"d02414","province":"贵州省","city":"贵阳市","district":"息烽县","count":5,"total_distance_km":20.367,"coordinate_system":"GCJ-02 / Amap","generated_at":"2026-05-07 20:24:11"},"rows":[{"name":"恩尔宠物诊疗中心","address":"永阳街道镇府路商业步行街C栋1层1-41-5","phone":"18690733637","category":"医疗保健服务;动物医疗场所;宠物诊所","area":"永靖","lng":106.737606,"lat":27.097275,"amap_id":"B0KGNDVONX","order":1,"prev_distance_km":0.0,"cumulative_distance_km":0.0,"amap_marker_url":"https://uri.amap.com/marker?position=106.737606,27.097275&name=%E6%81%A9%E5%B0%94%E5%AE%A0%E7%89%A9%E8%AF%8A%E7%96%97%E4%B8%AD%E5%BF%83&src=vetmap&coordinate=gaode&callnative=1"},{"name":"鑫盛源宠物诊疗中心","address":"锦御天城13栋1-9门面","phone":"18798075857","category":"医疗保健服务;动物医疗场所;宠物诊所","area":"","lng":106.745725,"lat":27.081275,"amap_id":"B0KK4S0GV9","order":2,"prev_distance_km":1.952,"cumulative_distance_km":1.952,"amap_marker_url":"https://uri.amap.com/marker?position=106.745725,27.081275&name=%E9%91%AB%E7%9B%9B%E6%BA%90%E5%AE%A0%E7%89%A9%E8%AF%8A%E7%96%97%E4%B8%AD%E5%BF%83&src=vetmap&coordinate=gaode&callnative=1"},{"name":"萌喜宠物诊疗中心","address":"虎城大道中段53号","phone":"18275143162","category":"医疗保健服务;动物医疗场所;宠物诊所","area":"","lng":106.748081,"lat":27.070456,"amap_id":"B0K6UUUOCM","order":3,"prev_distance_km":1.225,"cumulative_distance_km":3.178,"amap_marker_url":"https://uri.amap.com/marker?position=106.748081,27.070456&name=%E8%90%8C%E5%96%9C%E5%AE%A0%E7%89%A9%E8%AF%8A%E7%96%97%E4%B8%AD%E5%BF%83&src=vetmap&coordinate=gaode&callnative=1"},{"name":"桥兴宠物医院","address":"青山苗族乡绿化村大麻窝组15号","phone":"17385914307","category":"医疗保健服务;动物医疗场所;宠物诊所","area":"","lng":106.682815,"lat":27.032766,"amap_id":"B0KAG7PURG","order":4,"prev_distance_km":7.703,"cumulative_distance_km":10.881,"amap_marker_url":"https://uri.amap.com/marker?position=106.682815,27.032766&name=%E6%A1%A5%E5%85%B4%E5%AE%A0%E7%89%A9%E5%8C%BB%E9%99%A2&src=vetmap&coordinate=gaode&callnative=1"},{"name":"牧林动保石硐乡畜牧兽医院","address":"和谐路与黄金路交叉口北200米","phone":"","category":"医疗保健服务;动物医疗场所;兽医站","area":"","lng":106.588369,"lat":27.046953,"amap_id":"B0G35HVNXY","order":5,"prev_distance_km":9.486,"cumulative_distance_km":20.367,"amap_marker_url":"https://uri.amap.com/marker?position=106.588369,27.046953&name=%E7%89%A7%E6%9E%97%E5%8A%A8%E4%BF%9D%E7%9F%B3%E7%A1%90%E4%B9%A1%E7%95%9C%E7%89%A7%E5%85%BD%E5%8C%BB%E9%99%A2&src=vetmap&coordinate=gaode&callnative=1"}]}