{"summary":{"id":"d02479","province":"重庆市","city":"重庆市","district":"云阳县","count":11,"route_count":1,"max_route_clinics":11,"total_distance_km":40.981,"coordinate_system":"GCJ-02 / Amap","generated_at":"2026-05-07 21:30:58"},"routes":[{"id":"r1","name":"第1段","count":11,"total_distance_km":40.981,"rows":[{"name":"云阳县红狮镇畜牧兽医站","address":"红康路一巷8号","phone":"","category":"医疗保健服务;动物医疗场所;兽医站","area":"","lng":109.026672,"lat":30.983222,"amap_id":"B0JABRUCQ1","order":1,"prev_distance_km":0.0,"cumulative_distance_km":0.0,"amap_marker_url":"https://uri.amap.com/marker?position=109.026672,30.983222&name=%E4%BA%91%E9%98%B3%E5%8E%BF%E7%BA%A2%E7%8B%AE%E9%95%87%E7%95%9C%E7%89%A7%E5%85%BD%E5%8C%BB%E7%AB%99&src=vetmap&coordinate=gaode&callnative=1","route_id":"r1","route_name":"第1段"},{"name":"叶春饲料经营部","address":"玉皇路与堰丰路交叉口东80米","phone":"13330320868","category":"医疗保健服务;动物医疗场所;兽医站","area":"","lng":108.80573,"lat":30.887139,"amap_id":"B0I39CZRF1","order":2,"prev_distance_km":23.627,"cumulative_distance_km":23.627,"amap_marker_url":"https://uri.amap.com/marker?position=108.805730,30.887139&name=%E5%8F%B6%E6%98%A5%E9%A5%B2%E6%96%99%E7%BB%8F%E8%90%A5%E9%83%A8&src=vetmap&coordinate=gaode&callnative=1","route_id":"r1","route_name":"第1段"},{"name":"科代表动物诊疗中心","address":"金科世界城口福街68幢101号2楼(1号门旁边)","phone":"13320305732","category":"医疗保健服务;动物医疗场所;宠物诊所","area":"","lng":108.73225,"lat":30.927354,"amap_id":"B0JAGSACIK","order":3,"prev_distance_km":8.315,"cumulative_distance_km":31.942,"amap_marker_url":"https://uri.amap.com/marker?position=108.732250,30.927354&name=%E7%A7%91%E4%BB%A3%E8%A1%A8%E5%8A%A8%E7%89%A9%E8%AF%8A%E7%96%97%E4%B8%AD%E5%BF%83&src=vetmap&coordinate=gaode&callnative=1","route_id":"r1","route_name":"第1段"},{"name":"厚朴动物诊所","address":"金科世界城56幢115门市","phone":"15923597955","category":"医疗保健服务;动物医疗场所;宠物诊所","area":"","lng":108.733201,"lat":30.929878,"amap_id":"B0J64H7NHY","order":4,"prev_distance_km":0.295,"cumulative_distance_km":32.237,"amap_marker_url":"https://uri.amap.com/marker?position=108.733201,30.929878&name=%E5%8E%9A%E6%9C%B4%E5%8A%A8%E7%89%A9%E8%AF%8A%E6%89%80&src=vetmap&coordinate=gaode&callnative=1","route_id":"r1","route_name":"第1段"},{"name":"云尚动物医院","address":"双江街道北城大道558号依山郡5幢商业门市1-17号","phone":"023-55360120","category":"医疗保健服务;动物医疗场所;宠物诊所","area":"","lng":108.720413,"lat":30.945836,"amap_id":"B0FFK8I905","order":5,"prev_distance_km":2.153,"cumulative_distance_km":34.39,"amap_marker_url":"https://uri.amap.com/marker?position=108.720413,30.945836&name=%E4%BA%91%E5%B0%9A%E5%8A%A8%E7%89%A9%E5%8C%BB%E9%99%A2&src=vetmap&coordinate=gaode&callnative=1","route_id":"r1","route_name":"第1段"},{"name":"宠大帅猫狗洗美活体用品销售(云阳世纪星辉店)","address":"北城大道188号附3-1-5","phone":"19132308995","category":"医疗保健服务;动物医疗场所;宠物诊所","area":"","lng":108.714234,"lat":30.940591,"amap_id":"B0KDF78L30","order":6,"prev_distance_km":0.829,"cumulative_distance_km":35.219,"amap_marker_url":"https://uri.amap.com/marker?position=108.714234,30.940591&name=%E5%AE%A0%E5%A4%A7%E5%B8%85%E7%8C%AB%E7%8B%97%E6%B4%97%E7%BE%8E%E6%B4%BB%E4%BD%93%E7%94%A8%E5%93%81%E9%94%80%E5%94%AE%28%E4%BA%91%E9%98%B3%E4%B8%96%E7%BA%AA%E6%98%9F%E8%BE%89%E5%BA%97%29&src=vetmap&coordinate=gaode&callnative=1","route_id":"r1","route_name":"第1段"},{"name":"瑞宠动物诊所","address":"丽江景苑东北侧210米","phone":"","category":"医疗保健服务;动物医疗场所;宠物诊所","area":"青龙","lng":108.711197,"lat":30.922587,"amap_id":"B0JU419YFV","order":7,"prev_distance_km":2.023,"cumulative_distance_km":37.242,"amap_marker_url":"https://uri.amap.com/marker?position=108.711197,30.922587&name=%E7%91%9E%E5%AE%A0%E5%8A%A8%E7%89%A9%E8%AF%8A%E6%89%80&src=vetmap&coordinate=gaode&callnative=1","route_id":"r1","route_name":"第1段"},{"name":"佳有宠物诊疗中心","address":"滨江大道654号附4号","phone":"13896332567","category":"医疗保健服务;动物医疗场所;宠物诊所","area":"青龙","lng":108.711787,"lat":30.920977,"amap_id":"B0IGOHIPCV","order":8,"prev_distance_km":0.188,"cumulative_distance_km":37.429,"amap_marker_url":"https://uri.amap.com/marker?position=108.711787,30.920977&name=%E4%BD%B3%E6%9C%89%E5%AE%A0%E7%89%A9%E8%AF%8A%E7%96%97%E4%B8%AD%E5%BF%83&src=vetmap&coordinate=gaode&callnative=1","route_id":"r1","route_name":"第1段"},{"name":"普仁动物医院","address":"青龙路149号","phone":"023-55221120;17308345670","category":"医疗保健服务;动物医疗场所;宠物诊所","area":"青龙","lng":108.697252,"lat":30.927607,"amap_id":"B0HA4CR5FF","order":9,"prev_distance_km":1.57,"cumulative_distance_km":39.0,"amap_marker_url":"https://uri.amap.com/marker?position=108.697252,30.927607&name=%E6%99%AE%E4%BB%81%E5%8A%A8%E7%89%A9%E5%8C%BB%E9%99%A2&src=vetmap&coordinate=gaode&callnative=1","route_id":"r1","route_name":"第1段"},{"name":"瑞宠动物医院(大雁路店)","address":"云江大道与大雁路交叉口西160米","phone":"023-55686120;15823001749;18512311528","category":"医疗保健服务;动物医疗场所;宠物诊所","area":"","lng":108.697147,"lat":30.93251,"amap_id":"B0HKG1JFEY","order":10,"prev_distance_km":0.545,"cumulative_distance_km":39.545,"amap_marker_url":"https://uri.amap.com/marker?position=108.697147,30.932510&name=%E7%91%9E%E5%AE%A0%E5%8A%A8%E7%89%A9%E5%8C%BB%E9%99%A2%28%E5%A4%A7%E9%9B%81%E8%B7%AF%E5%BA%97%29&src=vetmap&coordinate=gaode&callnative=1","route_id":"r1","route_name":"第1段"},{"name":"朱记兽药","address":"龙脊岭公园北门西120米","phone":"","category":"医疗保健服务;动物医疗场所;宠物诊所","area":"","lng":108.686032,"lat":30.941217,"amap_id":"B0FFFPU60Z","order":11,"prev_distance_km":1.436,"cumulative_distance_km":40.981,"amap_marker_url":"https://uri.amap.com/marker?position=108.686032,30.941217&name=%E6%9C%B1%E8%AE%B0%E5%85%BD%E8%8D%AF&src=vetmap&coordinate=gaode&callnative=1","route_id":"r1","route_name":"第1段"}]}],"rows":[{"name":"云阳县红狮镇畜牧兽医站","address":"红康路一巷8号","phone":"","category":"医疗保健服务;动物医疗场所;兽医站","area":"","lng":109.026672,"lat":30.983222,"amap_id":"B0JABRUCQ1","order":1,"prev_distance_km":0.0,"cumulative_distance_km":0.0,"amap_marker_url":"https://uri.amap.com/marker?position=109.026672,30.983222&name=%E4%BA%91%E9%98%B3%E5%8E%BF%E7%BA%A2%E7%8B%AE%E9%95%87%E7%95%9C%E7%89%A7%E5%85%BD%E5%8C%BB%E7%AB%99&src=vetmap&coordinate=gaode&callnative=1","route_id":"r1","route_name":"第1段","global_order":1},{"name":"叶春饲料经营部","address":"玉皇路与堰丰路交叉口东80米","phone":"13330320868","category":"医疗保健服务;动物医疗场所;兽医站","area":"","lng":108.80573,"lat":30.887139,"amap_id":"B0I39CZRF1","order":2,"prev_distance_km":23.627,"cumulative_distance_km":23.627,"amap_marker_url":"https://uri.amap.com/marker?position=108.805730,30.887139&name=%E5%8F%B6%E6%98%A5%E9%A5%B2%E6%96%99%E7%BB%8F%E8%90%A5%E9%83%A8&src=vetmap&coordinate=gaode&callnative=1","route_id":"r1","route_name":"第1段","global_order":2},{"name":"科代表动物诊疗中心","address":"金科世界城口福街68幢101号2楼(1号门旁边)","phone":"13320305732","category":"医疗保健服务;动物医疗场所;宠物诊所","area":"","lng":108.73225,"lat":30.927354,"amap_id":"B0JAGSACIK","order":3,"prev_distance_km":8.315,"cumulative_distance_km":31.942,"amap_marker_url":"https://uri.amap.com/marker?position=108.732250,30.927354&name=%E7%A7%91%E4%BB%A3%E8%A1%A8%E5%8A%A8%E7%89%A9%E8%AF%8A%E7%96%97%E4%B8%AD%E5%BF%83&src=vetmap&coordinate=gaode&callnative=1","route_id":"r1","route_name":"第1段","global_order":3},{"name":"厚朴动物诊所","address":"金科世界城56幢115门市","phone":"15923597955","category":"医疗保健服务;动物医疗场所;宠物诊所","area":"","lng":108.733201,"lat":30.929878,"amap_id":"B0J64H7NHY","order":4,"prev_distance_km":0.295,"cumulative_distance_km":32.237,"amap_marker_url":"https://uri.amap.com/marker?position=108.733201,30.929878&name=%E5%8E%9A%E6%9C%B4%E5%8A%A8%E7%89%A9%E8%AF%8A%E6%89%80&src=vetmap&coordinate=gaode&callnative=1","route_id":"r1","route_name":"第1段","global_order":4},{"name":"云尚动物医院","address":"双江街道北城大道558号依山郡5幢商业门市1-17号","phone":"023-55360120","category":"医疗保健服务;动物医疗场所;宠物诊所","area":"","lng":108.720413,"lat":30.945836,"amap_id":"B0FFK8I905","order":5,"prev_distance_km":2.153,"cumulative_distance_km":34.39,"amap_marker_url":"https://uri.amap.com/marker?position=108.720413,30.945836&name=%E4%BA%91%E5%B0%9A%E5%8A%A8%E7%89%A9%E5%8C%BB%E9%99%A2&src=vetmap&coordinate=gaode&callnative=1","route_id":"r1","route_name":"第1段","global_order":5},{"name":"宠大帅猫狗洗美活体用品销售(云阳世纪星辉店)","address":"北城大道188号附3-1-5","phone":"19132308995","category":"医疗保健服务;动物医疗场所;宠物诊所","area":"","lng":108.714234,"lat":30.940591,"amap_id":"B0KDF78L30","order":6,"prev_distance_km":0.829,"cumulative_distance_km":35.219,"amap_marker_url":"https://uri.amap.com/marker?position=108.714234,30.940591&name=%E5%AE%A0%E5%A4%A7%E5%B8%85%E7%8C%AB%E7%8B%97%E6%B4%97%E7%BE%8E%E6%B4%BB%E4%BD%93%E7%94%A8%E5%93%81%E9%94%80%E5%94%AE%28%E4%BA%91%E9%98%B3%E4%B8%96%E7%BA%AA%E6%98%9F%E8%BE%89%E5%BA%97%29&src=vetmap&coordinate=gaode&callnative=1","route_id":"r1","route_name":"第1段","global_order":6},{"name":"瑞宠动物诊所","address":"丽江景苑东北侧210米","phone":"","category":"医疗保健服务;动物医疗场所;宠物诊所","area":"青龙","lng":108.711197,"lat":30.922587,"amap_id":"B0JU419YFV","order":7,"prev_distance_km":2.023,"cumulative_distance_km":37.242,"amap_marker_url":"https://uri.amap.com/marker?position=108.711197,30.922587&name=%E7%91%9E%E5%AE%A0%E5%8A%A8%E7%89%A9%E8%AF%8A%E6%89%80&src=vetmap&coordinate=gaode&callnative=1","route_id":"r1","route_name":"第1段","global_order":7},{"name":"佳有宠物诊疗中心","address":"滨江大道654号附4号","phone":"13896332567","category":"医疗保健服务;动物医疗场所;宠物诊所","area":"青龙","lng":108.711787,"lat":30.920977,"amap_id":"B0IGOHIPCV","order":8,"prev_distance_km":0.188,"cumulative_distance_km":37.429,"amap_marker_url":"https://uri.amap.com/marker?position=108.711787,30.920977&name=%E4%BD%B3%E6%9C%89%E5%AE%A0%E7%89%A9%E8%AF%8A%E7%96%97%E4%B8%AD%E5%BF%83&src=vetmap&coordinate=gaode&callnative=1","route_id":"r1","route_name":"第1段","global_order":8},{"name":"普仁动物医院","address":"青龙路149号","phone":"023-55221120;17308345670","category":"医疗保健服务;动物医疗场所;宠物诊所","area":"青龙","lng":108.697252,"lat":30.927607,"amap_id":"B0HA4CR5FF","order":9,"prev_distance_km":1.57,"cumulative_distance_km":39.0,"amap_marker_url":"https://uri.amap.com/marker?position=108.697252,30.927607&name=%E6%99%AE%E4%BB%81%E5%8A%A8%E7%89%A9%E5%8C%BB%E9%99%A2&src=vetmap&coordinate=gaode&callnative=1","route_id":"r1","route_name":"第1段","global_order":9},{"name":"瑞宠动物医院(大雁路店)","address":"云江大道与大雁路交叉口西160米","phone":"023-55686120;15823001749;18512311528","category":"医疗保健服务;动物医疗场所;宠物诊所","area":"","lng":108.697147,"lat":30.93251,"amap_id":"B0HKG1JFEY","order":10,"prev_distance_km":0.545,"cumulative_distance_km":39.545,"amap_marker_url":"https://uri.amap.com/marker?position=108.697147,30.932510&name=%E7%91%9E%E5%AE%A0%E5%8A%A8%E7%89%A9%E5%8C%BB%E9%99%A2%28%E5%A4%A7%E9%9B%81%E8%B7%AF%E5%BA%97%29&src=vetmap&coordinate=gaode&callnative=1","route_id":"r1","route_name":"第1段","global_order":10},{"name":"朱记兽药","address":"龙脊岭公园北门西120米","phone":"","category":"医疗保健服务;动物医疗场所;宠物诊所","area":"","lng":108.686032,"lat":30.941217,"amap_id":"B0FFFPU60Z","order":11,"prev_distance_km":1.436,"cumulative_distance_km":40.981,"amap_marker_url":"https://uri.amap.com/marker?position=108.686032,30.941217&name=%E6%9C%B1%E8%AE%B0%E5%85%BD%E8%8D%AF&src=vetmap&coordinate=gaode&callnative=1","route_id":"r1","route_name":"第1段","global_order":11}]}