{"summary":{"id":"d02402","province":"贵州省","city":"毕节市","district":"大方县","count":8,"route_count":1,"max_route_clinics":8,"total_distance_km":49.067,"coordinate_system":"GCJ-02 / Amap","generated_at":"2026-05-07 21:30:35"},"routes":[{"id":"r1","name":"第1段","count":8,"total_distance_km":49.067,"rows":[{"name":"仁和动物诊所","address":"文阁乡派出所下行500米","phone":"13984739388","category":"医疗保健服务;动物医疗场所;宠物诊所","area":"","lng":105.458531,"lat":27.175382,"amap_id":"B0FFL23PSX","order":1,"prev_distance_km":0.0,"cumulative_distance_km":0.0,"amap_marker_url":"https://uri.amap.com/marker?position=105.458531,27.175382&name=%E4%BB%81%E5%92%8C%E5%8A%A8%E7%89%A9%E8%AF%8A%E6%89%80&src=vetmap&coordinate=gaode&callnative=1","route_id":"r1","route_name":"第1段"},{"name":"佩恩宠物诊所","address":"绅达国际豪庭A2栋17-18号","phone":"","category":"医疗保健服务;动物医疗场所;宠物诊所","area":"","lng":105.59454,"lat":27.152939,"amap_id":"B0JRFRUG4I","order":2,"prev_distance_km":13.685,"cumulative_distance_km":13.685,"amap_marker_url":"https://uri.amap.com/marker?position=105.594540,27.152939&name=%E4%BD%A9%E6%81%A9%E5%AE%A0%E7%89%A9%E8%AF%8A%E6%89%80&src=vetmap&coordinate=gaode&callnative=1","route_id":"r1","route_name":"第1段"},{"name":"旭和宠物医院(大方店)","address":"红旗街道农商银行下方50米澜湾国际旭和宠物医院","phone":"19398455520","category":"医疗保健服务;动物医疗场所;宠物诊所","area":"","lng":105.593455,"lat":27.146775,"amap_id":"B0L1SLR55N","order":3,"prev_distance_km":0.694,"cumulative_distance_km":14.379,"amap_marker_url":"https://uri.amap.com/marker?position=105.593455,27.146775&name=%E6%97%AD%E5%92%8C%E5%AE%A0%E7%89%A9%E5%8C%BB%E9%99%A2%28%E5%A4%A7%E6%96%B9%E5%BA%97%29&src=vetmap&coordinate=gaode&callnative=1","route_id":"r1","route_name":"第1段"},{"name":"宠友记动物医院·心超·骨科·高压氧舱","address":"红旗街道书院街气象局上行100米","phone":"17588824777","category":"医疗保健服务;动物医疗场所;宠物诊所","area":"西大街","lng":105.604625,"lat":27.145261,"amap_id":"B0JGH6OVF1","order":4,"prev_distance_km":1.118,"cumulative_distance_km":15.497,"amap_marker_url":"https://uri.amap.com/marker?position=105.604625,27.145261&name=%E5%AE%A0%E5%8F%8B%E8%AE%B0%E5%8A%A8%E7%89%A9%E5%8C%BB%E9%99%A2%C2%B7%E5%BF%83%E8%B6%85%C2%B7%E9%AA%A8%E7%A7%91%C2%B7%E9%AB%98%E5%8E%8B%E6%B0%A7%E8%88%B1&src=vetmap&coordinate=gaode&callnative=1","route_id":"r1","route_name":"第1段"},{"name":"宠物医院","address":"莲花酒楼","phone":"","category":"医疗保健服务;动物医疗场所;宠物诊所","area":"西大街","lng":105.605222,"lat":27.145254,"amap_id":"B0KUFK4MN6","order":5,"prev_distance_km":0.059,"cumulative_distance_km":15.556,"amap_marker_url":"https://uri.amap.com/marker?position=105.605222,27.145254&name=%E5%AE%A0%E7%89%A9%E5%8C%BB%E9%99%A2&src=vetmap&coordinate=gaode&callnative=1","route_id":"r1","route_name":"第1段"},{"name":"哇唔宠森动物医院","address":"平安大街与人民南路交叉口西340米","phone":"13908579497","category":"医疗保健服务;动物医疗场所;宠物诊所","area":"红旗","lng":105.608395,"lat":27.140603,"amap_id":"B0L1P43DC6","order":6,"prev_distance_km":0.605,"cumulative_distance_km":16.161,"amap_marker_url":"https://uri.amap.com/marker?position=105.608395,27.140603&name=%E5%93%87%E5%94%94%E5%AE%A0%E6%A3%AE%E5%8A%A8%E7%89%A9%E5%8C%BB%E9%99%A2&src=vetmap&coordinate=gaode&callnative=1","route_id":"r1","route_name":"第1段"},{"name":"大方县张新义兽药店","address":"理化小学东侧260米","phone":"","category":"医疗保健服务;动物医疗场所;动物医疗场所","area":"","lng":105.663825,"lat":27.035175,"amap_id":"B0L3ASSB5D","order":7,"prev_distance_km":12.944,"cumulative_distance_km":29.105,"amap_marker_url":"https://uri.amap.com/marker?position=105.663825,27.035175&name=%E5%A4%A7%E6%96%B9%E5%8E%BF%E5%BC%A0%E6%96%B0%E4%B9%89%E5%85%BD%E8%8D%AF%E5%BA%97&src=vetmap&coordinate=gaode&callnative=1","route_id":"r1","route_name":"第1段"},{"name":"熊浩兽药店","address":"712县道与文化路交叉口西南220米","phone":"","category":"医疗保健服务;动物医疗场所;动物医疗场所","area":"","lng":105.486932,"lat":26.949249,"amap_id":"B0LDP701G0","order":8,"prev_distance_km":19.962,"cumulative_distance_km":49.067,"amap_marker_url":"https://uri.amap.com/marker?position=105.486932,26.949249&name=%E7%86%8A%E6%B5%A9%E5%85%BD%E8%8D%AF%E5%BA%97&src=vetmap&coordinate=gaode&callnative=1","route_id":"r1","route_name":"第1段"}]}],"rows":[{"name":"仁和动物诊所","address":"文阁乡派出所下行500米","phone":"13984739388","category":"医疗保健服务;动物医疗场所;宠物诊所","area":"","lng":105.458531,"lat":27.175382,"amap_id":"B0FFL23PSX","order":1,"prev_distance_km":0.0,"cumulative_distance_km":0.0,"amap_marker_url":"https://uri.amap.com/marker?position=105.458531,27.175382&name=%E4%BB%81%E5%92%8C%E5%8A%A8%E7%89%A9%E8%AF%8A%E6%89%80&src=vetmap&coordinate=gaode&callnative=1","route_id":"r1","route_name":"第1段","global_order":1},{"name":"佩恩宠物诊所","address":"绅达国际豪庭A2栋17-18号","phone":"","category":"医疗保健服务;动物医疗场所;宠物诊所","area":"","lng":105.59454,"lat":27.152939,"amap_id":"B0JRFRUG4I","order":2,"prev_distance_km":13.685,"cumulative_distance_km":13.685,"amap_marker_url":"https://uri.amap.com/marker?position=105.594540,27.152939&name=%E4%BD%A9%E6%81%A9%E5%AE%A0%E7%89%A9%E8%AF%8A%E6%89%80&src=vetmap&coordinate=gaode&callnative=1","route_id":"r1","route_name":"第1段","global_order":2},{"name":"旭和宠物医院(大方店)","address":"红旗街道农商银行下方50米澜湾国际旭和宠物医院","phone":"19398455520","category":"医疗保健服务;动物医疗场所;宠物诊所","area":"","lng":105.593455,"lat":27.146775,"amap_id":"B0L1SLR55N","order":3,"prev_distance_km":0.694,"cumulative_distance_km":14.379,"amap_marker_url":"https://uri.amap.com/marker?position=105.593455,27.146775&name=%E6%97%AD%E5%92%8C%E5%AE%A0%E7%89%A9%E5%8C%BB%E9%99%A2%28%E5%A4%A7%E6%96%B9%E5%BA%97%29&src=vetmap&coordinate=gaode&callnative=1","route_id":"r1","route_name":"第1段","global_order":3},{"name":"宠友记动物医院·心超·骨科·高压氧舱","address":"红旗街道书院街气象局上行100米","phone":"17588824777","category":"医疗保健服务;动物医疗场所;宠物诊所","area":"西大街","lng":105.604625,"lat":27.145261,"amap_id":"B0JGH6OVF1","order":4,"prev_distance_km":1.118,"cumulative_distance_km":15.497,"amap_marker_url":"https://uri.amap.com/marker?position=105.604625,27.145261&name=%E5%AE%A0%E5%8F%8B%E8%AE%B0%E5%8A%A8%E7%89%A9%E5%8C%BB%E9%99%A2%C2%B7%E5%BF%83%E8%B6%85%C2%B7%E9%AA%A8%E7%A7%91%C2%B7%E9%AB%98%E5%8E%8B%E6%B0%A7%E8%88%B1&src=vetmap&coordinate=gaode&callnative=1","route_id":"r1","route_name":"第1段","global_order":4},{"name":"宠物医院","address":"莲花酒楼","phone":"","category":"医疗保健服务;动物医疗场所;宠物诊所","area":"西大街","lng":105.605222,"lat":27.145254,"amap_id":"B0KUFK4MN6","order":5,"prev_distance_km":0.059,"cumulative_distance_km":15.556,"amap_marker_url":"https://uri.amap.com/marker?position=105.605222,27.145254&name=%E5%AE%A0%E7%89%A9%E5%8C%BB%E9%99%A2&src=vetmap&coordinate=gaode&callnative=1","route_id":"r1","route_name":"第1段","global_order":5},{"name":"哇唔宠森动物医院","address":"平安大街与人民南路交叉口西340米","phone":"13908579497","category":"医疗保健服务;动物医疗场所;宠物诊所","area":"红旗","lng":105.608395,"lat":27.140603,"amap_id":"B0L1P43DC6","order":6,"prev_distance_km":0.605,"cumulative_distance_km":16.161,"amap_marker_url":"https://uri.amap.com/marker?position=105.608395,27.140603&name=%E5%93%87%E5%94%94%E5%AE%A0%E6%A3%AE%E5%8A%A8%E7%89%A9%E5%8C%BB%E9%99%A2&src=vetmap&coordinate=gaode&callnative=1","route_id":"r1","route_name":"第1段","global_order":6},{"name":"大方县张新义兽药店","address":"理化小学东侧260米","phone":"","category":"医疗保健服务;动物医疗场所;动物医疗场所","area":"","lng":105.663825,"lat":27.035175,"amap_id":"B0L3ASSB5D","order":7,"prev_distance_km":12.944,"cumulative_distance_km":29.105,"amap_marker_url":"https://uri.amap.com/marker?position=105.663825,27.035175&name=%E5%A4%A7%E6%96%B9%E5%8E%BF%E5%BC%A0%E6%96%B0%E4%B9%89%E5%85%BD%E8%8D%AF%E5%BA%97&src=vetmap&coordinate=gaode&callnative=1","route_id":"r1","route_name":"第1段","global_order":7},{"name":"熊浩兽药店","address":"712县道与文化路交叉口西南220米","phone":"","category":"医疗保健服务;动物医疗场所;动物医疗场所","area":"","lng":105.486932,"lat":26.949249,"amap_id":"B0LDP701G0","order":8,"prev_distance_km":19.962,"cumulative_distance_km":49.067,"amap_marker_url":"https://uri.amap.com/marker?position=105.486932,26.949249&name=%E7%86%8A%E6%B5%A9%E5%85%BD%E8%8D%AF%E5%BA%97&src=vetmap&coordinate=gaode&callnative=1","route_id":"r1","route_name":"第1段","global_order":8}]}