{"summary":{"id":"d02424","province":"贵州省","city":"遵义市","district":"播州区","count":15,"total_distance_km":107.741,"coordinate_system":"GCJ-02 / Amap","generated_at":"2026-05-07 20:24:13"},"rows":[{"name":"梁氏家畜诊疗所","address":"洪关乡小坝场村下田坝红砖围墙路口处","phone":"","category":"医疗保健服务;动物医疗场所;兽医站","area":"","lng":106.315793,"lat":27.599182,"amap_id":"B0KK27745Z","order":1,"prev_distance_km":0.0,"cumulative_distance_km":0.0,"amap_marker_url":"https://uri.amap.com/marker?position=106.315793,27.599182&name=%E6%A2%81%E6%B0%8F%E5%AE%B6%E7%95%9C%E8%AF%8A%E7%96%97%E6%89%80&src=vetmap&coordinate=gaode&callnative=1"},{"name":"百川宠物医院","address":"保利未来城市32栋楼下门面","phone":"13511885616","category":"医疗保健服务;动物医疗场所;宠物诊所","area":"保利","lng":106.872072,"lat":27.620524,"amap_id":"B0GR1UY0X6","order":2,"prev_distance_km":54.863,"cumulative_distance_km":54.863,"amap_marker_url":"https://uri.amap.com/marker?position=106.872072,27.620524&name=%E7%99%BE%E5%B7%9D%E5%AE%A0%E7%89%A9%E5%8C%BB%E9%99%A2&src=vetmap&coordinate=gaode&callnative=1"},{"name":"遵义众生合动物医院","address":"保利社区A2地块3栋1-5号","phone":"0851-27621120;18085264226;18285006120","category":"医疗保健服务;动物医疗场所;宠物诊所","area":"保利","lng":106.875815,"lat":27.616435,"amap_id":"B0JBOZI20I","order":3,"prev_distance_km":0.585,"cumulative_distance_km":55.448,"amap_marker_url":"https://uri.amap.com/marker?position=106.875815,27.616435&name=%E9%81%B5%E4%B9%89%E4%BC%97%E7%94%9F%E5%90%88%E5%8A%A8%E7%89%A9%E5%8C%BB%E9%99%A2&src=vetmap&coordinate=gaode&callnative=1"},{"name":"播州区龙坑街道翻羽动物防疫专业合作社","address":"龙兴街111号共青小区20栋","phone":"","category":"医疗保健服务;动物医疗场所;动物医疗场所","area":"","lng":106.857077,"lat":27.586913,"amap_id":"B0J1JSP5R8","order":4,"prev_distance_km":3.766,"cumulative_distance_km":59.215,"amap_marker_url":"https://uri.amap.com/marker?position=106.857077,27.586913&name=%E6%92%AD%E5%B7%9E%E5%8C%BA%E9%BE%99%E5%9D%91%E8%A1%97%E9%81%93%E7%BF%BB%E7%BE%BD%E5%8A%A8%E7%89%A9%E9%98%B2%E7%96%AB%E4%B8%93%E4%B8%9A%E5%90%88%E4%BD%9C%E7%A4%BE&src=vetmap&coordinate=gaode&callnative=1"},{"name":"伴侣动物诊疗","address":"马家湾天赐阳光AB栋A2-10号","phone":"18275039430","category":"医疗保健服务;动物医疗场所;宠物诊所","area":"","lng":106.856489,"lat":27.584571,"amap_id":"B0FFKR0KUP","order":5,"prev_distance_km":0.267,"cumulative_distance_km":59.482,"amap_marker_url":"https://uri.amap.com/marker?position=106.856489,27.584571&name=%E4%BC%B4%E4%BE%A3%E5%8A%A8%E7%89%A9%E8%AF%8A%E7%96%97&src=vetmap&coordinate=gaode&callnative=1"},{"name":"诊希宠物诊所","address":"蓝水湾西门东北60米","phone":"","category":"医疗保健服务;动物医疗场所;宠物诊所","area":"","lng":106.856828,"lat":27.581947,"amap_id":"B0M69M8S4C","order":6,"prev_distance_km":0.294,"cumulative_distance_km":59.775,"amap_marker_url":"https://uri.amap.com/marker?position=106.856828,27.581947&name=%E8%AF%8A%E5%B8%8C%E5%AE%A0%E7%89%A9%E8%AF%8A%E6%89%80&src=vetmap&coordinate=gaode&callnative=1"},{"name":"康宠动物诊疗","address":"紫郡苑A区西门东北50米","phone":"18785116137","category":"医疗保健服务;动物医疗场所;宠物诊所","area":"","lng":106.849275,"lat":27.576829,"amap_id":"B0FFIN5YHX","order":7,"prev_distance_km":0.937,"cumulative_distance_km":60.712,"amap_marker_url":"https://uri.amap.com/marker?position=106.849275,27.576829&name=%E5%BA%B7%E5%AE%A0%E5%8A%A8%E7%89%A9%E8%AF%8A%E7%96%97&src=vetmap&coordinate=gaode&callnative=1"},{"name":"遵义元亨利动物医院(播州分院)","address":"万寿北街464号","phone":"17848501053","category":"医疗保健服务;动物医疗场所;宠物诊所","area":"","lng":106.83946,"lat":27.551231,"amap_id":"B0LD6HETZ1","order":8,"prev_distance_km":3.006,"cumulative_distance_km":63.719,"amap_marker_url":"https://uri.amap.com/marker?position=106.839460,27.551231&name=%E9%81%B5%E4%B9%89%E5%85%83%E4%BA%A8%E5%88%A9%E5%8A%A8%E7%89%A9%E5%8C%BB%E9%99%A2%28%E6%92%AD%E5%B7%9E%E5%88%86%E9%99%A2%29&src=vetmap&coordinate=gaode&callnative=1"},{"name":"福莱鑫宠物诊疗中心(南白店)","address":"遵南社区佳苑小区3号","phone":"18984913568","category":"医疗保健服务;动物医疗场所;宠物诊所","area":"","lng":106.836717,"lat":27.546272,"amap_id":"B0KB3S1TJ1","order":9,"prev_distance_km":0.614,"cumulative_distance_km":64.333,"amap_marker_url":"https://uri.amap.com/marker?position=106.836717,27.546272&name=%E7%A6%8F%E8%8E%B1%E9%91%AB%E5%AE%A0%E7%89%A9%E8%AF%8A%E7%96%97%E4%B8%AD%E5%BF%83%28%E5%8D%97%E7%99%BD%E5%BA%97%29&src=vetmap&coordinate=gaode&callnative=1"},{"name":"福州宠物诊所","address":"三八快捷酒店西门旁","phone":"","category":"医疗保健服务;动物医疗场所;宠物诊所","area":"人民西路","lng":106.831156,"lat":27.538405,"amap_id":"B0HK3HMWC5","order":10,"prev_distance_km":1.032,"cumulative_distance_km":65.365,"amap_marker_url":"https://uri.amap.com/marker?position=106.831156,27.538405&name=%E7%A6%8F%E5%B7%9E%E5%AE%A0%E7%89%A9%E8%AF%8A%E6%89%80&src=vetmap&coordinate=gaode&callnative=1"},{"name":"百川宠物诊所","address":"南白扬州恬苑侧门,象山公园门口往下50米处(中医院文明小区对面)","phone":"18785206433","category":"医疗保健服务;动物医疗场所;宠物诊所","area":"","lng":106.827521,"lat":27.531792,"amap_id":"B0HK35NJDJ","order":11,"prev_distance_km":0.818,"cumulative_distance_km":66.183,"amap_marker_url":"https://uri.amap.com/marker?position=106.827521,27.531792&name=%E7%99%BE%E5%B7%9D%E5%AE%A0%E7%89%A9%E8%AF%8A%E6%89%80&src=vetmap&coordinate=gaode&callnative=1"},{"name":"宠爱宠物诊所","address":"扬州恬苑东区东南门旁","phone":"18984981010","category":"医疗保健服务;动物医疗场所;宠物诊所","area":"","lng":106.827558,"lat":27.530713,"amap_id":"B0I6H733GJ","order":12,"prev_distance_km":0.12,"cumulative_distance_km":66.303,"amap_marker_url":"https://uri.amap.com/marker?position=106.827558,27.530713&name=%E5%AE%A0%E7%88%B1%E5%AE%A0%E7%89%A9%E8%AF%8A%E6%89%80&src=vetmap&coordinate=gaode&callnative=1"},{"name":"毛老公宠兽诊所","address":"尚嵇镇老街印象6栋负1层","phone":"13385128562","category":"医疗保健服务;动物医疗场所;宠物诊所","area":"","lng":106.968509,"lat":27.377632,"amap_id":"B0M6HCAWMK","order":13,"prev_distance_km":21.981,"cumulative_distance_km":88.284,"amap_marker_url":"https://uri.amap.com/marker?position=106.968509,27.377632&name=%E6%AF%9B%E8%80%81%E5%85%AC%E5%AE%A0%E5%85%BD%E8%AF%8A%E6%89%80&src=vetmap&coordinate=gaode&callnative=1"},{"name":"茅栗畜牧技术服务站","address":"176乡道与008乡道交叉口西南380米","phone":"","category":"医疗保健服务;动物医疗场所;动物医疗场所","area":"","lng":107.027927,"lat":27.403326,"amap_id":"B0LBMLXH1A","order":14,"prev_distance_km":6.525,"cumulative_distance_km":94.809,"amap_marker_url":"https://uri.amap.com/marker?position=107.027927,27.403326&name=%E8%8C%85%E6%A0%97%E7%95%9C%E7%89%A7%E6%8A%80%E6%9C%AF%E6%9C%8D%E5%8A%A1%E7%AB%99&src=vetmap&coordinate=gaode&callnative=1"},{"name":"遵义县团溪镇畜牧兽医站","address":"177乡道与幸福路交叉口东北380米","phone":"","category":"医疗保健服务;动物医疗场所;兽医站","area":"","lng":107.134792,"lat":27.470622,"amap_id":"B0IDOZX2Z0","order":15,"prev_distance_km":12.931,"cumulative_distance_km":107.741,"amap_marker_url":"https://uri.amap.com/marker?position=107.134792,27.470622&name=%E9%81%B5%E4%B9%89%E5%8E%BF%E5%9B%A2%E6%BA%AA%E9%95%87%E7%95%9C%E7%89%A7%E5%85%BD%E5%8C%BB%E7%AB%99&src=vetmap&coordinate=gaode&callnative=1"}]}