{"summary":{"id":"d02409","province":"贵州省","city":"贵阳市","district":"乌当区","count":8,"total_distance_km":7.309,"coordinate_system":"GCJ-02 / Amap","generated_at":"2026-05-07 20:24:10"},"rows":[{"name":"康诺24H动物医院·急重症转诊中心(保利总院)","address":"顺海中路88号保利温泉四期2栋18-20号(为明学校)","phone":"0851-86205120;18166794120","category":"医疗保健服务;动物医疗场所;宠物诊所","area":"","lng":106.754965,"lat":26.613907,"amap_id":"B0LGRD9ZDZ","order":1,"prev_distance_km":0.0,"cumulative_distance_km":0.0,"amap_marker_url":"https://uri.amap.com/marker?position=106.754965,26.613907&name=%E5%BA%B7%E8%AF%BA24H%E5%8A%A8%E7%89%A9%E5%8C%BB%E9%99%A2%C2%B7%E6%80%A5%E9%87%8D%E7%97%87%E8%BD%AC%E8%AF%8A%E4%B8%AD%E5%BF%83%28%E4%BF%9D%E5%88%A9%E6%80%BB%E9%99%A2%29&src=vetmap&coordinate=gaode&callnative=1"},{"name":"宠安堂宠物服务","address":"新光路恒大雅苑6栋二层2号外面右转上坡","phone":"","category":"医疗保健服务;动物医疗场所;宠物诊所","area":"","lng":106.74417,"lat":26.62667,"amap_id":"B0LK29RZF6","order":2,"prev_distance_km":1.779,"cumulative_distance_km":1.779,"amap_marker_url":"https://uri.amap.com/marker?position=106.744170,26.626670&name=%E5%AE%A0%E5%AE%89%E5%A0%82%E5%AE%A0%E7%89%A9%E6%9C%8D%E5%8A%A1&src=vetmap&coordinate=gaode&callnative=1"},{"name":"贵州智宠康动物医院","address":"大坡路(顺海地铁站B口步行490米)","phone":"13078574120","category":"医疗保健服务;动物医疗场所;宠物诊所","area":"","lng":106.748498,"lat":26.626703,"amap_id":"B0L3GUH3WJ","order":3,"prev_distance_km":0.43,"cumulative_distance_km":2.209,"amap_marker_url":"https://uri.amap.com/marker?position=106.748498,26.626703&name=%E8%B4%B5%E5%B7%9E%E6%99%BA%E5%AE%A0%E5%BA%B7%E5%8A%A8%E7%89%A9%E5%8C%BB%E9%99%A2&src=vetmap&coordinate=gaode&callnative=1"},{"name":"贵阳黔程动物医院","address":"新天大道北段蓝波湾新天卫城银庄老房子街区负一层","phone":"18111870120","category":"医疗保健服务;动物医疗场所;宠物诊所","area":"新添寨","lng":106.76476,"lat":26.63231,"amap_id":"B0I6CSLHUS","order":4,"prev_distance_km":1.733,"cumulative_distance_km":3.942,"amap_marker_url":"https://uri.amap.com/marker?position=106.764760,26.632310&name=%E8%B4%B5%E9%98%B3%E9%BB%94%E7%A8%8B%E5%8A%A8%E7%89%A9%E5%8C%BB%E9%99%A2&src=vetmap&coordinate=gaode&callnative=1"},{"name":"吉祥宠物医院(乌当店)","address":"温泉南路温泉花园6号","phone":"18286164980","category":"医疗保健服务;动物医疗场所;宠物诊所","area":"新添寨","lng":106.768114,"lat":26.628006,"amap_id":"B0FFINA6PV","order":5,"prev_distance_km":0.583,"cumulative_distance_km":4.525,"amap_marker_url":"https://uri.amap.com/marker?position=106.768114,26.628006&name=%E5%90%89%E7%A5%A5%E5%AE%A0%E7%89%A9%E5%8C%BB%E9%99%A2%28%E4%B9%8C%E5%BD%93%E5%BA%97%29&src=vetmap&coordinate=gaode&callnative=1"},{"name":"道恩吉尔动物医院(乌当院)","address":"新创路25号(新添地铁站A口步行450米)","phone":"0851-86848198;17784901913","category":"医疗保健服务;动物医疗场所;宠物诊所","area":"新添寨","lng":106.772207,"lat":26.631584,"amap_id":"B0IRV7T8H3","order":6,"prev_distance_km":0.569,"cumulative_distance_km":5.094,"amap_marker_url":"https://uri.amap.com/marker?position=106.772207,26.631584&name=%E9%81%93%E6%81%A9%E5%90%89%E5%B0%94%E5%8A%A8%E7%89%A9%E5%8C%BB%E9%99%A2%28%E4%B9%8C%E5%BD%93%E9%99%A2%29&src=vetmap&coordinate=gaode&callnative=1"},{"name":"派瑞宠物诊所","address":"新添大道北段177号锦嘉汇景城回迁房19栋","phone":"17585442054;18076149505","category":"医疗保健服务;动物医疗场所;宠物诊所","area":"新添寨","lng":106.775837,"lat":26.636327,"amap_id":"B0FFL4XT89","order":7,"prev_distance_km":0.639,"cumulative_distance_km":5.733,"amap_marker_url":"https://uri.amap.com/marker?position=106.775837,26.636327&name=%E6%B4%BE%E7%91%9E%E5%AE%A0%E7%89%A9%E8%AF%8A%E6%89%80&src=vetmap&coordinate=gaode&callnative=1"},{"name":"贝心安动物医院","address":"航天路保利公园2010一期1组团4区9号商业三段2层11","phone":"13618597964;13885178443","category":"医疗保健服务;动物医疗场所;宠物诊所","area":"","lng":106.765376,"lat":26.646971,"amap_id":"B0FFL9RUAO","order":8,"prev_distance_km":1.575,"cumulative_distance_km":7.309,"amap_marker_url":"https://uri.amap.com/marker?position=106.765376,26.646971&name=%E8%B4%9D%E5%BF%83%E5%AE%89%E5%8A%A8%E7%89%A9%E5%8C%BB%E9%99%A2&src=vetmap&coordinate=gaode&callnative=1"}]}