{"summary":{"id":"d02436","province":"贵州省","city":"铜仁市","district":"思南县","count":5,"total_distance_km":31.756,"coordinate_system":"GCJ-02 / Amap","generated_at":"2026-05-07 20:24:13"},"rows":[{"name":"任海军兽药店","address":"青杠坡镇中心卫生院东侧110米","phone":"","category":"医疗保健服务;动物医疗场所;动物医疗场所","area":"","lng":107.973433,"lat":27.838018,"amap_id":"B0KRKD8GC3","order":1,"prev_distance_km":0.0,"cumulative_distance_km":0.0,"amap_marker_url":"https://uri.amap.com/marker?position=107.973433,27.838018&name=%E4%BB%BB%E6%B5%B7%E5%86%9B%E5%85%BD%E8%8D%AF%E5%BA%97&src=vetmap&coordinate=gaode&callnative=1"},{"name":"许家坝镇兽防服务站","address":"许家坝镇新场北路26号(幼儿园对面)","phone":"","category":"医疗保健服务;动物医疗场所;兽医站","area":"","lng":108.107012,"lat":27.884895,"amap_id":"B0J6HCH11T","order":2,"prev_distance_km":14.128,"cumulative_distance_km":14.128,"amap_marker_url":"https://uri.amap.com/marker?position=108.107012,27.884895&name=%E8%AE%B8%E5%AE%B6%E5%9D%9D%E9%95%87%E5%85%BD%E9%98%B2%E6%9C%8D%E5%8A%A1%E7%AB%99&src=vetmap&coordinate=gaode&callnative=1"},{"name":"宠物医院","address":"思南县民政局婚姻登记处东侧80米","phone":"","category":"医疗保健服务;动物医疗场所;宠物诊所","area":"","lng":108.251579,"lat":27.944126,"amap_id":"B0J0T70G4G","order":3,"prev_distance_km":15.657,"cumulative_distance_km":29.786,"amap_marker_url":"https://uri.amap.com/marker?position=108.251579,27.944126&name=%E5%AE%A0%E7%89%A9%E5%8C%BB%E9%99%A2&src=vetmap&coordinate=gaode&callnative=1"},{"name":"宝尼动物医院","address":"府后街图书馆对面,草垛屋边上","phone":"","category":"医疗保健服务;动物医疗场所;宠物诊所","area":"","lng":108.252904,"lat":27.943344,"amap_id":"B0K0RBLW4Z","order":4,"prev_distance_km":0.157,"cumulative_distance_km":29.942,"amap_marker_url":"https://uri.amap.com/marker?position=108.252904,27.943344&name=%E5%AE%9D%E5%B0%BC%E5%8A%A8%E7%89%A9%E5%8C%BB%E9%99%A2&src=vetmap&coordinate=gaode&callnative=1"},{"name":"团结宠物医院","address":"城北大道971号","phone":"15885772694","category":"医疗保健服务;动物医疗场所;宠物诊所","area":"","lng":108.253796,"lat":27.95964,"amap_id":"B0L1ZSN7TD","order":5,"prev_distance_km":1.814,"cumulative_distance_km":31.756,"amap_marker_url":"https://uri.amap.com/marker?position=108.253796,27.959640&name=%E5%9B%A2%E7%BB%93%E5%AE%A0%E7%89%A9%E5%8C%BB%E9%99%A2&src=vetmap&coordinate=gaode&callnative=1"}]}