{"summary":{"id":"d02461","province":"贵州省","city":"黔南布依族苗族自治州","district":"福泉市","count":5,"total_distance_km":40.636,"coordinate_system":"GCJ-02 / Amap","generated_at":"2026-05-07 20:24:13"},"rows":[{"name":"嘉禾宠物诊所","address":"蟠龙大道与祥云大道交叉口北340米","phone":"17785040807","category":"医疗保健服务;动物医疗场所;宠物诊所","area":"","lng":107.454802,"lat":26.887022,"amap_id":"B0LDSAVGQF","order":1,"prev_distance_km":0.0,"cumulative_distance_km":0.0,"amap_marker_url":"https://uri.amap.com/marker?position=107.454802,26.887022&name=%E5%98%89%E7%A6%BE%E5%AE%A0%E7%89%A9%E8%AF%8A%E6%89%80&src=vetmap&coordinate=gaode&callnative=1"},{"name":"王招红宠物医院(福泉店)","address":"金域龙庭美食娱乐步行街西门旁","phone":"0854-2225823;18985082591","category":"医疗保健服务;动物医疗场所;宠物诊所","area":"","lng":107.518825,"lat":26.68822,"amap_id":"B0FFKHJFBG","order":2,"prev_distance_km":23.001,"cumulative_distance_km":23.001,"amap_marker_url":"https://uri.amap.com/marker?position=107.518825,26.688220&name=%E7%8E%8B%E6%8B%9B%E7%BA%A2%E5%AE%A0%E7%89%A9%E5%8C%BB%E9%99%A2%28%E7%A6%8F%E6%B3%89%E5%BA%97%29&src=vetmap&coordinate=gaode&callnative=1"},{"name":"福盼宠物医院","address":"双桥金山花苑1-42","phone":"19808546120","category":"医疗保健服务;动物医疗场所;宠物诊所","area":"","lng":107.514662,"lat":26.685525,"amap_id":"B0HAHCGI2V","order":3,"prev_distance_km":0.511,"cumulative_distance_km":23.512,"amap_marker_url":"https://uri.amap.com/marker?position=107.514662,26.685525&name=%E7%A6%8F%E7%9B%BC%E5%AE%A0%E7%89%A9%E5%8C%BB%E9%99%A2&src=vetmap&coordinate=gaode&callnative=1"},{"name":"五哥动物诊所","address":"马场坪亚历山花园","phone":"13985080437","category":"医疗保健服务;动物医疗场所;宠物诊所","area":"马场坪","lng":107.526605,"lat":26.628881,"amap_id":"B0FFLA9G09","order":4,"prev_distance_km":6.409,"cumulative_distance_km":29.921,"amap_marker_url":"https://uri.amap.com/marker?position=107.526605,26.628881&name=%E4%BA%94%E5%93%A5%E5%8A%A8%E7%89%A9%E8%AF%8A%E6%89%80&src=vetmap&coordinate=gaode&callnative=1"},{"name":"小刘兽药店","address":"大街路与910县道交叉口东280米","phone":"","category":"医疗保健服务;动物医疗场所;动物医疗场所","area":"","lng":107.634225,"lat":26.634375,"amap_id":"B0L315UUBA","order":5,"prev_distance_km":10.715,"cumulative_distance_km":40.636,"amap_marker_url":"https://uri.amap.com/marker?position=107.634225,26.634375&name=%E5%B0%8F%E5%88%98%E5%85%BD%E8%8D%AF%E5%BA%97&src=vetmap&coordinate=gaode&callnative=1"}]}