{"summary":{"id":"d02495","province":"重庆市","city":"重庆市","district":"梁平区","count":8,"route_count":1,"max_route_clinics":8,"total_distance_km":22.123,"coordinate_system":"GCJ-02 / Amap","generated_at":"2026-05-08 19:49:31"},"routes":[{"id":"r1","name":"第1段","count":8,"total_distance_km":22.123,"rows":[{"name":"宠康宠物医院","address":"紫竹大道4-37号","phone":"13519919638","category":"医疗保健服务;动物医疗场所;宠物诊所","area":"","lng":107.758942,"lat":30.647829,"amap_id":"B0LGL9PAN9","order":1,"prev_distance_km":0.0,"cumulative_distance_km":0.0,"amap_marker_url":"https://uri.amap.com/marker?position=107.758942,30.647829&name=%E5%AE%A0%E5%BA%B7%E5%AE%A0%E7%89%A9%E5%8C%BB%E9%99%A2&src=vetmap&coordinate=gaode&callnative=1","route_id":"r1","route_name":"第1段"},{"name":"小尾巴宠物乐园(峰亿·都市广场店)","address":"双桂街道文华路3号附26号","phone":"13340313030","category":"医疗保健服务;动物医疗场所;宠物诊所","area":"","lng":107.777821,"lat":30.655817,"amap_id":"B0FFKQST1X","order":2,"prev_distance_km":2.013,"cumulative_distance_km":2.013,"amap_marker_url":"https://uri.amap.com/marker?position=107.777821,30.655817&name=%E5%B0%8F%E5%B0%BE%E5%B7%B4%E5%AE%A0%E7%89%A9%E4%B9%90%E5%9B%AD%28%E5%B3%B0%E4%BA%BF%C2%B7%E9%83%BD%E5%B8%82%E5%B9%BF%E5%9C%BA%E5%BA%97%29&src=vetmap&coordinate=gaode&callnative=1","route_id":"r1","route_name":"第1段"},{"name":"泰阳动物医院","address":"双桂街道b5幢","phone":"18896173079;19115287215","category":"医疗保健服务;动物医疗场所;宠物诊所","area":"","lng":107.779322,"lat":30.656427,"amap_id":"B0IAV5KEMW","order":3,"prev_distance_km":0.159,"cumulative_distance_km":2.171,"amap_marker_url":"https://uri.amap.com/marker?position=107.779322,30.656427&name=%E6%B3%B0%E9%98%B3%E5%8A%A8%E7%89%A9%E5%8C%BB%E9%99%A2&src=vetmap&coordinate=gaode&callnative=1","route_id":"r1","route_name":"第1段"},{"name":"梁平爱派动物诊所","address":"西城路202号","phone":"13272522340","category":"医疗保健服务;动物医疗场所;宠物诊所","area":"","lng":107.784685,"lat":30.667037,"amap_id":"B0JR66D09P","order":4,"prev_distance_km":1.286,"cumulative_distance_km":3.458,"amap_marker_url":"https://uri.amap.com/marker?position=107.784685,30.667037&name=%E6%A2%81%E5%B9%B3%E7%88%B1%E6%B4%BE%E5%8A%A8%E7%89%A9%E8%AF%8A%E6%89%80&src=vetmap&coordinate=gaode&callnative=1","route_id":"r1","route_name":"第1段"},{"name":"梁平区动物医院","address":"机场路302号","phone":"18584798666","category":"医疗保健服务;动物医疗场所;宠物诊所","area":"","lng":107.797431,"lat":30.677664,"amap_id":"B0FFKP3Y55","order":5,"prev_distance_km":1.698,"cumulative_distance_km":5.156,"amap_marker_url":"https://uri.amap.com/marker?position=107.797431,30.677664&name=%E6%A2%81%E5%B9%B3%E5%8C%BA%E5%8A%A8%E7%89%A9%E5%8C%BB%E9%99%A2&src=vetmap&coordinate=gaode&callnative=1","route_id":"r1","route_name":"第1段"},{"name":"梁平小小动物诊所","address":"恒泰小区2幢10号","phone":"18996606129","category":"医疗保健服务;动物医疗场所;宠物诊所","area":"","lng":107.798644,"lat":30.677784,"amap_id":"B0FFHVQZW5","order":6,"prev_distance_km":0.117,"cumulative_distance_km":5.272,"amap_marker_url":"https://uri.amap.com/marker?position=107.798644,30.677784&name=%E6%A2%81%E5%B9%B3%E5%B0%8F%E5%B0%8F%E5%8A%A8%E7%89%A9%E8%AF%8A%E6%89%80&src=vetmap&coordinate=gaode&callnative=1","route_id":"r1","route_name":"第1段"},{"name":"社员之家","address":"机场路260号","phone":"","category":"医疗保健服务;动物医疗场所;兽医站","area":"","lng":107.798021,"lat":30.678046,"amap_id":"B0FFFZHVYI","order":7,"prev_distance_km":0.066,"cumulative_distance_km":5.339,"amap_marker_url":"https://uri.amap.com/marker?position=107.798021,30.678046&name=%E7%A4%BE%E5%91%98%E4%B9%8B%E5%AE%B6&src=vetmap&coordinate=gaode&callnative=1","route_id":"r1","route_name":"第1段"},{"name":"汪百军兽医门诊","address":"Z009与龙舟街交叉口西北220米","phone":"","category":"医疗保健服务;动物医疗场所;兽医站","area":"","lng":107.690775,"lat":30.797575,"amap_id":"B0MBP71VRM","order":8,"prev_distance_km":16.784,"cumulative_distance_km":22.123,"amap_marker_url":"https://uri.amap.com/marker?position=107.690775,30.797575&name=%E6%B1%AA%E7%99%BE%E5%86%9B%E5%85%BD%E5%8C%BB%E9%97%A8%E8%AF%8A&src=vetmap&coordinate=gaode&callnative=1","route_id":"r1","route_name":"第1段"}]}],"rows":[{"name":"宠康宠物医院","address":"紫竹大道4-37号","phone":"13519919638","category":"医疗保健服务;动物医疗场所;宠物诊所","area":"","lng":107.758942,"lat":30.647829,"amap_id":"B0LGL9PAN9","order":1,"prev_distance_km":0.0,"cumulative_distance_km":0.0,"amap_marker_url":"https://uri.amap.com/marker?position=107.758942,30.647829&name=%E5%AE%A0%E5%BA%B7%E5%AE%A0%E7%89%A9%E5%8C%BB%E9%99%A2&src=vetmap&coordinate=gaode&callnative=1","route_id":"r1","route_name":"第1段","global_order":1},{"name":"小尾巴宠物乐园(峰亿·都市广场店)","address":"双桂街道文华路3号附26号","phone":"13340313030","category":"医疗保健服务;动物医疗场所;宠物诊所","area":"","lng":107.777821,"lat":30.655817,"amap_id":"B0FFKQST1X","order":2,"prev_distance_km":2.013,"cumulative_distance_km":2.013,"amap_marker_url":"https://uri.amap.com/marker?position=107.777821,30.655817&name=%E5%B0%8F%E5%B0%BE%E5%B7%B4%E5%AE%A0%E7%89%A9%E4%B9%90%E5%9B%AD%28%E5%B3%B0%E4%BA%BF%C2%B7%E9%83%BD%E5%B8%82%E5%B9%BF%E5%9C%BA%E5%BA%97%29&src=vetmap&coordinate=gaode&callnative=1","route_id":"r1","route_name":"第1段","global_order":2},{"name":"泰阳动物医院","address":"双桂街道b5幢","phone":"18896173079;19115287215","category":"医疗保健服务;动物医疗场所;宠物诊所","area":"","lng":107.779322,"lat":30.656427,"amap_id":"B0IAV5KEMW","order":3,"prev_distance_km":0.159,"cumulative_distance_km":2.171,"amap_marker_url":"https://uri.amap.com/marker?position=107.779322,30.656427&name=%E6%B3%B0%E9%98%B3%E5%8A%A8%E7%89%A9%E5%8C%BB%E9%99%A2&src=vetmap&coordinate=gaode&callnative=1","route_id":"r1","route_name":"第1段","global_order":3},{"name":"梁平爱派动物诊所","address":"西城路202号","phone":"13272522340","category":"医疗保健服务;动物医疗场所;宠物诊所","area":"","lng":107.784685,"lat":30.667037,"amap_id":"B0JR66D09P","order":4,"prev_distance_km":1.286,"cumulative_distance_km":3.458,"amap_marker_url":"https://uri.amap.com/marker?position=107.784685,30.667037&name=%E6%A2%81%E5%B9%B3%E7%88%B1%E6%B4%BE%E5%8A%A8%E7%89%A9%E8%AF%8A%E6%89%80&src=vetmap&coordinate=gaode&callnative=1","route_id":"r1","route_name":"第1段","global_order":4},{"name":"梁平区动物医院","address":"机场路302号","phone":"18584798666","category":"医疗保健服务;动物医疗场所;宠物诊所","area":"","lng":107.797431,"lat":30.677664,"amap_id":"B0FFKP3Y55","order":5,"prev_distance_km":1.698,"cumulative_distance_km":5.156,"amap_marker_url":"https://uri.amap.com/marker?position=107.797431,30.677664&name=%E6%A2%81%E5%B9%B3%E5%8C%BA%E5%8A%A8%E7%89%A9%E5%8C%BB%E9%99%A2&src=vetmap&coordinate=gaode&callnative=1","route_id":"r1","route_name":"第1段","global_order":5},{"name":"梁平小小动物诊所","address":"恒泰小区2幢10号","phone":"18996606129","category":"医疗保健服务;动物医疗场所;宠物诊所","area":"","lng":107.798644,"lat":30.677784,"amap_id":"B0FFHVQZW5","order":6,"prev_distance_km":0.117,"cumulative_distance_km":5.272,"amap_marker_url":"https://uri.amap.com/marker?position=107.798644,30.677784&name=%E6%A2%81%E5%B9%B3%E5%B0%8F%E5%B0%8F%E5%8A%A8%E7%89%A9%E8%AF%8A%E6%89%80&src=vetmap&coordinate=gaode&callnative=1","route_id":"r1","route_name":"第1段","global_order":6},{"name":"社员之家","address":"机场路260号","phone":"","category":"医疗保健服务;动物医疗场所;兽医站","area":"","lng":107.798021,"lat":30.678046,"amap_id":"B0FFFZHVYI","order":7,"prev_distance_km":0.066,"cumulative_distance_km":5.339,"amap_marker_url":"https://uri.amap.com/marker?position=107.798021,30.678046&name=%E7%A4%BE%E5%91%98%E4%B9%8B%E5%AE%B6&src=vetmap&coordinate=gaode&callnative=1","route_id":"r1","route_name":"第1段","global_order":7},{"name":"汪百军兽医门诊","address":"Z009与龙舟街交叉口西北220米","phone":"","category":"医疗保健服务;动物医疗场所;兽医站","area":"","lng":107.690775,"lat":30.797575,"amap_id":"B0MBP71VRM","order":8,"prev_distance_km":16.784,"cumulative_distance_km":22.123,"amap_marker_url":"https://uri.amap.com/marker?position=107.690775,30.797575&name=%E6%B1%AA%E7%99%BE%E5%86%9B%E5%85%BD%E5%8C%BB%E9%97%A8%E8%AF%8A&src=vetmap&coordinate=gaode&callnative=1","route_id":"r1","route_name":"第1段","global_order":8}]}