{"summary":{"id":"d02497","province":"重庆市","city":"重庆市","district":"永川区","count":25,"route_count":1,"max_route_clinics":25,"total_distance_km":33.891,"coordinate_system":"GCJ-02 / Amap","generated_at":"2026-05-07 21:31:01"},"routes":[{"id":"r1","name":"第1段","count":25,"total_distance_km":33.891,"rows":[{"name":"三教镇动物防疫服务中心","address":"皂角街与环北路交叉口西南100米","phone":"","category":"医疗保健服务;动物医疗场所;动物医疗场所","area":"","lng":105.87384,"lat":29.483909,"amap_id":"B0I3FRV5FZ","order":1,"prev_distance_km":0.0,"cumulative_distance_km":0.0,"amap_marker_url":"https://uri.amap.com/marker?position=105.873840,29.483909&name=%E4%B8%89%E6%95%99%E9%95%87%E5%8A%A8%E7%89%A9%E9%98%B2%E7%96%AB%E6%9C%8D%E5%8A%A1%E4%B8%AD%E5%BF%83&src=vetmap&coordinate=gaode&callnative=1","route_id":"r1","route_name":"第1段"},{"name":"宠小治宠物诊所","address":"中山路街道文昌路898号111栋1-8","phone":"","category":"医疗保健服务;动物医疗场所;宠物诊所","area":"","lng":105.938175,"lat":29.378375,"amap_id":"B0L32A3231","order":2,"prev_distance_km":13.286,"cumulative_distance_km":13.286,"amap_marker_url":"https://uri.amap.com/marker?position=105.938175,29.378375&name=%E5%AE%A0%E5%B0%8F%E6%B2%BB%E5%AE%A0%E7%89%A9%E8%AF%8A%E6%89%80&src=vetmap&coordinate=gaode&callnative=1","route_id":"r1","route_name":"第1段"},{"name":"宇宙宠物医院","address":"昌州大道东段831号","phone":"023-49787128;19123185871","category":"医疗保健服务;动物医疗场所;宠物诊所","area":"","lng":105.941425,"lat":29.364723,"amap_id":"B0I2DSS5CC","order":3,"prev_distance_km":1.55,"cumulative_distance_km":14.837,"amap_marker_url":"https://uri.amap.com/marker?position=105.941425,29.364723&name=%E5%AE%87%E5%AE%99%E5%AE%A0%E7%89%A9%E5%8C%BB%E9%99%A2&src=vetmap&coordinate=gaode&callnative=1","route_id":"r1","route_name":"第1段"},{"name":"嘉乐动物医院","address":"人民大道791号","phone":"18996331268","category":"医疗保健服务;动物医疗场所;宠物诊所","area":"","lng":105.94411,"lat":29.362073,"amap_id":"B0KKS90167","order":4,"prev_distance_km":0.393,"cumulative_distance_km":15.23,"amap_marker_url":"https://uri.amap.com/marker?position=105.944110,29.362073&name=%E5%98%89%E4%B9%90%E5%8A%A8%E7%89%A9%E5%8C%BB%E9%99%A2&src=vetmap&coordinate=gaode&callnative=1","route_id":"r1","route_name":"第1段"},{"name":"臻爱宠物诊所","address":"和顺大道与海关北路交叉口北80米","phone":"13308394120","category":"医疗保健服务;动物医疗场所;宠物诊所","area":"","lng":105.949133,"lat":29.360293,"amap_id":"B0KUFU4PHZ","order":5,"prev_distance_km":0.525,"cumulative_distance_km":15.755,"amap_marker_url":"https://uri.amap.com/marker?position=105.949133,29.360293&name=%E8%87%BB%E7%88%B1%E5%AE%A0%E7%89%A9%E8%AF%8A%E6%89%80&src=vetmap&coordinate=gaode&callnative=1","route_id":"r1","route_name":"第1段"},{"name":"渝贝动物诊疗中心","address":"瑞龙路303号","phone":"15095979772","category":"医疗保健服务;动物医疗场所;宠物诊所","area":"","lng":105.957137,"lat":29.362726,"amap_id":"B0JUKDXNAY","order":6,"prev_distance_km":0.822,"cumulative_distance_km":16.577,"amap_marker_url":"https://uri.amap.com/marker?position=105.957137,29.362726&name=%E6%B8%9D%E8%B4%9D%E5%8A%A8%E7%89%A9%E8%AF%8A%E7%96%97%E4%B8%AD%E5%BF%83&src=vetmap&coordinate=gaode&callnative=1","route_id":"r1","route_name":"第1段"},{"name":"牧宸宠物医院(香缇时光店)","address":"人民大道1042号附13号(牧宸宠物医院)","phone":"18623053557","category":"医疗保健服务;动物医疗场所;宠物诊所","area":"","lng":105.956916,"lat":29.359201,"amap_id":"B0L16RSTLH","order":7,"prev_distance_km":0.393,"cumulative_distance_km":16.969,"amap_marker_url":"https://uri.amap.com/marker?position=105.956916,29.359201&name=%E7%89%A7%E5%AE%B8%E5%AE%A0%E7%89%A9%E5%8C%BB%E9%99%A2%28%E9%A6%99%E7%BC%87%E6%97%B6%E5%85%89%E5%BA%97%29&src=vetmap&coordinate=gaode&callnative=1","route_id":"r1","route_name":"第1段"},{"name":"宠宁动物医院","address":"神龙路204号","phone":"13018318885","category":"医疗保健服务;动物医疗场所;宠物诊所","area":"","lng":105.944492,"lat":29.351386,"amap_id":"B0LDSU2VBT","order":8,"prev_distance_km":1.485,"cumulative_distance_km":18.454,"amap_marker_url":"https://uri.amap.com/marker?position=105.944492,29.351386&name=%E5%AE%A0%E5%AE%81%E5%8A%A8%E7%89%A9%E5%8C%BB%E9%99%A2&src=vetmap&coordinate=gaode&callnative=1","route_id":"r1","route_name":"第1段"},{"name":"依伴宠物诊所","address":"神龙路27号","phone":"15826109970","category":"医疗保健服务;动物医疗场所;宠物诊所","area":"","lng":105.944031,"lat":29.351824,"amap_id":"B0FFKRDF9A","order":9,"prev_distance_km":0.066,"cumulative_distance_km":18.52,"amap_marker_url":"https://uri.amap.com/marker?position=105.944031,29.351824&name=%E4%BE%9D%E4%BC%B4%E5%AE%A0%E7%89%A9%E8%AF%8A%E6%89%80&src=vetmap&coordinate=gaode&callnative=1","route_id":"r1","route_name":"第1段"},{"name":"友爱宠物医院永川店","address":"中山路街道红河大道924号商铺","phone":"18996242299","category":"医疗保健服务;动物医疗场所;宠物诊所","area":"","lng":105.934748,"lat":29.341833,"amap_id":"B0JUJ9ZL80","order":10,"prev_distance_km":1.43,"cumulative_distance_km":19.95,"amap_marker_url":"https://uri.amap.com/marker?position=105.934748,29.341833&name=%E5%8F%8B%E7%88%B1%E5%AE%A0%E7%89%A9%E5%8C%BB%E9%99%A2%E6%B0%B8%E5%B7%9D%E5%BA%97&src=vetmap&coordinate=gaode&callnative=1","route_id":"r1","route_name":"第1段"},{"name":"永川区辛巴宠物诊所(万达店)","address":"中山街道星光大道789号附7号1-13","phone":"15178775400","category":"医疗保健服务;动物医疗场所;宠物诊所","area":"","lng":105.934061,"lat":29.334685,"amap_id":"B0IUUAKCMP","order":11,"prev_distance_km":0.798,"cumulative_distance_km":20.748,"amap_marker_url":"https://uri.amap.com/marker?position=105.934061,29.334685&name=%E6%B0%B8%E5%B7%9D%E5%8C%BA%E8%BE%9B%E5%B7%B4%E5%AE%A0%E7%89%A9%E8%AF%8A%E6%89%80%28%E4%B8%87%E8%BE%BE%E5%BA%97%29&src=vetmap&coordinate=gaode&callnative=1","route_id":"r1","route_name":"第1段"},{"name":"重庆市永川区丰禽家禽技术咨询服务部","address":"凤凰大道108号附1号","phone":"","category":"医疗保健服务;动物医疗场所;动物医疗场所","area":"","lng":105.933425,"lat":29.322283,"amap_id":"B0LKCM1QR3","order":12,"prev_distance_km":1.38,"cumulative_distance_km":22.128,"amap_marker_url":"https://uri.amap.com/marker?position=105.933425,29.322283&name=%E9%87%8D%E5%BA%86%E5%B8%82%E6%B0%B8%E5%B7%9D%E5%8C%BA%E4%B8%B0%E7%A6%BD%E5%AE%B6%E7%A6%BD%E6%8A%80%E6%9C%AF%E5%92%A8%E8%AF%A2%E6%9C%8D%E5%8A%A1%E9%83%A8&src=vetmap&coordinate=gaode&callnative=1","route_id":"r1","route_name":"第1段"},{"name":"爱贝宠物医院旗舰店","address":"俊豪宽天下南门西100米","phone":"15123541562;17320333120","category":"医疗保健服务;动物医疗场所;宠物诊所","area":"","lng":105.927941,"lat":29.336746,"amap_id":"B0H3ZOHW71","order":13,"prev_distance_km":1.694,"cumulative_distance_km":23.822,"amap_marker_url":"https://uri.amap.com/marker?position=105.927941,29.336746&name=%E7%88%B1%E8%B4%9D%E5%AE%A0%E7%89%A9%E5%8C%BB%E9%99%A2%E6%97%97%E8%88%B0%E5%BA%97&src=vetmap&coordinate=gaode&callnative=1","route_id":"r1","route_name":"第1段"},{"name":"林兴动物医院","address":"人民西路6号之72号","phone":"18883678158","category":"医疗保健服务;动物医疗场所;宠物诊所","area":"","lng":105.930008,"lat":29.352878,"amap_id":"B0FFHEJLN0","order":14,"prev_distance_km":1.805,"cumulative_distance_km":25.627,"amap_marker_url":"https://uri.amap.com/marker?position=105.930008,29.352878&name=%E6%9E%97%E5%85%B4%E5%8A%A8%E7%89%A9%E5%8C%BB%E9%99%A2&src=vetmap&coordinate=gaode&callnative=1","route_id":"r1","route_name":"第1段"},{"name":"重庆初心动物医院","address":"人民大道333号4-2-1、4-2-2、4-2-3","phone":"18996427086","category":"医疗保健服务;动物医疗场所;宠物诊所","area":"","lng":105.932214,"lat":29.358874,"amap_id":"B0L0M7AIS1","order":15,"prev_distance_km":0.7,"cumulative_distance_km":26.327,"amap_marker_url":"https://uri.amap.com/marker?position=105.932214,29.358874&name=%E9%87%8D%E5%BA%86%E5%88%9D%E5%BF%83%E5%8A%A8%E7%89%A9%E5%8C%BB%E9%99%A2&src=vetmap&coordinate=gaode&callnative=1","route_id":"r1","route_name":"第1段"},{"name":"宠贝康动物诊所","address":"红河大道88-90号","phone":"15178884083","category":"医疗保健服务;动物医疗场所;宠物诊所","area":"","lng":105.929163,"lat":29.357821,"amap_id":"B0H695I7AK","order":16,"prev_distance_km":0.318,"cumulative_distance_km":26.645,"amap_marker_url":"https://uri.amap.com/marker?position=105.929163,29.357821&name=%E5%AE%A0%E8%B4%9D%E5%BA%B7%E5%8A%A8%E7%89%A9%E8%AF%8A%E6%89%80&src=vetmap&coordinate=gaode&callnative=1","route_id":"r1","route_name":"第1段"},{"name":"摩登狗宠物医院(永川旗舰店)","address":"人民大道29号至尊华庭小区门口旁","phone":"023-49368120;18983885432","category":"医疗保健服务;动物医疗场所;宠物诊所","area":"","lng":105.924331,"lat":29.354095,"amap_id":"B0FFIDQL73","order":17,"prev_distance_km":0.625,"cumulative_distance_km":27.27,"amap_marker_url":"https://uri.amap.com/marker?position=105.924331,29.354095&name=%E6%91%A9%E7%99%BB%E7%8B%97%E5%AE%A0%E7%89%A9%E5%8C%BB%E9%99%A2%28%E6%B0%B8%E5%B7%9D%E6%97%97%E8%88%B0%E5%BA%97%29&src=vetmap&coordinate=gaode&callnative=1","route_id":"r1","route_name":"第1段"},{"name":"泰阳动物医院","address":"汇龙大道4号","phone":"18716693127","category":"医疗保健服务;动物医疗场所;宠物诊所","area":"","lng":105.916918,"lat":29.360729,"amap_id":"B0LDG53KBR","order":18,"prev_distance_km":1.03,"cumulative_distance_km":28.3,"amap_marker_url":"https://uri.amap.com/marker?position=105.916918,29.360729&name=%E6%B3%B0%E9%98%B3%E5%8A%A8%E7%89%A9%E5%8C%BB%E9%99%A2&src=vetmap&coordinate=gaode&callnative=1","route_id":"r1","route_name":"第1段"},{"name":"永川团结宠物医院","address":"中山路街道人民大道16号附15号","phone":"17702381120","category":"医疗保健服务;动物医疗场所;宠物诊所","area":"","lng":105.917999,"lat":29.348226,"amap_id":"B0G26SKCZV","order":19,"prev_distance_km":1.394,"cumulative_distance_km":29.694,"amap_marker_url":"https://uri.amap.com/marker?position=105.917999,29.348226&name=%E6%B0%B8%E5%B7%9D%E5%9B%A2%E7%BB%93%E5%AE%A0%E7%89%A9%E5%8C%BB%E9%99%A2&src=vetmap&coordinate=gaode&callnative=1","route_id":"r1","route_name":"第1段"},{"name":"永川区谐和动物医院","address":"泸州街110号附1号1-4.5.6.7.8号","phone":"15178810695;15998925448","category":"医疗保健服务;动物医疗场所;宠物诊所","area":"","lng":105.898267,"lat":29.344994,"amap_id":"B0FFF2P2SQ","order":20,"prev_distance_km":1.946,"cumulative_distance_km":31.64,"amap_marker_url":"https://uri.amap.com/marker?position=105.898267,29.344994&name=%E6%B0%B8%E5%B7%9D%E5%8C%BA%E8%B0%90%E5%92%8C%E5%8A%A8%E7%89%A9%E5%8C%BB%E9%99%A2&src=vetmap&coordinate=gaode&callnative=1","route_id":"r1","route_name":"第1段"},{"name":"优乐宠物诊所","address":"俊豪中央大街10栋2楼(4号廊桥旁)","phone":"18580842311","category":"医疗保健服务;动物医疗场所;宠物诊所","area":"胜利路","lng":105.896191,"lat":29.349689,"amap_id":"B0I0U58ETL","order":21,"prev_distance_km":0.559,"cumulative_distance_km":32.2,"amap_marker_url":"https://uri.amap.com/marker?position=105.896191,29.349689&name=%E4%BC%98%E4%B9%90%E5%AE%A0%E7%89%A9%E8%AF%8A%E6%89%80&src=vetmap&coordinate=gaode&callnative=1","route_id":"r1","route_name":"第1段"},{"name":"一诚宠物医院猫科骨科急重症(渝西广场店)","address":"桂山学府铭城(骑龙街公交车站旁)","phone":"18315098828","category":"医疗保健服务;动物医疗场所;宠物诊所","area":"","lng":105.897299,"lat":29.351167,"amap_id":"B0J1VS6UKJ","order":22,"prev_distance_km":0.196,"cumulative_distance_km":32.396,"amap_marker_url":"https://uri.amap.com/marker?position=105.897299,29.351167&name=%E4%B8%80%E8%AF%9A%E5%AE%A0%E7%89%A9%E5%8C%BB%E9%99%A2%E7%8C%AB%E7%A7%91%E9%AA%A8%E7%A7%91%E6%80%A5%E9%87%8D%E7%97%87%28%E6%B8%9D%E8%A5%BF%E5%B9%BF%E5%9C%BA%E5%BA%97%29&src=vetmap&coordinate=gaode&callnative=1","route_id":"r1","route_name":"第1段"},{"name":"良诚宠物诊所","address":"胜利路街道胜利路17号","phone":"15213549307","category":"医疗保健服务;动物医疗场所;宠物诊所","area":"胜利路","lng":105.894747,"lat":29.353368,"amap_id":"B0KD4LTA1X","order":23,"prev_distance_km":0.348,"cumulative_distance_km":32.744,"amap_marker_url":"https://uri.amap.com/marker?position=105.894747,29.353368&name=%E8%89%AF%E8%AF%9A%E5%AE%A0%E7%89%A9%E8%AF%8A%E6%89%80&src=vetmap&coordinate=gaode&callnative=1","route_id":"r1","route_name":"第1段"},{"name":"爱心宠物诊所","address":"中山大道西段与大巷子交叉口西100米","phone":"023-49906090;13640540788","category":"医疗保健服务;动物医疗场所;宠物诊所","area":"胜利路","lng":105.89211,"lat":29.351742,"amap_id":"B001792GVU","order":24,"prev_distance_km":0.313,"cumulative_distance_km":33.057,"amap_marker_url":"https://uri.amap.com/marker?position=105.892110,29.351742&name=%E7%88%B1%E5%BF%83%E5%AE%A0%E7%89%A9%E8%AF%8A%E6%89%80&src=vetmap&coordinate=gaode&callnative=1","route_id":"r1","route_name":"第1段"},{"name":"永川区动物疫病预防控制中心","address":"枣园路69号","phone":"","category":"医疗保健服务;动物医疗场所;动物医疗场所","area":"胜利路","lng":105.885727,"lat":29.356771,"amap_id":"B0FFHLHHU7","order":25,"prev_distance_km":0.834,"cumulative_distance_km":33.891,"amap_marker_url":"https://uri.amap.com/marker?position=105.885727,29.356771&name=%E6%B0%B8%E5%B7%9D%E5%8C%BA%E5%8A%A8%E7%89%A9%E7%96%AB%E7%97%85%E9%A2%84%E9%98%B2%E6%8E%A7%E5%88%B6%E4%B8%AD%E5%BF%83&src=vetmap&coordinate=gaode&callnative=1","route_id":"r1","route_name":"第1段"}]}],"rows":[{"name":"三教镇动物防疫服务中心","address":"皂角街与环北路交叉口西南100米","phone":"","category":"医疗保健服务;动物医疗场所;动物医疗场所","area":"","lng":105.87384,"lat":29.483909,"amap_id":"B0I3FRV5FZ","order":1,"prev_distance_km":0.0,"cumulative_distance_km":0.0,"amap_marker_url":"https://uri.amap.com/marker?position=105.873840,29.483909&name=%E4%B8%89%E6%95%99%E9%95%87%E5%8A%A8%E7%89%A9%E9%98%B2%E7%96%AB%E6%9C%8D%E5%8A%A1%E4%B8%AD%E5%BF%83&src=vetmap&coordinate=gaode&callnative=1","route_id":"r1","route_name":"第1段","global_order":1},{"name":"宠小治宠物诊所","address":"中山路街道文昌路898号111栋1-8","phone":"","category":"医疗保健服务;动物医疗场所;宠物诊所","area":"","lng":105.938175,"lat":29.378375,"amap_id":"B0L32A3231","order":2,"prev_distance_km":13.286,"cumulative_distance_km":13.286,"amap_marker_url":"https://uri.amap.com/marker?position=105.938175,29.378375&name=%E5%AE%A0%E5%B0%8F%E6%B2%BB%E5%AE%A0%E7%89%A9%E8%AF%8A%E6%89%80&src=vetmap&coordinate=gaode&callnative=1","route_id":"r1","route_name":"第1段","global_order":2},{"name":"宇宙宠物医院","address":"昌州大道东段831号","phone":"023-49787128;19123185871","category":"医疗保健服务;动物医疗场所;宠物诊所","area":"","lng":105.941425,"lat":29.364723,"amap_id":"B0I2DSS5CC","order":3,"prev_distance_km":1.55,"cumulative_distance_km":14.837,"amap_marker_url":"https://uri.amap.com/marker?position=105.941425,29.364723&name=%E5%AE%87%E5%AE%99%E5%AE%A0%E7%89%A9%E5%8C%BB%E9%99%A2&src=vetmap&coordinate=gaode&callnative=1","route_id":"r1","route_name":"第1段","global_order":3},{"name":"嘉乐动物医院","address":"人民大道791号","phone":"18996331268","category":"医疗保健服务;动物医疗场所;宠物诊所","area":"","lng":105.94411,"lat":29.362073,"amap_id":"B0KKS90167","order":4,"prev_distance_km":0.393,"cumulative_distance_km":15.23,"amap_marker_url":"https://uri.amap.com/marker?position=105.944110,29.362073&name=%E5%98%89%E4%B9%90%E5%8A%A8%E7%89%A9%E5%8C%BB%E9%99%A2&src=vetmap&coordinate=gaode&callnative=1","route_id":"r1","route_name":"第1段","global_order":4},{"name":"臻爱宠物诊所","address":"和顺大道与海关北路交叉口北80米","phone":"13308394120","category":"医疗保健服务;动物医疗场所;宠物诊所","area":"","lng":105.949133,"lat":29.360293,"amap_id":"B0KUFU4PHZ","order":5,"prev_distance_km":0.525,"cumulative_distance_km":15.755,"amap_marker_url":"https://uri.amap.com/marker?position=105.949133,29.360293&name=%E8%87%BB%E7%88%B1%E5%AE%A0%E7%89%A9%E8%AF%8A%E6%89%80&src=vetmap&coordinate=gaode&callnative=1","route_id":"r1","route_name":"第1段","global_order":5},{"name":"渝贝动物诊疗中心","address":"瑞龙路303号","phone":"15095979772","category":"医疗保健服务;动物医疗场所;宠物诊所","area":"","lng":105.957137,"lat":29.362726,"amap_id":"B0JUKDXNAY","order":6,"prev_distance_km":0.822,"cumulative_distance_km":16.577,"amap_marker_url":"https://uri.amap.com/marker?position=105.957137,29.362726&name=%E6%B8%9D%E8%B4%9D%E5%8A%A8%E7%89%A9%E8%AF%8A%E7%96%97%E4%B8%AD%E5%BF%83&src=vetmap&coordinate=gaode&callnative=1","route_id":"r1","route_name":"第1段","global_order":6},{"name":"牧宸宠物医院(香缇时光店)","address":"人民大道1042号附13号(牧宸宠物医院)","phone":"18623053557","category":"医疗保健服务;动物医疗场所;宠物诊所","area":"","lng":105.956916,"lat":29.359201,"amap_id":"B0L16RSTLH","order":7,"prev_distance_km":0.393,"cumulative_distance_km":16.969,"amap_marker_url":"https://uri.amap.com/marker?position=105.956916,29.359201&name=%E7%89%A7%E5%AE%B8%E5%AE%A0%E7%89%A9%E5%8C%BB%E9%99%A2%28%E9%A6%99%E7%BC%87%E6%97%B6%E5%85%89%E5%BA%97%29&src=vetmap&coordinate=gaode&callnative=1","route_id":"r1","route_name":"第1段","global_order":7},{"name":"宠宁动物医院","address":"神龙路204号","phone":"13018318885","category":"医疗保健服务;动物医疗场所;宠物诊所","area":"","lng":105.944492,"lat":29.351386,"amap_id":"B0LDSU2VBT","order":8,"prev_distance_km":1.485,"cumulative_distance_km":18.454,"amap_marker_url":"https://uri.amap.com/marker?position=105.944492,29.351386&name=%E5%AE%A0%E5%AE%81%E5%8A%A8%E7%89%A9%E5%8C%BB%E9%99%A2&src=vetmap&coordinate=gaode&callnative=1","route_id":"r1","route_name":"第1段","global_order":8},{"name":"依伴宠物诊所","address":"神龙路27号","phone":"15826109970","category":"医疗保健服务;动物医疗场所;宠物诊所","area":"","lng":105.944031,"lat":29.351824,"amap_id":"B0FFKRDF9A","order":9,"prev_distance_km":0.066,"cumulative_distance_km":18.52,"amap_marker_url":"https://uri.amap.com/marker?position=105.944031,29.351824&name=%E4%BE%9D%E4%BC%B4%E5%AE%A0%E7%89%A9%E8%AF%8A%E6%89%80&src=vetmap&coordinate=gaode&callnative=1","route_id":"r1","route_name":"第1段","global_order":9},{"name":"友爱宠物医院永川店","address":"中山路街道红河大道924号商铺","phone":"18996242299","category":"医疗保健服务;动物医疗场所;宠物诊所","area":"","lng":105.934748,"lat":29.341833,"amap_id":"B0JUJ9ZL80","order":10,"prev_distance_km":1.43,"cumulative_distance_km":19.95,"amap_marker_url":"https://uri.amap.com/marker?position=105.934748,29.341833&name=%E5%8F%8B%E7%88%B1%E5%AE%A0%E7%89%A9%E5%8C%BB%E9%99%A2%E6%B0%B8%E5%B7%9D%E5%BA%97&src=vetmap&coordinate=gaode&callnative=1","route_id":"r1","route_name":"第1段","global_order":10},{"name":"永川区辛巴宠物诊所(万达店)","address":"中山街道星光大道789号附7号1-13","phone":"15178775400","category":"医疗保健服务;动物医疗场所;宠物诊所","area":"","lng":105.934061,"lat":29.334685,"amap_id":"B0IUUAKCMP","order":11,"prev_distance_km":0.798,"cumulative_distance_km":20.748,"amap_marker_url":"https://uri.amap.com/marker?position=105.934061,29.334685&name=%E6%B0%B8%E5%B7%9D%E5%8C%BA%E8%BE%9B%E5%B7%B4%E5%AE%A0%E7%89%A9%E8%AF%8A%E6%89%80%28%E4%B8%87%E8%BE%BE%E5%BA%97%29&src=vetmap&coordinate=gaode&callnative=1","route_id":"r1","route_name":"第1段","global_order":11},{"name":"重庆市永川区丰禽家禽技术咨询服务部","address":"凤凰大道108号附1号","phone":"","category":"医疗保健服务;动物医疗场所;动物医疗场所","area":"","lng":105.933425,"lat":29.322283,"amap_id":"B0LKCM1QR3","order":12,"prev_distance_km":1.38,"cumulative_distance_km":22.128,"amap_marker_url":"https://uri.amap.com/marker?position=105.933425,29.322283&name=%E9%87%8D%E5%BA%86%E5%B8%82%E6%B0%B8%E5%B7%9D%E5%8C%BA%E4%B8%B0%E7%A6%BD%E5%AE%B6%E7%A6%BD%E6%8A%80%E6%9C%AF%E5%92%A8%E8%AF%A2%E6%9C%8D%E5%8A%A1%E9%83%A8&src=vetmap&coordinate=gaode&callnative=1","route_id":"r1","route_name":"第1段","global_order":12},{"name":"爱贝宠物医院旗舰店","address":"俊豪宽天下南门西100米","phone":"15123541562;17320333120","category":"医疗保健服务;动物医疗场所;宠物诊所","area":"","lng":105.927941,"lat":29.336746,"amap_id":"B0H3ZOHW71","order":13,"prev_distance_km":1.694,"cumulative_distance_km":23.822,"amap_marker_url":"https://uri.amap.com/marker?position=105.927941,29.336746&name=%E7%88%B1%E8%B4%9D%E5%AE%A0%E7%89%A9%E5%8C%BB%E9%99%A2%E6%97%97%E8%88%B0%E5%BA%97&src=vetmap&coordinate=gaode&callnative=1","route_id":"r1","route_name":"第1段","global_order":13},{"name":"林兴动物医院","address":"人民西路6号之72号","phone":"18883678158","category":"医疗保健服务;动物医疗场所;宠物诊所","area":"","lng":105.930008,"lat":29.352878,"amap_id":"B0FFHEJLN0","order":14,"prev_distance_km":1.805,"cumulative_distance_km":25.627,"amap_marker_url":"https://uri.amap.com/marker?position=105.930008,29.352878&name=%E6%9E%97%E5%85%B4%E5%8A%A8%E7%89%A9%E5%8C%BB%E9%99%A2&src=vetmap&coordinate=gaode&callnative=1","route_id":"r1","route_name":"第1段","global_order":14},{"name":"重庆初心动物医院","address":"人民大道333号4-2-1、4-2-2、4-2-3","phone":"18996427086","category":"医疗保健服务;动物医疗场所;宠物诊所","area":"","lng":105.932214,"lat":29.358874,"amap_id":"B0L0M7AIS1","order":15,"prev_distance_km":0.7,"cumulative_distance_km":26.327,"amap_marker_url":"https://uri.amap.com/marker?position=105.932214,29.358874&name=%E9%87%8D%E5%BA%86%E5%88%9D%E5%BF%83%E5%8A%A8%E7%89%A9%E5%8C%BB%E9%99%A2&src=vetmap&coordinate=gaode&callnative=1","route_id":"r1","route_name":"第1段","global_order":15},{"name":"宠贝康动物诊所","address":"红河大道88-90号","phone":"15178884083","category":"医疗保健服务;动物医疗场所;宠物诊所","area":"","lng":105.929163,"lat":29.357821,"amap_id":"B0H695I7AK","order":16,"prev_distance_km":0.318,"cumulative_distance_km":26.645,"amap_marker_url":"https://uri.amap.com/marker?position=105.929163,29.357821&name=%E5%AE%A0%E8%B4%9D%E5%BA%B7%E5%8A%A8%E7%89%A9%E8%AF%8A%E6%89%80&src=vetmap&coordinate=gaode&callnative=1","route_id":"r1","route_name":"第1段","global_order":16},{"name":"摩登狗宠物医院(永川旗舰店)","address":"人民大道29号至尊华庭小区门口旁","phone":"023-49368120;18983885432","category":"医疗保健服务;动物医疗场所;宠物诊所","area":"","lng":105.924331,"lat":29.354095,"amap_id":"B0FFIDQL73","order":17,"prev_distance_km":0.625,"cumulative_distance_km":27.27,"amap_marker_url":"https://uri.amap.com/marker?position=105.924331,29.354095&name=%E6%91%A9%E7%99%BB%E7%8B%97%E5%AE%A0%E7%89%A9%E5%8C%BB%E9%99%A2%28%E6%B0%B8%E5%B7%9D%E6%97%97%E8%88%B0%E5%BA%97%29&src=vetmap&coordinate=gaode&callnative=1","route_id":"r1","route_name":"第1段","global_order":17},{"name":"泰阳动物医院","address":"汇龙大道4号","phone":"18716693127","category":"医疗保健服务;动物医疗场所;宠物诊所","area":"","lng":105.916918,"lat":29.360729,"amap_id":"B0LDG53KBR","order":18,"prev_distance_km":1.03,"cumulative_distance_km":28.3,"amap_marker_url":"https://uri.amap.com/marker?position=105.916918,29.360729&name=%E6%B3%B0%E9%98%B3%E5%8A%A8%E7%89%A9%E5%8C%BB%E9%99%A2&src=vetmap&coordinate=gaode&callnative=1","route_id":"r1","route_name":"第1段","global_order":18},{"name":"永川团结宠物医院","address":"中山路街道人民大道16号附15号","phone":"17702381120","category":"医疗保健服务;动物医疗场所;宠物诊所","area":"","lng":105.917999,"lat":29.348226,"amap_id":"B0G26SKCZV","order":19,"prev_distance_km":1.394,"cumulative_distance_km":29.694,"amap_marker_url":"https://uri.amap.com/marker?position=105.917999,29.348226&name=%E6%B0%B8%E5%B7%9D%E5%9B%A2%E7%BB%93%E5%AE%A0%E7%89%A9%E5%8C%BB%E9%99%A2&src=vetmap&coordinate=gaode&callnative=1","route_id":"r1","route_name":"第1段","global_order":19},{"name":"永川区谐和动物医院","address":"泸州街110号附1号1-4.5.6.7.8号","phone":"15178810695;15998925448","category":"医疗保健服务;动物医疗场所;宠物诊所","area":"","lng":105.898267,"lat":29.344994,"amap_id":"B0FFF2P2SQ","order":20,"prev_distance_km":1.946,"cumulative_distance_km":31.64,"amap_marker_url":"https://uri.amap.com/marker?position=105.898267,29.344994&name=%E6%B0%B8%E5%B7%9D%E5%8C%BA%E8%B0%90%E5%92%8C%E5%8A%A8%E7%89%A9%E5%8C%BB%E9%99%A2&src=vetmap&coordinate=gaode&callnative=1","route_id":"r1","route_name":"第1段","global_order":20},{"name":"优乐宠物诊所","address":"俊豪中央大街10栋2楼(4号廊桥旁)","phone":"18580842311","category":"医疗保健服务;动物医疗场所;宠物诊所","area":"胜利路","lng":105.896191,"lat":29.349689,"amap_id":"B0I0U58ETL","order":21,"prev_distance_km":0.559,"cumulative_distance_km":32.2,"amap_marker_url":"https://uri.amap.com/marker?position=105.896191,29.349689&name=%E4%BC%98%E4%B9%90%E5%AE%A0%E7%89%A9%E8%AF%8A%E6%89%80&src=vetmap&coordinate=gaode&callnative=1","route_id":"r1","route_name":"第1段","global_order":21},{"name":"一诚宠物医院猫科骨科急重症(渝西广场店)","address":"桂山学府铭城(骑龙街公交车站旁)","phone":"18315098828","category":"医疗保健服务;动物医疗场所;宠物诊所","area":"","lng":105.897299,"lat":29.351167,"amap_id":"B0J1VS6UKJ","order":22,"prev_distance_km":0.196,"cumulative_distance_km":32.396,"amap_marker_url":"https://uri.amap.com/marker?position=105.897299,29.351167&name=%E4%B8%80%E8%AF%9A%E5%AE%A0%E7%89%A9%E5%8C%BB%E9%99%A2%E7%8C%AB%E7%A7%91%E9%AA%A8%E7%A7%91%E6%80%A5%E9%87%8D%E7%97%87%28%E6%B8%9D%E8%A5%BF%E5%B9%BF%E5%9C%BA%E5%BA%97%29&src=vetmap&coordinate=gaode&callnative=1","route_id":"r1","route_name":"第1段","global_order":22},{"name":"良诚宠物诊所","address":"胜利路街道胜利路17号","phone":"15213549307","category":"医疗保健服务;动物医疗场所;宠物诊所","area":"胜利路","lng":105.894747,"lat":29.353368,"amap_id":"B0KD4LTA1X","order":23,"prev_distance_km":0.348,"cumulative_distance_km":32.744,"amap_marker_url":"https://uri.amap.com/marker?position=105.894747,29.353368&name=%E8%89%AF%E8%AF%9A%E5%AE%A0%E7%89%A9%E8%AF%8A%E6%89%80&src=vetmap&coordinate=gaode&callnative=1","route_id":"r1","route_name":"第1段","global_order":23},{"name":"爱心宠物诊所","address":"中山大道西段与大巷子交叉口西100米","phone":"023-49906090;13640540788","category":"医疗保健服务;动物医疗场所;宠物诊所","area":"胜利路","lng":105.89211,"lat":29.351742,"amap_id":"B001792GVU","order":24,"prev_distance_km":0.313,"cumulative_distance_km":33.057,"amap_marker_url":"https://uri.amap.com/marker?position=105.892110,29.351742&name=%E7%88%B1%E5%BF%83%E5%AE%A0%E7%89%A9%E8%AF%8A%E6%89%80&src=vetmap&coordinate=gaode&callnative=1","route_id":"r1","route_name":"第1段","global_order":24},{"name":"永川区动物疫病预防控制中心","address":"枣园路69号","phone":"","category":"医疗保健服务;动物医疗场所;动物医疗场所","area":"胜利路","lng":105.885727,"lat":29.356771,"amap_id":"B0FFHLHHU7","order":25,"prev_distance_km":0.834,"cumulative_distance_km":33.891,"amap_marker_url":"https://uri.amap.com/marker?position=105.885727,29.356771&name=%E6%B0%B8%E5%B7%9D%E5%8C%BA%E5%8A%A8%E7%89%A9%E7%96%AB%E7%97%85%E9%A2%84%E9%98%B2%E6%8E%A7%E5%88%B6%E4%B8%AD%E5%BF%83&src=vetmap&coordinate=gaode&callnative=1","route_id":"r1","route_name":"第1段","global_order":25}]}