{"summary":{"id":"d02422","province":"贵州省","city":"遵义市","district":"凤冈县","count":6,"route_count":1,"max_route_clinics":6,"total_distance_km":22.787,"coordinate_system":"GCJ-02 / Amap","generated_at":"2026-05-08 19:48:38"},"routes":[{"id":"r1","name":"第1段","count":6,"total_distance_km":22.787,"rows":[{"name":"动物医院","address":"永安镇卫生院东侧180米","phone":"","category":"医疗保健服务;动物医疗场所;宠物诊所","area":"","lng":107.594646,"lat":28.106507,"amap_id":"B0KRM94BKW","order":1,"prev_distance_km":0.0,"cumulative_distance_km":0.0,"amap_marker_url":"https://uri.amap.com/marker?position=107.594646,28.106507&name=%E5%8A%A8%E7%89%A9%E5%8C%BB%E9%99%A2&src=vetmap&coordinate=gaode&callnative=1","route_id":"r1","route_name":"第1段"},{"name":"黄三动物保健院","address":"文峰路与迎新大道交叉口东北100米","phone":"","category":"医疗保健服务;动物医疗场所;宠物诊所","area":"","lng":107.729832,"lat":27.973577,"amap_id":"B0K1AMQGJW","order":2,"prev_distance_km":19.862,"cumulative_distance_km":19.862,"amap_marker_url":"https://uri.amap.com/marker?position=107.729832,27.973577&name=%E9%BB%84%E4%B8%89%E5%8A%A8%E7%89%A9%E4%BF%9D%E5%81%A5%E9%99%A2&src=vetmap&coordinate=gaode&callnative=1","route_id":"r1","route_name":"第1段"},{"name":"北宸动物诊疗中心","address":"龙泉街道龙潭湖社区迎新大道南段66号门面","phone":"17311979995","category":"医疗保健服务;动物医疗场所;宠物诊所","area":"","lng":107.721816,"lat":27.962919,"amap_id":"B0L6NRIK3E","order":3,"prev_distance_km":1.423,"cumulative_distance_km":21.285,"amap_marker_url":"https://uri.amap.com/marker?position=107.721816,27.962919&name=%E5%8C%97%E5%AE%B8%E5%8A%A8%E7%89%A9%E8%AF%8A%E7%96%97%E4%B8%AD%E5%BF%83&src=vetmap&coordinate=gaode&callnative=1","route_id":"r1","route_name":"第1段"},{"name":"益宠康动物医院","address":"石景小区石景北路","phone":"15120246568","category":"医疗保健服务;动物医疗场所;宠物诊所","area":"","lng":107.719762,"lat":27.958916,"amap_id":"B0J3ARRWG2","order":4,"prev_distance_km":0.489,"cumulative_distance_km":21.774,"amap_marker_url":"https://uri.amap.com/marker?position=107.719762,27.958916&name=%E7%9B%8A%E5%AE%A0%E5%BA%B7%E5%8A%A8%E7%89%A9%E5%8C%BB%E9%99%A2&src=vetmap&coordinate=gaode&callnative=1","route_id":"r1","route_name":"第1段"},{"name":"凤冈豪拓动物诊所","address":"幸福城3-1-2","phone":"17785368539","category":"医疗保健服务;动物医疗场所;宠物诊所","area":"","lng":107.71845,"lat":27.950565,"amap_id":"B0JGDUEYRO","order":5,"prev_distance_km":0.937,"cumulative_distance_km":22.711,"amap_marker_url":"https://uri.amap.com/marker?position=107.718450,27.950565&name=%E5%87%A4%E5%86%88%E8%B1%AA%E6%8B%93%E5%8A%A8%E7%89%A9%E8%AF%8A%E6%89%80&src=vetmap&coordinate=gaode&callnative=1","route_id":"r1","route_name":"第1段"},{"name":"宠里动物诊所(第四分店)","address":"龙凤大道嘉和茗城国际4号楼1-13","phone":"15285430021","category":"医疗保健服务;动物医疗场所;宠物诊所","area":"","lng":107.717712,"lat":27.950364,"amap_id":"B0JABSUQ5C","order":6,"prev_distance_km":0.076,"cumulative_distance_km":22.787,"amap_marker_url":"https://uri.amap.com/marker?position=107.717712,27.950364&name=%E5%AE%A0%E9%87%8C%E5%8A%A8%E7%89%A9%E8%AF%8A%E6%89%80%28%E7%AC%AC%E5%9B%9B%E5%88%86%E5%BA%97%29&src=vetmap&coordinate=gaode&callnative=1","route_id":"r1","route_name":"第1段"}]}],"rows":[{"name":"动物医院","address":"永安镇卫生院东侧180米","phone":"","category":"医疗保健服务;动物医疗场所;宠物诊所","area":"","lng":107.594646,"lat":28.106507,"amap_id":"B0KRM94BKW","order":1,"prev_distance_km":0.0,"cumulative_distance_km":0.0,"amap_marker_url":"https://uri.amap.com/marker?position=107.594646,28.106507&name=%E5%8A%A8%E7%89%A9%E5%8C%BB%E9%99%A2&src=vetmap&coordinate=gaode&callnative=1","route_id":"r1","route_name":"第1段","global_order":1},{"name":"黄三动物保健院","address":"文峰路与迎新大道交叉口东北100米","phone":"","category":"医疗保健服务;动物医疗场所;宠物诊所","area":"","lng":107.729832,"lat":27.973577,"amap_id":"B0K1AMQGJW","order":2,"prev_distance_km":19.862,"cumulative_distance_km":19.862,"amap_marker_url":"https://uri.amap.com/marker?position=107.729832,27.973577&name=%E9%BB%84%E4%B8%89%E5%8A%A8%E7%89%A9%E4%BF%9D%E5%81%A5%E9%99%A2&src=vetmap&coordinate=gaode&callnative=1","route_id":"r1","route_name":"第1段","global_order":2},{"name":"北宸动物诊疗中心","address":"龙泉街道龙潭湖社区迎新大道南段66号门面","phone":"17311979995","category":"医疗保健服务;动物医疗场所;宠物诊所","area":"","lng":107.721816,"lat":27.962919,"amap_id":"B0L6NRIK3E","order":3,"prev_distance_km":1.423,"cumulative_distance_km":21.285,"amap_marker_url":"https://uri.amap.com/marker?position=107.721816,27.962919&name=%E5%8C%97%E5%AE%B8%E5%8A%A8%E7%89%A9%E8%AF%8A%E7%96%97%E4%B8%AD%E5%BF%83&src=vetmap&coordinate=gaode&callnative=1","route_id":"r1","route_name":"第1段","global_order":3},{"name":"益宠康动物医院","address":"石景小区石景北路","phone":"15120246568","category":"医疗保健服务;动物医疗场所;宠物诊所","area":"","lng":107.719762,"lat":27.958916,"amap_id":"B0J3ARRWG2","order":4,"prev_distance_km":0.489,"cumulative_distance_km":21.774,"amap_marker_url":"https://uri.amap.com/marker?position=107.719762,27.958916&name=%E7%9B%8A%E5%AE%A0%E5%BA%B7%E5%8A%A8%E7%89%A9%E5%8C%BB%E9%99%A2&src=vetmap&coordinate=gaode&callnative=1","route_id":"r1","route_name":"第1段","global_order":4},{"name":"凤冈豪拓动物诊所","address":"幸福城3-1-2","phone":"17785368539","category":"医疗保健服务;动物医疗场所;宠物诊所","area":"","lng":107.71845,"lat":27.950565,"amap_id":"B0JGDUEYRO","order":5,"prev_distance_km":0.937,"cumulative_distance_km":22.711,"amap_marker_url":"https://uri.amap.com/marker?position=107.718450,27.950565&name=%E5%87%A4%E5%86%88%E8%B1%AA%E6%8B%93%E5%8A%A8%E7%89%A9%E8%AF%8A%E6%89%80&src=vetmap&coordinate=gaode&callnative=1","route_id":"r1","route_name":"第1段","global_order":5},{"name":"宠里动物诊所(第四分店)","address":"龙凤大道嘉和茗城国际4号楼1-13","phone":"15285430021","category":"医疗保健服务;动物医疗场所;宠物诊所","area":"","lng":107.717712,"lat":27.950364,"amap_id":"B0JABSUQ5C","order":6,"prev_distance_km":0.076,"cumulative_distance_km":22.787,"amap_marker_url":"https://uri.amap.com/marker?position=107.717712,27.950364&name=%E5%AE%A0%E9%87%8C%E5%8A%A8%E7%89%A9%E8%AF%8A%E6%89%80%28%E7%AC%AC%E5%9B%9B%E5%88%86%E5%BA%97%29&src=vetmap&coordinate=gaode&callnative=1","route_id":"r1","route_name":"第1段","global_order":6}]}