{"summary":{"id":"d02405","province":"贵州省","city":"毕节市","district":"织金县","count":11,"route_count":1,"max_route_clinics":11,"total_distance_km":77.937,"coordinate_system":"GCJ-02 / Amap","generated_at":"2026-05-08 19:48:35"},"routes":[{"id":"r1","name":"第1段","count":11,"total_distance_km":77.937,"rows":[{"name":"惠民兽药店","address":"织金县公安局以那派出所东北侧60米","phone":"","category":"医疗保健服务;动物医疗场所;动物医疗场所","area":"","lng":105.697325,"lat":26.814925,"amap_id":"B0LKXCNXJ7","order":1,"prev_distance_km":0.0,"cumulative_distance_km":0.0,"amap_marker_url":"https://uri.amap.com/marker?position=105.697325,26.814925&name=%E6%83%A0%E6%B0%91%E5%85%BD%E8%8D%AF%E5%BA%97&src=vetmap&coordinate=gaode&callnative=1","route_id":"r1","route_name":"第1段"},{"name":"织金灵隆兽药店","address":"黔中国际东北侧260米","phone":"","category":"医疗保健服务;动物医疗场所;动物医疗场所","area":"","lng":105.769569,"lat":26.678488,"amap_id":"B0KR5O07X5","order":2,"prev_distance_km":16.782,"cumulative_distance_km":16.782,"amap_marker_url":"https://uri.amap.com/marker?position=105.769569,26.678488&name=%E7%BB%87%E9%87%91%E7%81%B5%E9%9A%86%E5%85%BD%E8%8D%AF%E5%BA%97&src=vetmap&coordinate=gaode&callnative=1","route_id":"r1","route_name":"第1段"},{"name":"贵阳筑成动物医院织金分院","address":"文腾街道金南路金南尚城1号楼1层17-18号","phone":"17365011120","category":"医疗保健服务;动物医疗场所;宠物诊所","area":"文腾","lng":105.768021,"lat":26.665722,"amap_id":"B0LAUH1N3M","order":3,"prev_distance_km":1.428,"cumulative_distance_km":18.209,"amap_marker_url":"https://uri.amap.com/marker?position=105.768021,26.665722&name=%E8%B4%B5%E9%98%B3%E7%AD%91%E6%88%90%E5%8A%A8%E7%89%A9%E5%8C%BB%E9%99%A2%E7%BB%87%E9%87%91%E5%88%86%E9%99%A2&src=vetmap&coordinate=gaode&callnative=1","route_id":"r1","route_name":"第1段"},{"name":"乖萌动物诊所","address":"玉屏街75号","phone":"15085315509","category":"医疗保健服务;动物医疗场所;宠物诊所","area":"","lng":105.773605,"lat":26.667718,"amap_id":"B0FFKBWG2U","order":4,"prev_distance_km":0.598,"cumulative_distance_km":18.807,"amap_marker_url":"https://uri.amap.com/marker?position=105.773605,26.667718&name=%E4%B9%96%E8%90%8C%E5%8A%A8%E7%89%A9%E8%AF%8A%E6%89%80&src=vetmap&coordinate=gaode&callnative=1","route_id":"r1","route_name":"第1段"},{"name":"康悦宠物医院","address":"双堰街道星秀路147号阳光水岸34号楼1层1-71-8号门面","phone":"17587749818;18744726791","category":"医疗保健服务;动物医疗场所;宠物诊所","area":"","lng":105.77935,"lat":26.673862,"amap_id":"B0LGGSYJHL","order":5,"prev_distance_km":0.89,"cumulative_distance_km":19.697,"amap_marker_url":"https://uri.amap.com/marker?position=105.779350,26.673862&name=%E5%BA%B7%E6%82%A6%E5%AE%A0%E7%89%A9%E5%8C%BB%E9%99%A2&src=vetmap&coordinate=gaode&callnative=1","route_id":"r1","route_name":"第1段"},{"name":"宠乐康动物诊疗中心","address":"金北路333号","phone":"18083306319","category":"医疗保健服务;动物医疗场所;宠物诊所","area":"","lng":105.780272,"lat":26.682254,"amap_id":"B0KKZSPS5N","order":6,"prev_distance_km":0.938,"cumulative_distance_km":20.635,"amap_marker_url":"https://uri.amap.com/marker?position=105.780272,26.682254&name=%E5%AE%A0%E4%B9%90%E5%BA%B7%E5%8A%A8%E7%89%A9%E8%AF%8A%E7%96%97%E4%B8%AD%E5%BF%83&src=vetmap&coordinate=gaode&callnative=1","route_id":"r1","route_name":"第1段"},{"name":"织金县史莱克宠物医院","address":"绮陌街道半岛温泉1期B区2号楼1单元17号商铺","phone":"16685868120","category":"医疗保健服务;动物医疗场所;宠物诊所","area":"","lng":105.786552,"lat":26.687423,"amap_id":"B0HDHCEX2W","order":7,"prev_distance_km":0.848,"cumulative_distance_km":21.483,"amap_marker_url":"https://uri.amap.com/marker?position=105.786552,26.687423&name=%E7%BB%87%E9%87%91%E5%8E%BF%E5%8F%B2%E8%8E%B1%E5%85%8B%E5%AE%A0%E7%89%A9%E5%8C%BB%E9%99%A2&src=vetmap&coordinate=gaode&callnative=1","route_id":"r1","route_name":"第1段"},{"name":"黄庆动物诊疗","address":"化起镇卫生院西南侧100米","phone":"","category":"医疗保健服务;动物医疗场所;宠物诊所","area":"","lng":106.015664,"lat":26.703935,"amap_id":"B0LG357Y97","order":8,"prev_distance_km":22.834,"cumulative_distance_km":44.318,"amap_marker_url":"https://uri.amap.com/marker?position=106.015664,26.703935&name=%E9%BB%84%E5%BA%86%E5%8A%A8%E7%89%A9%E8%AF%8A%E7%96%97&src=vetmap&coordinate=gaode&callnative=1","route_id":"r1","route_name":"第1段"},{"name":"黄庆动物诊疗","address":"龙场中学南侧210米","phone":"","category":"医疗保健服务;动物医疗场所;宠物诊所","area":"","lng":106.080799,"lat":26.751844,"amap_id":"B0KRXSSO66","order":9,"prev_distance_km":8.38,"cumulative_distance_km":52.698,"amap_marker_url":"https://uri.amap.com/marker?position=106.080799,26.751844&name=%E9%BB%84%E5%BA%86%E5%8A%A8%E7%89%A9%E8%AF%8A%E7%96%97&src=vetmap&coordinate=gaode&callnative=1","route_id":"r1","route_name":"第1段"},{"name":"鑫牧牧业兽药店","address":"猫场镇卫生院东北侧220米","phone":"","category":"医疗保健服务;动物医疗场所;动物医疗场所","area":"","lng":106.035305,"lat":26.538983,"amap_id":"B0KBR5Q5XS","order":10,"prev_distance_km":24.097,"cumulative_distance_km":76.795,"amap_marker_url":"https://uri.amap.com/marker?position=106.035305,26.538983&name=%E9%91%AB%E7%89%A7%E7%89%A7%E4%B8%9A%E5%85%BD%E8%8D%AF%E5%BA%97&src=vetmap&coordinate=gaode&callnative=1","route_id":"r1","route_name":"第1段"},{"name":"猫场友君动保兽药店","address":"Zhi Dong加油站西南侧170米","phone":"","category":"医疗保健服务;动物医疗场所;动物医疗场所","area":"","lng":106.025725,"lat":26.533325,"amap_id":"B0LK2UR4J6","order":11,"prev_distance_km":1.142,"cumulative_distance_km":77.937,"amap_marker_url":"https://uri.amap.com/marker?position=106.025725,26.533325&name=%E7%8C%AB%E5%9C%BA%E5%8F%8B%E5%90%9B%E5%8A%A8%E4%BF%9D%E5%85%BD%E8%8D%AF%E5%BA%97&src=vetmap&coordinate=gaode&callnative=1","route_id":"r1","route_name":"第1段"}]}],"rows":[{"name":"惠民兽药店","address":"织金县公安局以那派出所东北侧60米","phone":"","category":"医疗保健服务;动物医疗场所;动物医疗场所","area":"","lng":105.697325,"lat":26.814925,"amap_id":"B0LKXCNXJ7","order":1,"prev_distance_km":0.0,"cumulative_distance_km":0.0,"amap_marker_url":"https://uri.amap.com/marker?position=105.697325,26.814925&name=%E6%83%A0%E6%B0%91%E5%85%BD%E8%8D%AF%E5%BA%97&src=vetmap&coordinate=gaode&callnative=1","route_id":"r1","route_name":"第1段","global_order":1},{"name":"织金灵隆兽药店","address":"黔中国际东北侧260米","phone":"","category":"医疗保健服务;动物医疗场所;动物医疗场所","area":"","lng":105.769569,"lat":26.678488,"amap_id":"B0KR5O07X5","order":2,"prev_distance_km":16.782,"cumulative_distance_km":16.782,"amap_marker_url":"https://uri.amap.com/marker?position=105.769569,26.678488&name=%E7%BB%87%E9%87%91%E7%81%B5%E9%9A%86%E5%85%BD%E8%8D%AF%E5%BA%97&src=vetmap&coordinate=gaode&callnative=1","route_id":"r1","route_name":"第1段","global_order":2},{"name":"贵阳筑成动物医院织金分院","address":"文腾街道金南路金南尚城1号楼1层17-18号","phone":"17365011120","category":"医疗保健服务;动物医疗场所;宠物诊所","area":"文腾","lng":105.768021,"lat":26.665722,"amap_id":"B0LAUH1N3M","order":3,"prev_distance_km":1.428,"cumulative_distance_km":18.209,"amap_marker_url":"https://uri.amap.com/marker?position=105.768021,26.665722&name=%E8%B4%B5%E9%98%B3%E7%AD%91%E6%88%90%E5%8A%A8%E7%89%A9%E5%8C%BB%E9%99%A2%E7%BB%87%E9%87%91%E5%88%86%E9%99%A2&src=vetmap&coordinate=gaode&callnative=1","route_id":"r1","route_name":"第1段","global_order":3},{"name":"乖萌动物诊所","address":"玉屏街75号","phone":"15085315509","category":"医疗保健服务;动物医疗场所;宠物诊所","area":"","lng":105.773605,"lat":26.667718,"amap_id":"B0FFKBWG2U","order":4,"prev_distance_km":0.598,"cumulative_distance_km":18.807,"amap_marker_url":"https://uri.amap.com/marker?position=105.773605,26.667718&name=%E4%B9%96%E8%90%8C%E5%8A%A8%E7%89%A9%E8%AF%8A%E6%89%80&src=vetmap&coordinate=gaode&callnative=1","route_id":"r1","route_name":"第1段","global_order":4},{"name":"康悦宠物医院","address":"双堰街道星秀路147号阳光水岸34号楼1层1-71-8号门面","phone":"17587749818;18744726791","category":"医疗保健服务;动物医疗场所;宠物诊所","area":"","lng":105.77935,"lat":26.673862,"amap_id":"B0LGGSYJHL","order":5,"prev_distance_km":0.89,"cumulative_distance_km":19.697,"amap_marker_url":"https://uri.amap.com/marker?position=105.779350,26.673862&name=%E5%BA%B7%E6%82%A6%E5%AE%A0%E7%89%A9%E5%8C%BB%E9%99%A2&src=vetmap&coordinate=gaode&callnative=1","route_id":"r1","route_name":"第1段","global_order":5},{"name":"宠乐康动物诊疗中心","address":"金北路333号","phone":"18083306319","category":"医疗保健服务;动物医疗场所;宠物诊所","area":"","lng":105.780272,"lat":26.682254,"amap_id":"B0KKZSPS5N","order":6,"prev_distance_km":0.938,"cumulative_distance_km":20.635,"amap_marker_url":"https://uri.amap.com/marker?position=105.780272,26.682254&name=%E5%AE%A0%E4%B9%90%E5%BA%B7%E5%8A%A8%E7%89%A9%E8%AF%8A%E7%96%97%E4%B8%AD%E5%BF%83&src=vetmap&coordinate=gaode&callnative=1","route_id":"r1","route_name":"第1段","global_order":6},{"name":"织金县史莱克宠物医院","address":"绮陌街道半岛温泉1期B区2号楼1单元17号商铺","phone":"16685868120","category":"医疗保健服务;动物医疗场所;宠物诊所","area":"","lng":105.786552,"lat":26.687423,"amap_id":"B0HDHCEX2W","order":7,"prev_distance_km":0.848,"cumulative_distance_km":21.483,"amap_marker_url":"https://uri.amap.com/marker?position=105.786552,26.687423&name=%E7%BB%87%E9%87%91%E5%8E%BF%E5%8F%B2%E8%8E%B1%E5%85%8B%E5%AE%A0%E7%89%A9%E5%8C%BB%E9%99%A2&src=vetmap&coordinate=gaode&callnative=1","route_id":"r1","route_name":"第1段","global_order":7},{"name":"黄庆动物诊疗","address":"化起镇卫生院西南侧100米","phone":"","category":"医疗保健服务;动物医疗场所;宠物诊所","area":"","lng":106.015664,"lat":26.703935,"amap_id":"B0LG357Y97","order":8,"prev_distance_km":22.834,"cumulative_distance_km":44.318,"amap_marker_url":"https://uri.amap.com/marker?position=106.015664,26.703935&name=%E9%BB%84%E5%BA%86%E5%8A%A8%E7%89%A9%E8%AF%8A%E7%96%97&src=vetmap&coordinate=gaode&callnative=1","route_id":"r1","route_name":"第1段","global_order":8},{"name":"黄庆动物诊疗","address":"龙场中学南侧210米","phone":"","category":"医疗保健服务;动物医疗场所;宠物诊所","area":"","lng":106.080799,"lat":26.751844,"amap_id":"B0KRXSSO66","order":9,"prev_distance_km":8.38,"cumulative_distance_km":52.698,"amap_marker_url":"https://uri.amap.com/marker?position=106.080799,26.751844&name=%E9%BB%84%E5%BA%86%E5%8A%A8%E7%89%A9%E8%AF%8A%E7%96%97&src=vetmap&coordinate=gaode&callnative=1","route_id":"r1","route_name":"第1段","global_order":9},{"name":"鑫牧牧业兽药店","address":"猫场镇卫生院东北侧220米","phone":"","category":"医疗保健服务;动物医疗场所;动物医疗场所","area":"","lng":106.035305,"lat":26.538983,"amap_id":"B0KBR5Q5XS","order":10,"prev_distance_km":24.097,"cumulative_distance_km":76.795,"amap_marker_url":"https://uri.amap.com/marker?position=106.035305,26.538983&name=%E9%91%AB%E7%89%A7%E7%89%A7%E4%B8%9A%E5%85%BD%E8%8D%AF%E5%BA%97&src=vetmap&coordinate=gaode&callnative=1","route_id":"r1","route_name":"第1段","global_order":10},{"name":"猫场友君动保兽药店","address":"Zhi Dong加油站西南侧170米","phone":"","category":"医疗保健服务;动物医疗场所;动物医疗场所","area":"","lng":106.025725,"lat":26.533325,"amap_id":"B0LK2UR4J6","order":11,"prev_distance_km":1.142,"cumulative_distance_km":77.937,"amap_marker_url":"https://uri.amap.com/marker?position=106.025725,26.533325&name=%E7%8C%AB%E5%9C%BA%E5%8F%8B%E5%90%9B%E5%8A%A8%E4%BF%9D%E5%85%BD%E8%8D%AF%E5%BA%97&src=vetmap&coordinate=gaode&callnative=1","route_id":"r1","route_name":"第1段","global_order":11}]}