{"summary":{"id":"d02408","province":"贵州省","city":"毕节市","district":"黔西市","count":10,"route_count":1,"max_route_clinics":10,"total_distance_km":29.607,"coordinate_system":"GCJ-02 / Amap","generated_at":"2026-05-07 21:30:35"},"routes":[{"id":"r1","name":"第1段","count":10,"total_distance_km":29.607,"rows":[{"name":"友君动保兽药店","address":"004县道与移民街交叉口南380米","phone":"13595777480","category":"医疗保健服务;动物医疗场所;兽医站","area":"","lng":106.166917,"lat":26.878979,"amap_id":"B0H3BC1UDC","order":1,"prev_distance_km":0.0,"cumulative_distance_km":0.0,"amap_marker_url":"https://uri.amap.com/marker?position=106.166917,26.878979&name=%E5%8F%8B%E5%90%9B%E5%8A%A8%E4%BF%9D%E5%85%BD%E8%8D%AF%E5%BA%97&src=vetmap&coordinate=gaode&callnative=1","route_id":"r1","route_name":"第1段"},{"name":"张川兽药","address":"新仁派出所东侧80米","phone":"","category":"购物服务;购物相关场所;购物相关场所|医疗保健服务;动物医疗场所;动物医疗场所","area":"","lng":106.101875,"lat":26.856975,"amap_id":"B0LU4OWXR1","order":2,"prev_distance_km":6.9,"cumulative_distance_km":6.9,"amap_marker_url":"https://uri.amap.com/marker?position=106.101875,26.856975&name=%E5%BC%A0%E5%B7%9D%E5%85%BD%E8%8D%AF&src=vetmap&coordinate=gaode&callnative=1","route_id":"r1","route_name":"第1段"},{"name":"昵萌动物医院","address":"市莲城大道347号","phone":"15685474886","category":"医疗保健服务;动物医疗场所;宠物诊所","area":"文化路","lng":106.04299,"lat":27.005638,"amap_id":"B0H16R02K4","order":3,"prev_distance_km":17.531,"cumulative_distance_km":24.431,"amap_marker_url":"https://uri.amap.com/marker?position=106.042990,27.005638&name=%E6%98%B5%E8%90%8C%E5%8A%A8%E7%89%A9%E5%8C%BB%E9%99%A2&src=vetmap&coordinate=gaode&callnative=1","route_id":"r1","route_name":"第1段"},{"name":"宠友记动物医院","address":"宏杭·公园壹号","phone":"17586074777","category":"医疗保健服务;动物医疗场所;宠物诊所","area":"","lng":106.050076,"lat":27.010745,"amap_id":"B0L3CNHZIZ","order":4,"prev_distance_km":0.903,"cumulative_distance_km":25.334,"amap_marker_url":"https://uri.amap.com/marker?position=106.050076,27.010745&name=%E5%AE%A0%E5%8F%8B%E8%AE%B0%E5%8A%A8%E7%89%A9%E5%8C%BB%E9%99%A2&src=vetmap&coordinate=gaode&callnative=1","route_id":"r1","route_name":"第1段"},{"name":"乐轩宠物","address":"莲城大道77号","phone":"18984713997","category":"医疗保健服务;动物医疗场所;动物医疗场所","area":"文化路","lng":106.040116,"lat":27.02008,"amap_id":"B0L05ASUJV","order":5,"prev_distance_km":1.432,"cumulative_distance_km":26.766,"amap_marker_url":"https://uri.amap.com/marker?position=106.040116,27.020080&name=%E4%B9%90%E8%BD%A9%E5%AE%A0%E7%89%A9&src=vetmap&coordinate=gaode&callnative=1","route_id":"r1","route_name":"第1段"},{"name":"派乐多宠物诊所","address":"园丁路13号小区对面","phone":"19886975722","category":"医疗保健服务;动物医疗场所;宠物诊所","area":"水西大道","lng":106.04033,"lat":27.024418,"amap_id":"B0K2RU23NG","order":6,"prev_distance_km":0.483,"cumulative_distance_km":27.249,"amap_marker_url":"https://uri.amap.com/marker?position=106.040330,27.024418&name=%E6%B4%BE%E4%B9%90%E5%A4%9A%E5%AE%A0%E7%89%A9%E8%AF%8A%E6%89%80&src=vetmap&coordinate=gaode&callnative=1","route_id":"r1","route_name":"第1段"},{"name":"乖萌动物诊所","address":"水西大街花鸟市场紫外巷19-2","phone":"15284616383","category":"医疗保健服务;动物医疗场所;宠物诊所","area":"东桥","lng":106.035764,"lat":27.023509,"amap_id":"B0FFK5MZKE","order":7,"prev_distance_km":0.463,"cumulative_distance_km":27.712,"amap_marker_url":"https://uri.amap.com/marker?position=106.035764,27.023509&name=%E4%B9%96%E8%90%8C%E5%8A%A8%E7%89%A9%E8%AF%8A%E6%89%80&src=vetmap&coordinate=gaode&callnative=1","route_id":"r1","route_name":"第1段"},{"name":"花都宠物诊所","address":"花鸟市场内中段花嘟宠物诊所","phone":"18230940315","category":"医疗保健服务;动物医疗场所;宠物诊所","area":"水西大道","lng":106.034906,"lat":27.02349,"amap_id":"B0FFGB5Z34","order":8,"prev_distance_km":0.085,"cumulative_distance_km":27.797,"amap_marker_url":"https://uri.amap.com/marker?position=106.034906,27.023490&name=%E8%8A%B1%E9%83%BD%E5%AE%A0%E7%89%A9%E8%AF%8A%E6%89%80&src=vetmap&coordinate=gaode&callnative=1","route_id":"r1","route_name":"第1段"},{"name":"安佑宠物诊所","address":"民主路58号","phone":"18302634528","category":"医疗保健服务;动物医疗场所;宠物诊所","area":"","lng":106.032329,"lat":27.030038,"amap_id":"B0J2YDP3WM","order":9,"prev_distance_km":0.772,"cumulative_distance_km":28.569,"amap_marker_url":"https://uri.amap.com/marker?position=106.032329,27.030038&name=%E5%AE%89%E4%BD%91%E5%AE%A0%E7%89%A9%E8%AF%8A%E6%89%80&src=vetmap&coordinate=gaode&callnative=1","route_id":"r1","route_name":"第1段"},{"name":"黔西市动物疫病预防控制中心","address":"水西街道东门小区旁","phone":"","category":"医疗保健服务;动物医疗场所;动物医疗场所","area":"","lng":106.041864,"lat":27.033922,"amap_id":"B03590PAG1","order":10,"prev_distance_km":1.038,"cumulative_distance_km":29.607,"amap_marker_url":"https://uri.amap.com/marker?position=106.041864,27.033922&name=%E9%BB%94%E8%A5%BF%E5%B8%82%E5%8A%A8%E7%89%A9%E7%96%AB%E7%97%85%E9%A2%84%E9%98%B2%E6%8E%A7%E5%88%B6%E4%B8%AD%E5%BF%83&src=vetmap&coordinate=gaode&callnative=1","route_id":"r1","route_name":"第1段"}]}],"rows":[{"name":"友君动保兽药店","address":"004县道与移民街交叉口南380米","phone":"13595777480","category":"医疗保健服务;动物医疗场所;兽医站","area":"","lng":106.166917,"lat":26.878979,"amap_id":"B0H3BC1UDC","order":1,"prev_distance_km":0.0,"cumulative_distance_km":0.0,"amap_marker_url":"https://uri.amap.com/marker?position=106.166917,26.878979&name=%E5%8F%8B%E5%90%9B%E5%8A%A8%E4%BF%9D%E5%85%BD%E8%8D%AF%E5%BA%97&src=vetmap&coordinate=gaode&callnative=1","route_id":"r1","route_name":"第1段","global_order":1},{"name":"张川兽药","address":"新仁派出所东侧80米","phone":"","category":"购物服务;购物相关场所;购物相关场所|医疗保健服务;动物医疗场所;动物医疗场所","area":"","lng":106.101875,"lat":26.856975,"amap_id":"B0LU4OWXR1","order":2,"prev_distance_km":6.9,"cumulative_distance_km":6.9,"amap_marker_url":"https://uri.amap.com/marker?position=106.101875,26.856975&name=%E5%BC%A0%E5%B7%9D%E5%85%BD%E8%8D%AF&src=vetmap&coordinate=gaode&callnative=1","route_id":"r1","route_name":"第1段","global_order":2},{"name":"昵萌动物医院","address":"市莲城大道347号","phone":"15685474886","category":"医疗保健服务;动物医疗场所;宠物诊所","area":"文化路","lng":106.04299,"lat":27.005638,"amap_id":"B0H16R02K4","order":3,"prev_distance_km":17.531,"cumulative_distance_km":24.431,"amap_marker_url":"https://uri.amap.com/marker?position=106.042990,27.005638&name=%E6%98%B5%E8%90%8C%E5%8A%A8%E7%89%A9%E5%8C%BB%E9%99%A2&src=vetmap&coordinate=gaode&callnative=1","route_id":"r1","route_name":"第1段","global_order":3},{"name":"宠友记动物医院","address":"宏杭·公园壹号","phone":"17586074777","category":"医疗保健服务;动物医疗场所;宠物诊所","area":"","lng":106.050076,"lat":27.010745,"amap_id":"B0L3CNHZIZ","order":4,"prev_distance_km":0.903,"cumulative_distance_km":25.334,"amap_marker_url":"https://uri.amap.com/marker?position=106.050076,27.010745&name=%E5%AE%A0%E5%8F%8B%E8%AE%B0%E5%8A%A8%E7%89%A9%E5%8C%BB%E9%99%A2&src=vetmap&coordinate=gaode&callnative=1","route_id":"r1","route_name":"第1段","global_order":4},{"name":"乐轩宠物","address":"莲城大道77号","phone":"18984713997","category":"医疗保健服务;动物医疗场所;动物医疗场所","area":"文化路","lng":106.040116,"lat":27.02008,"amap_id":"B0L05ASUJV","order":5,"prev_distance_km":1.432,"cumulative_distance_km":26.766,"amap_marker_url":"https://uri.amap.com/marker?position=106.040116,27.020080&name=%E4%B9%90%E8%BD%A9%E5%AE%A0%E7%89%A9&src=vetmap&coordinate=gaode&callnative=1","route_id":"r1","route_name":"第1段","global_order":5},{"name":"派乐多宠物诊所","address":"园丁路13号小区对面","phone":"19886975722","category":"医疗保健服务;动物医疗场所;宠物诊所","area":"水西大道","lng":106.04033,"lat":27.024418,"amap_id":"B0K2RU23NG","order":6,"prev_distance_km":0.483,"cumulative_distance_km":27.249,"amap_marker_url":"https://uri.amap.com/marker?position=106.040330,27.024418&name=%E6%B4%BE%E4%B9%90%E5%A4%9A%E5%AE%A0%E7%89%A9%E8%AF%8A%E6%89%80&src=vetmap&coordinate=gaode&callnative=1","route_id":"r1","route_name":"第1段","global_order":6},{"name":"乖萌动物诊所","address":"水西大街花鸟市场紫外巷19-2","phone":"15284616383","category":"医疗保健服务;动物医疗场所;宠物诊所","area":"东桥","lng":106.035764,"lat":27.023509,"amap_id":"B0FFK5MZKE","order":7,"prev_distance_km":0.463,"cumulative_distance_km":27.712,"amap_marker_url":"https://uri.amap.com/marker?position=106.035764,27.023509&name=%E4%B9%96%E8%90%8C%E5%8A%A8%E7%89%A9%E8%AF%8A%E6%89%80&src=vetmap&coordinate=gaode&callnative=1","route_id":"r1","route_name":"第1段","global_order":7},{"name":"花都宠物诊所","address":"花鸟市场内中段花嘟宠物诊所","phone":"18230940315","category":"医疗保健服务;动物医疗场所;宠物诊所","area":"水西大道","lng":106.034906,"lat":27.02349,"amap_id":"B0FFGB5Z34","order":8,"prev_distance_km":0.085,"cumulative_distance_km":27.797,"amap_marker_url":"https://uri.amap.com/marker?position=106.034906,27.023490&name=%E8%8A%B1%E9%83%BD%E5%AE%A0%E7%89%A9%E8%AF%8A%E6%89%80&src=vetmap&coordinate=gaode&callnative=1","route_id":"r1","route_name":"第1段","global_order":8},{"name":"安佑宠物诊所","address":"民主路58号","phone":"18302634528","category":"医疗保健服务;动物医疗场所;宠物诊所","area":"","lng":106.032329,"lat":27.030038,"amap_id":"B0J2YDP3WM","order":9,"prev_distance_km":0.772,"cumulative_distance_km":28.569,"amap_marker_url":"https://uri.amap.com/marker?position=106.032329,27.030038&name=%E5%AE%89%E4%BD%91%E5%AE%A0%E7%89%A9%E8%AF%8A%E6%89%80&src=vetmap&coordinate=gaode&callnative=1","route_id":"r1","route_name":"第1段","global_order":9},{"name":"黔西市动物疫病预防控制中心","address":"水西街道东门小区旁","phone":"","category":"医疗保健服务;动物医疗场所;动物医疗场所","area":"","lng":106.041864,"lat":27.033922,"amap_id":"B03590PAG1","order":10,"prev_distance_km":1.038,"cumulative_distance_km":29.607,"amap_marker_url":"https://uri.amap.com/marker?position=106.041864,27.033922&name=%E9%BB%94%E8%A5%BF%E5%B8%82%E5%8A%A8%E7%89%A9%E7%96%AB%E7%97%85%E9%A2%84%E9%98%B2%E6%8E%A7%E5%88%B6%E4%B8%AD%E5%BF%83&src=vetmap&coordinate=gaode&callnative=1","route_id":"r1","route_name":"第1段","global_order":10}]}