{"summary":{"id":"d02586","province":"陕西省","city":"渭南市","district":"蒲城县","count":5,"total_distance_km":20.331,"coordinate_system":"GCJ-02 / Amap","generated_at":"2026-05-07 20:24:27"},"rows":[{"name":"张强禽病工作室","address":"城关镇紫金路中段","phone":"13892343711","category":"医疗保健服务;动物医疗场所;兽医站","area":"","lng":109.592857,"lat":34.960689,"amap_id":"B0FFH6A57A","order":1,"prev_distance_km":0.0,"cumulative_distance_km":0.0,"amap_marker_url":"https://uri.amap.com/marker?position=109.592857,34.960689&name=%E5%BC%A0%E5%BC%BA%E7%A6%BD%E7%97%85%E5%B7%A5%E4%BD%9C%E5%AE%A4&src=vetmap&coordinate=gaode&callnative=1"},{"name":"诺康宠物医院(蒲城店)","address":"鑫枫苑小区东北门旁","phone":"17365683427","category":"医疗保健服务;动物医疗场所;宠物诊所","area":"迎宾路","lng":109.596089,"lat":34.954821,"amap_id":"B0IDVSZHSR","order":2,"prev_distance_km":0.716,"cumulative_distance_km":0.716,"amap_marker_url":"https://uri.amap.com/marker?position=109.596089,34.954821&name=%E8%AF%BA%E5%BA%B7%E5%AE%A0%E7%89%A9%E5%8C%BB%E9%99%A2%28%E8%92%B2%E5%9F%8E%E5%BA%97%29&src=vetmap&coordinate=gaode&callnative=1"},{"name":"爱宠康宠物医院(汇邦中央公馆3期店)","address":"新城大道中段国际酒店对面","phone":"17391597107","category":"医疗保健服务;动物医疗场所;宠物诊所","area":"","lng":109.587418,"lat":34.939029,"amap_id":"B0ID4HOAXP","order":3,"prev_distance_km":1.926,"cumulative_distance_km":2.642,"amap_marker_url":"https://uri.amap.com/marker?position=109.587418,34.939029&name=%E7%88%B1%E5%AE%A0%E5%BA%B7%E5%AE%A0%E7%89%A9%E5%8C%BB%E9%99%A2%28%E6%B1%87%E9%82%A6%E4%B8%AD%E5%A4%AE%E5%85%AC%E9%A6%863%E6%9C%9F%E5%BA%97%29&src=vetmap&coordinate=gaode&callnative=1"},{"name":"涵博瑞康畜牧健康服务中心","address":"西城大道999号","phone":"15389378268;17386964005","category":"医疗保健服务;动物医疗场所;兽医站","area":"","lng":109.564107,"lat":34.943784,"amap_id":"B0L2F51MQ3","order":4,"prev_distance_km":2.19,"cumulative_distance_km":4.831,"amap_marker_url":"https://uri.amap.com/marker?position=109.564107,34.943784&name=%E6%B6%B5%E5%8D%9A%E7%91%9E%E5%BA%B7%E7%95%9C%E7%89%A7%E5%81%A5%E5%BA%B7%E6%9C%8D%E5%8A%A1%E4%B8%AD%E5%BF%83&src=vetmap&coordinate=gaode&callnative=1"},{"name":"羊鑫羊畜牧服务中心","address":"阮真油坊南侧280米","phone":"","category":"医疗保健服务;动物医疗场所;兽医站","area":"","lng":109.451168,"lat":34.839627,"amap_id":"B0K0GHAQLF","order":5,"prev_distance_km":15.5,"cumulative_distance_km":20.331,"amap_marker_url":"https://uri.amap.com/marker?position=109.451168,34.839627&name=%E7%BE%8A%E9%91%AB%E7%BE%8A%E7%95%9C%E7%89%A7%E6%9C%8D%E5%8A%A1%E4%B8%AD%E5%BF%83&src=vetmap&coordinate=gaode&callnative=1"}]}