{"summary":{"id":"d02582","province":"陕西省","city":"渭南市","district":"富平县","count":15,"route_count":1,"max_route_clinics":15,"total_distance_km":64.868,"coordinate_system":"GCJ-02 / Amap","generated_at":"2026-05-07 21:31:04"},"routes":[{"id":"r1","name":"第1段","count":15,"total_distance_km":64.868,"rows":[{"name":"富平忠宠宠物诊所","address":"南二环状元府邸南门25-1-7号商铺","phone":"18220636794","category":"医疗保健服务;动物医疗场所;宠物诊所","area":"","lng":109.18122,"lat":34.728974,"amap_id":"B0H125AQ05","order":1,"prev_distance_km":0.0,"cumulative_distance_km":0.0,"amap_marker_url":"https://uri.amap.com/marker?position=109.181220,34.728974&name=%E5%AF%8C%E5%B9%B3%E5%BF%A0%E5%AE%A0%E5%AE%A0%E7%89%A9%E8%AF%8A%E6%89%80&src=vetmap&coordinate=gaode&callnative=1","route_id":"r1","route_name":"第1段"},{"name":"辰牧宠物诊疗(富平店)","address":"富兴路中段西A区3-005号","phone":"0913-8235441;15353084687","category":"医疗保健服务;动物医疗场所;宠物诊所","area":"","lng":109.204488,"lat":34.750936,"amap_id":"B0I1BSWY9J","order":2,"prev_distance_km":3.238,"cumulative_distance_km":3.238,"amap_marker_url":"https://uri.amap.com/marker?position=109.204488,34.750936&name=%E8%BE%B0%E7%89%A7%E5%AE%A0%E7%89%A9%E8%AF%8A%E7%96%97%28%E5%AF%8C%E5%B9%B3%E5%BA%97%29&src=vetmap&coordinate=gaode&callnative=1","route_id":"r1","route_name":"第1段"},{"name":"宠爱动物康复中心","address":"秦正·华府北门西60米","phone":"0913-8780120","category":"医疗保健服务;动物医疗场所;宠物诊所","area":"","lng":109.200772,"lat":34.751577,"amap_id":"B0FFGJCJWM","order":3,"prev_distance_km":0.347,"cumulative_distance_km":3.585,"amap_marker_url":"https://uri.amap.com/marker?position=109.200772,34.751577&name=%E5%AE%A0%E7%88%B1%E5%8A%A8%E7%89%A9%E5%BA%B7%E5%A4%8D%E4%B8%AD%E5%BF%83&src=vetmap&coordinate=gaode&callnative=1","route_id":"r1","route_name":"第1段"},{"name":"李师兽药店","address":"乔山路与怀德大街交叉口东南40米","phone":"0913-8236595;15389135179","category":"医疗保健服务;动物医疗场所;动物医疗场所","area":"","lng":109.183218,"lat":34.766534,"amap_id":"B0FFGXON7H","order":4,"prev_distance_km":2.31,"cumulative_distance_km":5.895,"amap_marker_url":"https://uri.amap.com/marker?position=109.183218,34.766534&name=%E6%9D%8E%E5%B8%88%E5%85%BD%E8%8D%AF%E5%BA%97&src=vetmap&coordinate=gaode&callnative=1","route_id":"r1","route_name":"第1段"},{"name":"君昌畜牧兽医技术服务部","address":"望湖路31号","phone":"13991670587","category":"医疗保健服务;动物医疗场所;兽医站","area":"","lng":109.166268,"lat":34.749562,"amap_id":"B03910NKSR","order":5,"prev_distance_km":2.441,"cumulative_distance_km":8.336,"amap_marker_url":"https://uri.amap.com/marker?position=109.166268,34.749562&name=%E5%90%9B%E6%98%8C%E7%95%9C%E7%89%A7%E5%85%BD%E5%8C%BB%E6%8A%80%E6%9C%AF%E6%9C%8D%E5%8A%A1%E9%83%A8&src=vetmap&coordinate=gaode&callnative=1","route_id":"r1","route_name":"第1段"},{"name":"宏恩兽药南社分店","address":"张觅路与富耀路交叉口东100米","phone":"","category":"医疗保健服务;动物医疗场所;动物医疗场所","area":"","lng":109.113926,"lat":34.770965,"amap_id":"B0LAVC6OTG","order":6,"prev_distance_km":5.341,"cumulative_distance_km":13.677,"amap_marker_url":"https://uri.amap.com/marker?position=109.113926,34.770965&name=%E5%AE%8F%E6%81%A9%E5%85%BD%E8%8D%AF%E5%8D%97%E7%A4%BE%E5%88%86%E5%BA%97&src=vetmap&coordinate=gaode&callnative=1","route_id":"r1","route_name":"第1段"},{"name":"杨前窑畜牧服务站","address":"施兴路","phone":"","category":"医疗保健服务;动物医疗场所;兽医站","area":"","lng":109.107233,"lat":34.791737,"amap_id":"B0L3J1GIAO","order":7,"prev_distance_km":2.389,"cumulative_distance_km":16.067,"amap_marker_url":"https://uri.amap.com/marker?position=109.107233,34.791737&name=%E6%9D%A8%E5%89%8D%E7%AA%91%E7%95%9C%E7%89%A7%E6%9C%8D%E5%8A%A1%E7%AB%99&src=vetmap&coordinate=gaode&callnative=1","route_id":"r1","route_name":"第1段"},{"name":"秦泰畜牧兽医服务","address":"金庄路与丑铸路交叉口东60米","phone":"15829833456;18091329676","category":"医疗保健服务;动物医疗场所;兽医站","area":"","lng":109.114032,"lat":34.823905,"amap_id":"B0FFHDFEVM","order":8,"prev_distance_km":3.63,"cumulative_distance_km":19.697,"amap_marker_url":"https://uri.amap.com/marker?position=109.114032,34.823905&name=%E7%A7%A6%E6%B3%B0%E7%95%9C%E7%89%A7%E5%85%BD%E5%8C%BB%E6%9C%8D%E5%8A%A1&src=vetmap&coordinate=gaode&callnative=1","route_id":"r1","route_name":"第1段"},{"name":"刘师动物医院","address":"曹村镇曹村街道","phone":"13759669856","category":"医疗保健服务;动物医疗场所;兽医站|医疗保健服务;动物医疗场所;宠物诊所","area":"","lng":109.204964,"lat":34.900251,"amap_id":"B0FFG40XEK","order":9,"prev_distance_km":11.87,"cumulative_distance_km":31.567,"amap_marker_url":"https://uri.amap.com/marker?position=109.204964,34.900251&name=%E5%88%98%E5%B8%88%E5%8A%A8%E7%89%A9%E5%8C%BB%E9%99%A2&src=vetmap&coordinate=gaode&callnative=1","route_id":"r1","route_name":"第1段"},{"name":"富平县流曲镇畜牧兽医站","address":"党北路","phone":"","category":"医疗保健服务;动物医疗场所;兽医站","area":"","lng":109.271044,"lat":34.866033,"amap_id":"B0JDR9KAVL","order":10,"prev_distance_km":7.128,"cumulative_distance_km":38.695,"amap_marker_url":"https://uri.amap.com/marker?position=109.271044,34.866033&name=%E5%AF%8C%E5%B9%B3%E5%8E%BF%E6%B5%81%E6%9B%B2%E9%95%87%E7%95%9C%E7%89%A7%E5%85%BD%E5%8C%BB%E7%AB%99&src=vetmap&coordinate=gaode&callnative=1","route_id":"r1","route_name":"第1段"},{"name":"宏恩兽药店(流曲分店)","address":"陈底流路","phone":"19890931379","category":"医疗保健服务;动物医疗场所;动物医疗场所","area":"","lng":109.271609,"lat":34.869009,"amap_id":"B0L1MHHE53","order":11,"prev_distance_km":0.335,"cumulative_distance_km":39.03,"amap_marker_url":"https://uri.amap.com/marker?position=109.271609,34.869009&name=%E5%AE%8F%E6%81%A9%E5%85%BD%E8%8D%AF%E5%BA%97%28%E6%B5%81%E6%9B%B2%E5%88%86%E5%BA%97%29&src=vetmap&coordinate=gaode&callnative=1","route_id":"r1","route_name":"第1段"},{"name":"科瑞兽药店","address":"金庄路与峪由路交叉口西北140米","phone":"","category":"医疗保健服务;动物医疗场所;动物医疗场所","area":"","lng":109.310275,"lat":34.901025,"amap_id":"B0M6VUJM5D","order":12,"prev_distance_km":5.011,"cumulative_distance_km":44.041,"amap_marker_url":"https://uri.amap.com/marker?position=109.310275,34.901025&name=%E7%A7%91%E7%91%9E%E5%85%BD%E8%8D%AF%E5%BA%97&src=vetmap&coordinate=gaode&callnative=1","route_id":"r1","route_name":"第1段"},{"name":"美原兽医站","address":"俭西路与雷苏路交叉口西120米","phone":"","category":"医疗保健服务;动物医疗场所;兽医站","area":"","lng":109.353713,"lat":34.944306,"amap_id":"B0FFH7C36F","order":13,"prev_distance_km":6.233,"cumulative_distance_km":50.274,"amap_marker_url":"https://uri.amap.com/marker?position=109.353713,34.944306&name=%E7%BE%8E%E5%8E%9F%E5%85%BD%E5%8C%BB%E7%AB%99&src=vetmap&coordinate=gaode&callnative=1","route_id":"r1","route_name":"第1段"},{"name":"杰杰兽药店","address":"刘集镇施家小学西南侧100米","phone":"","category":"医疗保健服务;动物医疗场所;动物医疗场所","area":"","lng":109.378077,"lat":34.815556,"amap_id":"B0KUD98HTL","order":14,"prev_distance_km":14.488,"cumulative_distance_km":64.762,"amap_marker_url":"https://uri.amap.com/marker?position=109.378077,34.815556&name=%E6%9D%B0%E6%9D%B0%E5%85%BD%E8%8D%AF%E5%BA%97&src=vetmap&coordinate=gaode&callnative=1","route_id":"r1","route_name":"第1段"},{"name":"望杰兽药店","address":"富迤路","phone":"","category":"医疗保健服务;动物医疗场所;动物医疗场所","area":"","lng":109.379239,"lat":34.81565,"amap_id":"B0J3HHITDQ","order":15,"prev_distance_km":0.107,"cumulative_distance_km":64.868,"amap_marker_url":"https://uri.amap.com/marker?position=109.379239,34.815650&name=%E6%9C%9B%E6%9D%B0%E5%85%BD%E8%8D%AF%E5%BA%97&src=vetmap&coordinate=gaode&callnative=1","route_id":"r1","route_name":"第1段"}]}],"rows":[{"name":"富平忠宠宠物诊所","address":"南二环状元府邸南门25-1-7号商铺","phone":"18220636794","category":"医疗保健服务;动物医疗场所;宠物诊所","area":"","lng":109.18122,"lat":34.728974,"amap_id":"B0H125AQ05","order":1,"prev_distance_km":0.0,"cumulative_distance_km":0.0,"amap_marker_url":"https://uri.amap.com/marker?position=109.181220,34.728974&name=%E5%AF%8C%E5%B9%B3%E5%BF%A0%E5%AE%A0%E5%AE%A0%E7%89%A9%E8%AF%8A%E6%89%80&src=vetmap&coordinate=gaode&callnative=1","route_id":"r1","route_name":"第1段","global_order":1},{"name":"辰牧宠物诊疗(富平店)","address":"富兴路中段西A区3-005号","phone":"0913-8235441;15353084687","category":"医疗保健服务;动物医疗场所;宠物诊所","area":"","lng":109.204488,"lat":34.750936,"amap_id":"B0I1BSWY9J","order":2,"prev_distance_km":3.238,"cumulative_distance_km":3.238,"amap_marker_url":"https://uri.amap.com/marker?position=109.204488,34.750936&name=%E8%BE%B0%E7%89%A7%E5%AE%A0%E7%89%A9%E8%AF%8A%E7%96%97%28%E5%AF%8C%E5%B9%B3%E5%BA%97%29&src=vetmap&coordinate=gaode&callnative=1","route_id":"r1","route_name":"第1段","global_order":2},{"name":"宠爱动物康复中心","address":"秦正·华府北门西60米","phone":"0913-8780120","category":"医疗保健服务;动物医疗场所;宠物诊所","area":"","lng":109.200772,"lat":34.751577,"amap_id":"B0FFGJCJWM","order":3,"prev_distance_km":0.347,"cumulative_distance_km":3.585,"amap_marker_url":"https://uri.amap.com/marker?position=109.200772,34.751577&name=%E5%AE%A0%E7%88%B1%E5%8A%A8%E7%89%A9%E5%BA%B7%E5%A4%8D%E4%B8%AD%E5%BF%83&src=vetmap&coordinate=gaode&callnative=1","route_id":"r1","route_name":"第1段","global_order":3},{"name":"李师兽药店","address":"乔山路与怀德大街交叉口东南40米","phone":"0913-8236595;15389135179","category":"医疗保健服务;动物医疗场所;动物医疗场所","area":"","lng":109.183218,"lat":34.766534,"amap_id":"B0FFGXON7H","order":4,"prev_distance_km":2.31,"cumulative_distance_km":5.895,"amap_marker_url":"https://uri.amap.com/marker?position=109.183218,34.766534&name=%E6%9D%8E%E5%B8%88%E5%85%BD%E8%8D%AF%E5%BA%97&src=vetmap&coordinate=gaode&callnative=1","route_id":"r1","route_name":"第1段","global_order":4},{"name":"君昌畜牧兽医技术服务部","address":"望湖路31号","phone":"13991670587","category":"医疗保健服务;动物医疗场所;兽医站","area":"","lng":109.166268,"lat":34.749562,"amap_id":"B03910NKSR","order":5,"prev_distance_km":2.441,"cumulative_distance_km":8.336,"amap_marker_url":"https://uri.amap.com/marker?position=109.166268,34.749562&name=%E5%90%9B%E6%98%8C%E7%95%9C%E7%89%A7%E5%85%BD%E5%8C%BB%E6%8A%80%E6%9C%AF%E6%9C%8D%E5%8A%A1%E9%83%A8&src=vetmap&coordinate=gaode&callnative=1","route_id":"r1","route_name":"第1段","global_order":5},{"name":"宏恩兽药南社分店","address":"张觅路与富耀路交叉口东100米","phone":"","category":"医疗保健服务;动物医疗场所;动物医疗场所","area":"","lng":109.113926,"lat":34.770965,"amap_id":"B0LAVC6OTG","order":6,"prev_distance_km":5.341,"cumulative_distance_km":13.677,"amap_marker_url":"https://uri.amap.com/marker?position=109.113926,34.770965&name=%E5%AE%8F%E6%81%A9%E5%85%BD%E8%8D%AF%E5%8D%97%E7%A4%BE%E5%88%86%E5%BA%97&src=vetmap&coordinate=gaode&callnative=1","route_id":"r1","route_name":"第1段","global_order":6},{"name":"杨前窑畜牧服务站","address":"施兴路","phone":"","category":"医疗保健服务;动物医疗场所;兽医站","area":"","lng":109.107233,"lat":34.791737,"amap_id":"B0L3J1GIAO","order":7,"prev_distance_km":2.389,"cumulative_distance_km":16.067,"amap_marker_url":"https://uri.amap.com/marker?position=109.107233,34.791737&name=%E6%9D%A8%E5%89%8D%E7%AA%91%E7%95%9C%E7%89%A7%E6%9C%8D%E5%8A%A1%E7%AB%99&src=vetmap&coordinate=gaode&callnative=1","route_id":"r1","route_name":"第1段","global_order":7},{"name":"秦泰畜牧兽医服务","address":"金庄路与丑铸路交叉口东60米","phone":"15829833456;18091329676","category":"医疗保健服务;动物医疗场所;兽医站","area":"","lng":109.114032,"lat":34.823905,"amap_id":"B0FFHDFEVM","order":8,"prev_distance_km":3.63,"cumulative_distance_km":19.697,"amap_marker_url":"https://uri.amap.com/marker?position=109.114032,34.823905&name=%E7%A7%A6%E6%B3%B0%E7%95%9C%E7%89%A7%E5%85%BD%E5%8C%BB%E6%9C%8D%E5%8A%A1&src=vetmap&coordinate=gaode&callnative=1","route_id":"r1","route_name":"第1段","global_order":8},{"name":"刘师动物医院","address":"曹村镇曹村街道","phone":"13759669856","category":"医疗保健服务;动物医疗场所;兽医站|医疗保健服务;动物医疗场所;宠物诊所","area":"","lng":109.204964,"lat":34.900251,"amap_id":"B0FFG40XEK","order":9,"prev_distance_km":11.87,"cumulative_distance_km":31.567,"amap_marker_url":"https://uri.amap.com/marker?position=109.204964,34.900251&name=%E5%88%98%E5%B8%88%E5%8A%A8%E7%89%A9%E5%8C%BB%E9%99%A2&src=vetmap&coordinate=gaode&callnative=1","route_id":"r1","route_name":"第1段","global_order":9},{"name":"富平县流曲镇畜牧兽医站","address":"党北路","phone":"","category":"医疗保健服务;动物医疗场所;兽医站","area":"","lng":109.271044,"lat":34.866033,"amap_id":"B0JDR9KAVL","order":10,"prev_distance_km":7.128,"cumulative_distance_km":38.695,"amap_marker_url":"https://uri.amap.com/marker?position=109.271044,34.866033&name=%E5%AF%8C%E5%B9%B3%E5%8E%BF%E6%B5%81%E6%9B%B2%E9%95%87%E7%95%9C%E7%89%A7%E5%85%BD%E5%8C%BB%E7%AB%99&src=vetmap&coordinate=gaode&callnative=1","route_id":"r1","route_name":"第1段","global_order":10},{"name":"宏恩兽药店(流曲分店)","address":"陈底流路","phone":"19890931379","category":"医疗保健服务;动物医疗场所;动物医疗场所","area":"","lng":109.271609,"lat":34.869009,"amap_id":"B0L1MHHE53","order":11,"prev_distance_km":0.335,"cumulative_distance_km":39.03,"amap_marker_url":"https://uri.amap.com/marker?position=109.271609,34.869009&name=%E5%AE%8F%E6%81%A9%E5%85%BD%E8%8D%AF%E5%BA%97%28%E6%B5%81%E6%9B%B2%E5%88%86%E5%BA%97%29&src=vetmap&coordinate=gaode&callnative=1","route_id":"r1","route_name":"第1段","global_order":11},{"name":"科瑞兽药店","address":"金庄路与峪由路交叉口西北140米","phone":"","category":"医疗保健服务;动物医疗场所;动物医疗场所","area":"","lng":109.310275,"lat":34.901025,"amap_id":"B0M6VUJM5D","order":12,"prev_distance_km":5.011,"cumulative_distance_km":44.041,"amap_marker_url":"https://uri.amap.com/marker?position=109.310275,34.901025&name=%E7%A7%91%E7%91%9E%E5%85%BD%E8%8D%AF%E5%BA%97&src=vetmap&coordinate=gaode&callnative=1","route_id":"r1","route_name":"第1段","global_order":12},{"name":"美原兽医站","address":"俭西路与雷苏路交叉口西120米","phone":"","category":"医疗保健服务;动物医疗场所;兽医站","area":"","lng":109.353713,"lat":34.944306,"amap_id":"B0FFH7C36F","order":13,"prev_distance_km":6.233,"cumulative_distance_km":50.274,"amap_marker_url":"https://uri.amap.com/marker?position=109.353713,34.944306&name=%E7%BE%8E%E5%8E%9F%E5%85%BD%E5%8C%BB%E7%AB%99&src=vetmap&coordinate=gaode&callnative=1","route_id":"r1","route_name":"第1段","global_order":13},{"name":"杰杰兽药店","address":"刘集镇施家小学西南侧100米","phone":"","category":"医疗保健服务;动物医疗场所;动物医疗场所","area":"","lng":109.378077,"lat":34.815556,"amap_id":"B0KUD98HTL","order":14,"prev_distance_km":14.488,"cumulative_distance_km":64.762,"amap_marker_url":"https://uri.amap.com/marker?position=109.378077,34.815556&name=%E6%9D%B0%E6%9D%B0%E5%85%BD%E8%8D%AF%E5%BA%97&src=vetmap&coordinate=gaode&callnative=1","route_id":"r1","route_name":"第1段","global_order":14},{"name":"望杰兽药店","address":"富迤路","phone":"","category":"医疗保健服务;动物医疗场所;动物医疗场所","area":"","lng":109.379239,"lat":34.81565,"amap_id":"B0J3HHITDQ","order":15,"prev_distance_km":0.107,"cumulative_distance_km":64.868,"amap_marker_url":"https://uri.amap.com/marker?position=109.379239,34.815650&name=%E6%9C%9B%E6%9D%B0%E5%85%BD%E8%8D%AF%E5%BA%97&src=vetmap&coordinate=gaode&callnative=1","route_id":"r1","route_name":"第1段","global_order":15}]}