{"summary":{"id":"d02600","province":"陕西省","city":"西安市","district":"高陵区","count":16,"route_count":1,"max_route_clinics":16,"total_distance_km":32.65,"coordinate_system":"GCJ-02 / Amap","generated_at":"2026-05-07 21:31:10"},"routes":[{"id":"r1","name":"第1段","count":16,"total_distance_km":32.65,"rows":[{"name":"康禾动物诊所","address":"长庆东路芸金梦想家底商109号","phone":"18149181773","category":"医疗保健服务;动物医疗场所;宠物诊所","area":"","lng":109.028033,"lat":34.448303,"amap_id":"B0K3N5QDLQ","order":1,"prev_distance_km":0.0,"cumulative_distance_km":0.0,"amap_marker_url":"https://uri.amap.com/marker?position=109.028033,34.448303&name=%E5%BA%B7%E7%A6%BE%E5%8A%A8%E7%89%A9%E8%AF%8A%E6%89%80&src=vetmap&coordinate=gaode&callnative=1","route_id":"r1","route_name":"第1段"},{"name":"佳萌动物诊所","address":"泾渭街道泾渭路西营村一组351号","phone":"17829685288","category":"医疗保健服务;动物医疗场所;宠物诊所","area":"","lng":109.006807,"lat":34.44365,"amap_id":"B0JRAYE3O5","order":2,"prev_distance_km":2.014,"cumulative_distance_km":2.014,"amap_marker_url":"https://uri.amap.com/marker?position=109.006807,34.443650&name=%E4%BD%B3%E8%90%8C%E5%8A%A8%E7%89%A9%E8%AF%8A%E6%89%80&src=vetmap&coordinate=gaode&callnative=1","route_id":"r1","route_name":"第1段"},{"name":"爱思妮宠物医院","address":"泾渭三路38号","phone":"029-86031432;15102964518","category":"医疗保健服务;动物医疗场所;宠物诊所","area":"","lng":108.999222,"lat":34.444622,"amap_id":"B0FFGJ43BA","order":3,"prev_distance_km":0.704,"cumulative_distance_km":2.718,"amap_marker_url":"https://uri.amap.com/marker?position=108.999222,34.444622&name=%E7%88%B1%E6%80%9D%E5%A6%AE%E5%AE%A0%E7%89%A9%E5%8C%BB%E9%99%A2&src=vetmap&coordinate=gaode&callnative=1","route_id":"r1","route_name":"第1段"},{"name":"宠物诊所","address":"泾渭街道泾渭路韩村公交站西南100米","phone":"15829056899","category":"医疗保健服务;动物医疗场所;宠物诊所","area":"","lng":109.004642,"lat":34.458306,"amap_id":"B0FFG1C14M","order":4,"prev_distance_km":1.601,"cumulative_distance_km":4.319,"amap_marker_url":"https://uri.amap.com/marker?position=109.004642,34.458306&name=%E5%AE%A0%E7%89%A9%E8%AF%8A%E6%89%80&src=vetmap&coordinate=gaode&callnative=1","route_id":"r1","route_name":"第1段"},{"name":"月半宠物医院","address":"姬家街办杨官寨村惠民楼2号楼1层","phone":"18991254218","category":"医疗保健服务;动物医疗场所;宠物诊所","area":"","lng":109.004918,"lat":34.462908,"amap_id":"B0FFJTJMPL","order":5,"prev_distance_km":0.512,"cumulative_distance_km":4.831,"amap_marker_url":"https://uri.amap.com/marker?position=109.004918,34.462908&name=%E6%9C%88%E5%8D%8A%E5%AE%A0%E7%89%A9%E5%8C%BB%E9%99%A2&src=vetmap&coordinate=gaode&callnative=1","route_id":"r1","route_name":"第1段"},{"name":"爱心宠物店","address":"泾环北路与高茹路交叉口","phone":"13484913908","category":"医疗保健服务;动物医疗场所;宠物诊所","area":"","lng":109.02477,"lat":34.503416,"amap_id":"B001D0VZPG","order":6,"prev_distance_km":4.858,"cumulative_distance_km":9.689,"amap_marker_url":"https://uri.amap.com/marker?position=109.024770,34.503416&name=%E7%88%B1%E5%BF%83%E5%AE%A0%E7%89%A9%E5%BA%97&src=vetmap&coordinate=gaode&callnative=1","route_id":"r1","route_name":"第1段"},{"name":"西安市高陵区米乐宠物服务俱乐部(暂停营业)","address":"通远街办通远派出所西南","phone":"18991188313;19991939801","category":"医疗保健服务;动物医疗场所;动物医疗场所","area":"","lng":109.04097,"lat":34.545673,"amap_id":"B0LRHM6KNK","order":7,"prev_distance_km":4.928,"cumulative_distance_km":14.616,"amap_marker_url":"https://uri.amap.com/marker?position=109.040970,34.545673&name=%E8%A5%BF%E5%AE%89%E5%B8%82%E9%AB%98%E9%99%B5%E5%8C%BA%E7%B1%B3%E4%B9%90%E5%AE%A0%E7%89%A9%E6%9C%8D%E5%8A%A1%E4%BF%B1%E4%B9%90%E9%83%A8%28%E6%9A%82%E5%81%9C%E8%90%A5%E4%B8%9A%29&src=vetmap&coordinate=gaode&callnative=1","route_id":"r1","route_name":"第1段"},{"name":"高陵区乡村兽医诊所","address":"高泾路利民加气站斜对面乡村兽医诊所","phone":"13519109695;15102990533","category":"医疗保健服务;动物医疗场所;兽医站","area":"","lng":109.075593,"lat":34.545089,"amap_id":"B0LRPLRR8G","order":8,"prev_distance_km":3.172,"cumulative_distance_km":17.788,"amap_marker_url":"https://uri.amap.com/marker?position=109.075593,34.545089&name=%E9%AB%98%E9%99%B5%E5%8C%BA%E4%B9%A1%E6%9D%91%E5%85%BD%E5%8C%BB%E8%AF%8A%E6%89%80&src=vetmap&coordinate=gaode&callnative=1","route_id":"r1","route_name":"第1段"},{"name":"高陵区动物疫病预防控制中心","address":"百富饲料有限公司北门旁","phone":"","category":"医疗保健服务;动物医疗场所;动物医疗场所|医疗保健服务;疾病预防机构;疾病预防","area":"","lng":109.08186,"lat":34.543904,"amap_id":"B001D09O74","order":9,"prev_distance_km":0.589,"cumulative_distance_km":18.377,"amap_marker_url":"https://uri.amap.com/marker?position=109.081860,34.543904&name=%E9%AB%98%E9%99%B5%E5%8C%BA%E5%8A%A8%E7%89%A9%E7%96%AB%E7%97%85%E9%A2%84%E9%98%B2%E6%8E%A7%E5%88%B6%E4%B8%AD%E5%BF%83&src=vetmap&coordinate=gaode&callnative=1","route_id":"r1","route_name":"第1段"},{"name":"宝宝宠物医院","address":"西韩街","phone":"029-86911827;13891850773","category":"医疗保健服务;动物医疗场所;宠物诊所","area":"","lng":109.096298,"lat":34.537723,"amap_id":"B001D069UE","order":10,"prev_distance_km":1.49,"cumulative_distance_km":19.867,"amap_marker_url":"https://uri.amap.com/marker?position=109.096298,34.537723&name=%E5%AE%9D%E5%AE%9D%E5%AE%A0%E7%89%A9%E5%8C%BB%E9%99%A2&src=vetmap&coordinate=gaode&callnative=1","route_id":"r1","route_name":"第1段"},{"name":"启爱动物诊疗中心(高陵区店)","address":"西韩街与鹿鸣东路十字北10米","phone":"13572955255","category":"医疗保健服务;动物医疗场所;宠物诊所","area":"","lng":109.096204,"lat":34.537171,"amap_id":"B0H3ZMF7ZD","order":11,"prev_distance_km":0.062,"cumulative_distance_km":19.929,"amap_marker_url":"https://uri.amap.com/marker?position=109.096204,34.537171&name=%E5%90%AF%E7%88%B1%E5%8A%A8%E7%89%A9%E8%AF%8A%E7%96%97%E4%B8%AD%E5%BF%83%28%E9%AB%98%E9%99%B5%E5%8C%BA%E5%BA%97%29&src=vetmap&coordinate=gaode&callnative=1","route_id":"r1","route_name":"第1段"},{"name":"悠米宠物诊所","address":"泾渭上城西门39栋125铺","phone":"18292816702","category":"医疗保健服务;动物医疗场所;宠物诊所","area":"鹿苑","lng":109.093759,"lat":34.524118,"amap_id":"B0KBTHXQST","order":12,"prev_distance_km":1.469,"cumulative_distance_km":21.398,"amap_marker_url":"https://uri.amap.com/marker?position=109.093759,34.524118&name=%E6%82%A0%E7%B1%B3%E5%AE%A0%E7%89%A9%E8%AF%8A%E6%89%80&src=vetmap&coordinate=gaode&callnative=1","route_id":"r1","route_name":"第1段"},{"name":"爪友宠美(天下荣郡店)","address":"鹿苑大道街道天下荣郡北门向西100米路南D5-104","phone":"15771757772","category":"医疗保健服务;动物医疗场所;动物医疗场所","area":"","lng":109.083445,"lat":34.523185,"amap_id":"B0L22SZJ4D","order":13,"prev_distance_km":0.951,"cumulative_distance_km":22.349,"amap_marker_url":"https://uri.amap.com/marker?position=109.083445,34.523185&name=%E7%88%AA%E5%8F%8B%E5%AE%A0%E7%BE%8E%28%E5%A4%A9%E4%B8%8B%E8%8D%A3%E9%83%A1%E5%BA%97%29&src=vetmap&coordinate=gaode&callnative=1","route_id":"r1","route_name":"第1段"},{"name":"渭桥动物诊所","address":"西韩大道与常张路交叉口北100米","phone":"","category":"医疗保健服务;动物医疗场所;宠物诊所","area":"","lng":109.106012,"lat":34.481327,"amap_id":"B0GRO152ZC","order":14,"prev_distance_km":5.093,"cumulative_distance_km":27.442,"amap_marker_url":"https://uri.amap.com/marker?position=109.106012,34.481327&name=%E6%B8%AD%E6%A1%A5%E5%8A%A8%E7%89%A9%E8%AF%8A%E6%89%80&src=vetmap&coordinate=gaode&callnative=1","route_id":"r1","route_name":"第1段"},{"name":"西安市高陵区耿镇畜牧兽医站","address":"爱阅书馆东北侧60米","phone":"","category":"医疗保健服务;动物医疗场所;兽医站","area":"","lng":109.104338,"lat":34.436816,"amap_id":"B0FFLCIX72","order":15,"prev_distance_km":4.952,"cumulative_distance_km":32.394,"amap_marker_url":"https://uri.amap.com/marker?position=109.104338,34.436816&name=%E8%A5%BF%E5%AE%89%E5%B8%82%E9%AB%98%E9%99%B5%E5%8C%BA%E8%80%BF%E9%95%87%E7%95%9C%E7%89%A7%E5%85%BD%E5%8C%BB%E7%AB%99&src=vetmap&coordinate=gaode&callnative=1","route_id":"r1","route_name":"第1段"},{"name":"畜牧兽医服务部","address":"210国道与虎苏路交叉口北40米","phone":"15891792661","category":"医疗保健服务;动物医疗场所;兽医站","area":"","lng":109.101537,"lat":34.436764,"amap_id":"B0FFGJV555","order":16,"prev_distance_km":0.257,"cumulative_distance_km":32.65,"amap_marker_url":"https://uri.amap.com/marker?position=109.101537,34.436764&name=%E7%95%9C%E7%89%A7%E5%85%BD%E5%8C%BB%E6%9C%8D%E5%8A%A1%E9%83%A8&src=vetmap&coordinate=gaode&callnative=1","route_id":"r1","route_name":"第1段"}]}],"rows":[{"name":"康禾动物诊所","address":"长庆东路芸金梦想家底商109号","phone":"18149181773","category":"医疗保健服务;动物医疗场所;宠物诊所","area":"","lng":109.028033,"lat":34.448303,"amap_id":"B0K3N5QDLQ","order":1,"prev_distance_km":0.0,"cumulative_distance_km":0.0,"amap_marker_url":"https://uri.amap.com/marker?position=109.028033,34.448303&name=%E5%BA%B7%E7%A6%BE%E5%8A%A8%E7%89%A9%E8%AF%8A%E6%89%80&src=vetmap&coordinate=gaode&callnative=1","route_id":"r1","route_name":"第1段","global_order":1},{"name":"佳萌动物诊所","address":"泾渭街道泾渭路西营村一组351号","phone":"17829685288","category":"医疗保健服务;动物医疗场所;宠物诊所","area":"","lng":109.006807,"lat":34.44365,"amap_id":"B0JRAYE3O5","order":2,"prev_distance_km":2.014,"cumulative_distance_km":2.014,"amap_marker_url":"https://uri.amap.com/marker?position=109.006807,34.443650&name=%E4%BD%B3%E8%90%8C%E5%8A%A8%E7%89%A9%E8%AF%8A%E6%89%80&src=vetmap&coordinate=gaode&callnative=1","route_id":"r1","route_name":"第1段","global_order":2},{"name":"爱思妮宠物医院","address":"泾渭三路38号","phone":"029-86031432;15102964518","category":"医疗保健服务;动物医疗场所;宠物诊所","area":"","lng":108.999222,"lat":34.444622,"amap_id":"B0FFGJ43BA","order":3,"prev_distance_km":0.704,"cumulative_distance_km":2.718,"amap_marker_url":"https://uri.amap.com/marker?position=108.999222,34.444622&name=%E7%88%B1%E6%80%9D%E5%A6%AE%E5%AE%A0%E7%89%A9%E5%8C%BB%E9%99%A2&src=vetmap&coordinate=gaode&callnative=1","route_id":"r1","route_name":"第1段","global_order":3},{"name":"宠物诊所","address":"泾渭街道泾渭路韩村公交站西南100米","phone":"15829056899","category":"医疗保健服务;动物医疗场所;宠物诊所","area":"","lng":109.004642,"lat":34.458306,"amap_id":"B0FFG1C14M","order":4,"prev_distance_km":1.601,"cumulative_distance_km":4.319,"amap_marker_url":"https://uri.amap.com/marker?position=109.004642,34.458306&name=%E5%AE%A0%E7%89%A9%E8%AF%8A%E6%89%80&src=vetmap&coordinate=gaode&callnative=1","route_id":"r1","route_name":"第1段","global_order":4},{"name":"月半宠物医院","address":"姬家街办杨官寨村惠民楼2号楼1层","phone":"18991254218","category":"医疗保健服务;动物医疗场所;宠物诊所","area":"","lng":109.004918,"lat":34.462908,"amap_id":"B0FFJTJMPL","order":5,"prev_distance_km":0.512,"cumulative_distance_km":4.831,"amap_marker_url":"https://uri.amap.com/marker?position=109.004918,34.462908&name=%E6%9C%88%E5%8D%8A%E5%AE%A0%E7%89%A9%E5%8C%BB%E9%99%A2&src=vetmap&coordinate=gaode&callnative=1","route_id":"r1","route_name":"第1段","global_order":5},{"name":"爱心宠物店","address":"泾环北路与高茹路交叉口","phone":"13484913908","category":"医疗保健服务;动物医疗场所;宠物诊所","area":"","lng":109.02477,"lat":34.503416,"amap_id":"B001D0VZPG","order":6,"prev_distance_km":4.858,"cumulative_distance_km":9.689,"amap_marker_url":"https://uri.amap.com/marker?position=109.024770,34.503416&name=%E7%88%B1%E5%BF%83%E5%AE%A0%E7%89%A9%E5%BA%97&src=vetmap&coordinate=gaode&callnative=1","route_id":"r1","route_name":"第1段","global_order":6},{"name":"西安市高陵区米乐宠物服务俱乐部(暂停营业)","address":"通远街办通远派出所西南","phone":"18991188313;19991939801","category":"医疗保健服务;动物医疗场所;动物医疗场所","area":"","lng":109.04097,"lat":34.545673,"amap_id":"B0LRHM6KNK","order":7,"prev_distance_km":4.928,"cumulative_distance_km":14.616,"amap_marker_url":"https://uri.amap.com/marker?position=109.040970,34.545673&name=%E8%A5%BF%E5%AE%89%E5%B8%82%E9%AB%98%E9%99%B5%E5%8C%BA%E7%B1%B3%E4%B9%90%E5%AE%A0%E7%89%A9%E6%9C%8D%E5%8A%A1%E4%BF%B1%E4%B9%90%E9%83%A8%28%E6%9A%82%E5%81%9C%E8%90%A5%E4%B8%9A%29&src=vetmap&coordinate=gaode&callnative=1","route_id":"r1","route_name":"第1段","global_order":7},{"name":"高陵区乡村兽医诊所","address":"高泾路利民加气站斜对面乡村兽医诊所","phone":"13519109695;15102990533","category":"医疗保健服务;动物医疗场所;兽医站","area":"","lng":109.075593,"lat":34.545089,"amap_id":"B0LRPLRR8G","order":8,"prev_distance_km":3.172,"cumulative_distance_km":17.788,"amap_marker_url":"https://uri.amap.com/marker?position=109.075593,34.545089&name=%E9%AB%98%E9%99%B5%E5%8C%BA%E4%B9%A1%E6%9D%91%E5%85%BD%E5%8C%BB%E8%AF%8A%E6%89%80&src=vetmap&coordinate=gaode&callnative=1","route_id":"r1","route_name":"第1段","global_order":8},{"name":"高陵区动物疫病预防控制中心","address":"百富饲料有限公司北门旁","phone":"","category":"医疗保健服务;动物医疗场所;动物医疗场所|医疗保健服务;疾病预防机构;疾病预防","area":"","lng":109.08186,"lat":34.543904,"amap_id":"B001D09O74","order":9,"prev_distance_km":0.589,"cumulative_distance_km":18.377,"amap_marker_url":"https://uri.amap.com/marker?position=109.081860,34.543904&name=%E9%AB%98%E9%99%B5%E5%8C%BA%E5%8A%A8%E7%89%A9%E7%96%AB%E7%97%85%E9%A2%84%E9%98%B2%E6%8E%A7%E5%88%B6%E4%B8%AD%E5%BF%83&src=vetmap&coordinate=gaode&callnative=1","route_id":"r1","route_name":"第1段","global_order":9},{"name":"宝宝宠物医院","address":"西韩街","phone":"029-86911827;13891850773","category":"医疗保健服务;动物医疗场所;宠物诊所","area":"","lng":109.096298,"lat":34.537723,"amap_id":"B001D069UE","order":10,"prev_distance_km":1.49,"cumulative_distance_km":19.867,"amap_marker_url":"https://uri.amap.com/marker?position=109.096298,34.537723&name=%E5%AE%9D%E5%AE%9D%E5%AE%A0%E7%89%A9%E5%8C%BB%E9%99%A2&src=vetmap&coordinate=gaode&callnative=1","route_id":"r1","route_name":"第1段","global_order":10},{"name":"启爱动物诊疗中心(高陵区店)","address":"西韩街与鹿鸣东路十字北10米","phone":"13572955255","category":"医疗保健服务;动物医疗场所;宠物诊所","area":"","lng":109.096204,"lat":34.537171,"amap_id":"B0H3ZMF7ZD","order":11,"prev_distance_km":0.062,"cumulative_distance_km":19.929,"amap_marker_url":"https://uri.amap.com/marker?position=109.096204,34.537171&name=%E5%90%AF%E7%88%B1%E5%8A%A8%E7%89%A9%E8%AF%8A%E7%96%97%E4%B8%AD%E5%BF%83%28%E9%AB%98%E9%99%B5%E5%8C%BA%E5%BA%97%29&src=vetmap&coordinate=gaode&callnative=1","route_id":"r1","route_name":"第1段","global_order":11},{"name":"悠米宠物诊所","address":"泾渭上城西门39栋125铺","phone":"18292816702","category":"医疗保健服务;动物医疗场所;宠物诊所","area":"鹿苑","lng":109.093759,"lat":34.524118,"amap_id":"B0KBTHXQST","order":12,"prev_distance_km":1.469,"cumulative_distance_km":21.398,"amap_marker_url":"https://uri.amap.com/marker?position=109.093759,34.524118&name=%E6%82%A0%E7%B1%B3%E5%AE%A0%E7%89%A9%E8%AF%8A%E6%89%80&src=vetmap&coordinate=gaode&callnative=1","route_id":"r1","route_name":"第1段","global_order":12},{"name":"爪友宠美(天下荣郡店)","address":"鹿苑大道街道天下荣郡北门向西100米路南D5-104","phone":"15771757772","category":"医疗保健服务;动物医疗场所;动物医疗场所","area":"","lng":109.083445,"lat":34.523185,"amap_id":"B0L22SZJ4D","order":13,"prev_distance_km":0.951,"cumulative_distance_km":22.349,"amap_marker_url":"https://uri.amap.com/marker?position=109.083445,34.523185&name=%E7%88%AA%E5%8F%8B%E5%AE%A0%E7%BE%8E%28%E5%A4%A9%E4%B8%8B%E8%8D%A3%E9%83%A1%E5%BA%97%29&src=vetmap&coordinate=gaode&callnative=1","route_id":"r1","route_name":"第1段","global_order":13},{"name":"渭桥动物诊所","address":"西韩大道与常张路交叉口北100米","phone":"","category":"医疗保健服务;动物医疗场所;宠物诊所","area":"","lng":109.106012,"lat":34.481327,"amap_id":"B0GRO152ZC","order":14,"prev_distance_km":5.093,"cumulative_distance_km":27.442,"amap_marker_url":"https://uri.amap.com/marker?position=109.106012,34.481327&name=%E6%B8%AD%E6%A1%A5%E5%8A%A8%E7%89%A9%E8%AF%8A%E6%89%80&src=vetmap&coordinate=gaode&callnative=1","route_id":"r1","route_name":"第1段","global_order":14},{"name":"西安市高陵区耿镇畜牧兽医站","address":"爱阅书馆东北侧60米","phone":"","category":"医疗保健服务;动物医疗场所;兽医站","area":"","lng":109.104338,"lat":34.436816,"amap_id":"B0FFLCIX72","order":15,"prev_distance_km":4.952,"cumulative_distance_km":32.394,"amap_marker_url":"https://uri.amap.com/marker?position=109.104338,34.436816&name=%E8%A5%BF%E5%AE%89%E5%B8%82%E9%AB%98%E9%99%B5%E5%8C%BA%E8%80%BF%E9%95%87%E7%95%9C%E7%89%A7%E5%85%BD%E5%8C%BB%E7%AB%99&src=vetmap&coordinate=gaode&callnative=1","route_id":"r1","route_name":"第1段","global_order":15},{"name":"畜牧兽医服务部","address":"210国道与虎苏路交叉口北40米","phone":"15891792661","category":"医疗保健服务;动物医疗场所;兽医站","area":"","lng":109.101537,"lat":34.436764,"amap_id":"B0FFGJV555","order":16,"prev_distance_km":0.257,"cumulative_distance_km":32.65,"amap_marker_url":"https://uri.amap.com/marker?position=109.101537,34.436764&name=%E7%95%9C%E7%89%A7%E5%85%BD%E5%8C%BB%E6%9C%8D%E5%8A%A1%E9%83%A8&src=vetmap&coordinate=gaode&callnative=1","route_id":"r1","route_name":"第1段","global_order":16}]}