{"summary":{"id":"d02606","province":"青海省","city":"海东市","district":"乐都区","count":6,"route_count":1,"max_route_clinics":6,"total_distance_km":19.053,"coordinate_system":"GCJ-02 / Amap","generated_at":"2026-05-07 21:31:10"},"routes":[{"id":"r1","name":"第1段","count":6,"total_distance_km":19.053,"rows":[{"name":"桥南兽药店","address":"滨河路9号附近","phone":"13309722559","category":"医疗保健服务;动物医疗场所;动物医疗场所","area":"","lng":102.400621,"lat":36.474694,"amap_id":"B0FFI8I9X5","order":1,"prev_distance_km":0.0,"cumulative_distance_km":0.0,"amap_marker_url":"https://uri.amap.com/marker?position=102.400621,36.474694&name=%E6%A1%A5%E5%8D%97%E5%85%BD%E8%8D%AF%E5%BA%97&src=vetmap&coordinate=gaode&callnative=1","route_id":"r1","route_name":"第1段"},{"name":"畜牧兽医站(海东大道中段店)","address":"畜牧小区西侧","phone":"","category":"医疗保健服务;动物医疗场所;兽医站","area":"","lng":102.399966,"lat":36.474745,"amap_id":"B0J0ZOE880","order":2,"prev_distance_km":0.059,"cumulative_distance_km":0.059,"amap_marker_url":"https://uri.amap.com/marker?position=102.399966,36.474745&name=%E7%95%9C%E7%89%A7%E5%85%BD%E5%8C%BB%E7%AB%99%28%E6%B5%B7%E4%B8%9C%E5%A4%A7%E9%81%93%E4%B8%AD%E6%AE%B5%E5%BA%97%29&src=vetmap&coordinate=gaode&callnative=1","route_id":"r1","route_name":"第1段"},{"name":"小伙伴宠物医院","address":"西关街萨尔斯堡南区S2号楼28-161号商铺(国土局对面)","phone":"18195632188","category":"医疗保健服务;动物医疗场所;宠物诊所","area":"","lng":102.390876,"lat":36.481695,"amap_id":"B0L12HTZWG","order":3,"prev_distance_km":1.122,"cumulative_distance_km":1.18,"amap_marker_url":"https://uri.amap.com/marker?position=102.390876,36.481695&name=%E5%B0%8F%E4%BC%99%E4%BC%B4%E5%AE%A0%E7%89%A9%E5%8C%BB%E9%99%A2&src=vetmap&coordinate=gaode&callnative=1","route_id":"r1","route_name":"第1段"},{"name":"狗德猫宁宠物美容店","address":"碾伯街道南凉大街59号荣盛绿洲14号楼59-88号","phone":"0972-8620852","category":"医疗保健服务;动物医疗场所;动物医疗场所","area":"","lng":102.387716,"lat":36.486323,"amap_id":"B0K2SA8LBJ","order":4,"prev_distance_km":0.587,"cumulative_distance_km":1.767,"amap_marker_url":"https://uri.amap.com/marker?position=102.387716,36.486323&name=%E7%8B%97%E5%BE%B7%E7%8C%AB%E5%AE%81%E5%AE%A0%E7%89%A9%E7%BE%8E%E5%AE%B9%E5%BA%97&src=vetmap&coordinate=gaode&callnative=1","route_id":"r1","route_name":"第1段"},{"name":"京乐宠物门诊","address":"香格里拉东区10-123","phone":"15597288071","category":"医疗保健服务;动物医疗场所;宠物诊所","area":"","lng":102.385834,"lat":36.475709,"amap_id":"B0GRCOFIP0","order":5,"prev_distance_km":1.192,"cumulative_distance_km":2.96,"amap_marker_url":"https://uri.amap.com/marker?position=102.385834,36.475709&name=%E4%BA%AC%E4%B9%90%E5%AE%A0%E7%89%A9%E9%97%A8%E8%AF%8A&src=vetmap&coordinate=gaode&callnative=1","route_id":"r1","route_name":"第1段"},{"name":"瞿昙镇畜牧兽医站","address":"乐化路与东北路交叉口西北200米","phone":"","category":"医疗保健服务;动物医疗场所;兽医站","area":"","lng":102.294226,"lat":36.35116,"amap_id":"B0JULGGO5D","order":6,"prev_distance_km":16.093,"cumulative_distance_km":19.053,"amap_marker_url":"https://uri.amap.com/marker?position=102.294226,36.351160&name=%E7%9E%BF%E6%98%99%E9%95%87%E7%95%9C%E7%89%A7%E5%85%BD%E5%8C%BB%E7%AB%99&src=vetmap&coordinate=gaode&callnative=1","route_id":"r1","route_name":"第1段"}]}],"rows":[{"name":"桥南兽药店","address":"滨河路9号附近","phone":"13309722559","category":"医疗保健服务;动物医疗场所;动物医疗场所","area":"","lng":102.400621,"lat":36.474694,"amap_id":"B0FFI8I9X5","order":1,"prev_distance_km":0.0,"cumulative_distance_km":0.0,"amap_marker_url":"https://uri.amap.com/marker?position=102.400621,36.474694&name=%E6%A1%A5%E5%8D%97%E5%85%BD%E8%8D%AF%E5%BA%97&src=vetmap&coordinate=gaode&callnative=1","route_id":"r1","route_name":"第1段","global_order":1},{"name":"畜牧兽医站(海东大道中段店)","address":"畜牧小区西侧","phone":"","category":"医疗保健服务;动物医疗场所;兽医站","area":"","lng":102.399966,"lat":36.474745,"amap_id":"B0J0ZOE880","order":2,"prev_distance_km":0.059,"cumulative_distance_km":0.059,"amap_marker_url":"https://uri.amap.com/marker?position=102.399966,36.474745&name=%E7%95%9C%E7%89%A7%E5%85%BD%E5%8C%BB%E7%AB%99%28%E6%B5%B7%E4%B8%9C%E5%A4%A7%E9%81%93%E4%B8%AD%E6%AE%B5%E5%BA%97%29&src=vetmap&coordinate=gaode&callnative=1","route_id":"r1","route_name":"第1段","global_order":2},{"name":"小伙伴宠物医院","address":"西关街萨尔斯堡南区S2号楼28-161号商铺(国土局对面)","phone":"18195632188","category":"医疗保健服务;动物医疗场所;宠物诊所","area":"","lng":102.390876,"lat":36.481695,"amap_id":"B0L12HTZWG","order":3,"prev_distance_km":1.122,"cumulative_distance_km":1.18,"amap_marker_url":"https://uri.amap.com/marker?position=102.390876,36.481695&name=%E5%B0%8F%E4%BC%99%E4%BC%B4%E5%AE%A0%E7%89%A9%E5%8C%BB%E9%99%A2&src=vetmap&coordinate=gaode&callnative=1","route_id":"r1","route_name":"第1段","global_order":3},{"name":"狗德猫宁宠物美容店","address":"碾伯街道南凉大街59号荣盛绿洲14号楼59-88号","phone":"0972-8620852","category":"医疗保健服务;动物医疗场所;动物医疗场所","area":"","lng":102.387716,"lat":36.486323,"amap_id":"B0K2SA8LBJ","order":4,"prev_distance_km":0.587,"cumulative_distance_km":1.767,"amap_marker_url":"https://uri.amap.com/marker?position=102.387716,36.486323&name=%E7%8B%97%E5%BE%B7%E7%8C%AB%E5%AE%81%E5%AE%A0%E7%89%A9%E7%BE%8E%E5%AE%B9%E5%BA%97&src=vetmap&coordinate=gaode&callnative=1","route_id":"r1","route_name":"第1段","global_order":4},{"name":"京乐宠物门诊","address":"香格里拉东区10-123","phone":"15597288071","category":"医疗保健服务;动物医疗场所;宠物诊所","area":"","lng":102.385834,"lat":36.475709,"amap_id":"B0GRCOFIP0","order":5,"prev_distance_km":1.192,"cumulative_distance_km":2.96,"amap_marker_url":"https://uri.amap.com/marker?position=102.385834,36.475709&name=%E4%BA%AC%E4%B9%90%E5%AE%A0%E7%89%A9%E9%97%A8%E8%AF%8A&src=vetmap&coordinate=gaode&callnative=1","route_id":"r1","route_name":"第1段","global_order":5},{"name":"瞿昙镇畜牧兽医站","address":"乐化路与东北路交叉口西北200米","phone":"","category":"医疗保健服务;动物医疗场所;兽医站","area":"","lng":102.294226,"lat":36.35116,"amap_id":"B0JULGGO5D","order":6,"prev_distance_km":16.093,"cumulative_distance_km":19.053,"amap_marker_url":"https://uri.amap.com/marker?position=102.294226,36.351160&name=%E7%9E%BF%E6%98%99%E9%95%87%E7%95%9C%E7%89%A7%E5%85%BD%E5%8C%BB%E7%AB%99&src=vetmap&coordinate=gaode&callnative=1","route_id":"r1","route_name":"第1段","global_order":6}]}